名称,省份,真实城市,市县区,区号,电话,区域,地址,大分类,小分类,经度,纬度
新疆八钢旅行社有限公司,新疆,乌鲁木齐,乌鲁木齐,0901,3882266,头屯河区,八一路536号,景点,旅行社,87.295109,43.857386
胡杨旅行社,新疆,乌鲁木齐,乌鲁木齐,0901,8809649,五星南路,碱泉街城盛花园1单元102室,景点,旅行社,87.638252,43.802818
盐城湖旅行社,新疆,乌鲁木齐,乌鲁木齐,0901,5831232,长江路,奇台路兴乐市贸广场,景点,旅行社,87.592873,43.788391
中青旅国际旅行社,新疆,乌鲁木齐,乌鲁木齐,0901,2818451,建设路,文艺路233号宏源大厦3楼、17楼,景点,旅行社,87.617378,43.798199
中国旅行社,新疆,乌鲁木齐,乌鲁木齐,0901,2881466,新华南路,新华南路835号广汇大厦11楼,景点,旅行社,87.610992,43.778652
友好旅行社,新疆,乌鲁木齐,乌鲁木齐,0901,4832288;6991227,友好北路,友好北路548号,景点,旅行社,87.589661,43.823418
天昆旅行社,新疆,乌鲁木齐,乌鲁木齐,0901,4841110,友好北路,友好北路天一大厦A602室（西北路车站下车即到）,景点,旅行社,87.589691,43.823097
红山公园,新疆,乌鲁木齐,乌鲁木齐,0901,8855671,红山路,红山路北一巷40号,景点,城市公园,87.606483,43.80801
鲤鱼山公园,新疆,乌鲁木齐,乌鲁木齐,0901,4323627,小西沟,高新街街道鲤鱼山南路177号,景点,公园/广场,87.580239,43.851017
乌鲁木齐盛贝特海洋馆,新疆,乌鲁木齐,乌鲁木齐,0901,2894194,天山区,燕儿窝路2号,景点,海洋馆,87.611847,43.761349
水磨沟公园,新疆,乌鲁木齐,乌鲁木齐,0901,4684055,水磨沟公园,水磨沟路472号,景点,自然风光,87.656296,43.826908
乌鲁木齐市水上乐园,新疆,乌鲁木齐,乌鲁木齐,0901,8526301,天山区,燕儿窝街道燕儿窝路4号,景点,游乐场,87.614014,43.754715
儿童公园,新疆,乌鲁木齐,乌鲁木齐,0901,4820934;4817205,新医路,友好北路29号,景点,公园/广场,87.581238,43.832664
达坂城风力发电站,新疆,乌鲁木齐,乌鲁木齐,0901,,达坂城区,G7京新高速附近,景点,更多景点/周边游,87.861427,43.572002
柴窝堡湖,新疆,乌鲁木齐,乌鲁木齐,0901,,达坂城区,达坂城谷地中,景点,自然风光,87.90506,43.506073
新疆民俗风情街,新疆,乌鲁木齐,乌鲁木齐,0901,,南门,解放南路37号,景点,休闲街区,87.61898,43.790421
南山牧场西白杨沟风景区,新疆,乌鲁木齐,乌鲁木齐县,0901,5837888;133****3111,乌鲁木齐县其他,甘沟乡216国道南山牧场白杨沟风景区,景点,自然风光,87.168205,43.430298
雅玛里克山,新疆,乌鲁木齐,乌鲁木齐,0901,7960065,沙依巴克区,宝塔路,景点,自然风光,87.576951,43.799016
丝绸之路国际滑雪场,新疆,乌鲁木齐,乌鲁木齐县,0901,5911111,乌鲁木齐县其他,水西沟镇平西梁村二队丝绸之路国际度假区,景点,滑雪场,87.414619,43.441875
南大寺,新疆,乌鲁木齐,乌鲁木齐,0901,,国际大巴扎,解放南路23号,景点,宗教,87.616615,43.780209
陕西大寺,新疆,乌鲁木齐,乌鲁木齐,0901,4532488,文化路,永和正街17号,景点,宗教,87.621056,43.789307
五彩湾风景区,新疆,乌鲁木齐,乌鲁木齐,0901,2782200,米东区,以北100号余公里古尔班通古特沙漠（近红旗村）,景点,自然风光,87.891716,44.911781
港中旅国际新疆旅行社,新疆,乌鲁木齐,乌鲁木齐,0901,2329852,红旗路,红旗路91号夏蒙大厦6楼,景点,旅行社,87.616562,43.794666
新疆天山野生动物园,新疆,乌鲁木齐,乌鲁木齐,0901,5916208;5916608,达坂城区,窝尔图路天山牧场五队,景点,动物园,87.786339,43.668144
中国青年旅行社,新疆,乌鲁木齐,乌鲁木齐,0901,,五星南路,青年路北一巷8号中基大厦4楼,景点,旅行社,87.627281,43.804363
红光山景区,新疆,乌鲁木齐,乌鲁木齐,0901,4889169;4889777,亚欧国际会展中心,红光山路一号,景点,自然风光,87.624298,43.891663
青海大寺,新疆,乌鲁木齐,乌鲁木齐,0901,3990535,文化路,和平南路263号,景点,宗教,87.621613,43.785812
阳光假期旅行社,新疆,乌鲁木齐,乌鲁木齐,0901,135****5811,五星南路,青年路17号阳光花苑B座605室,景点,旅行社,87.628731,43.804329
康辉大自然国际旅行社,新疆,乌鲁木齐,乌鲁木齐,0901,5293000;189****6146,乌鲁木齐市一中,解放北路128号天际大厦8F（近儿童医院，第一中学，海融口腔门诊）,景点,旅行社,87.621368,43.799435
一号冰川,新疆,乌鲁木齐,乌鲁木齐县,0901,4613731,乌鲁木齐县其他,萨尔达坂乡216国道,景点,自然风光,86.845741,43.112385
明园,新疆,乌鲁木齐,乌鲁木齐,0901,4298990,友好北路,友好南路2号,景点,更多景点/周边游,87.591988,43.817997
7坊街,新疆,乌鲁木齐,乌鲁木齐,0901,,温泉路,温泉西路640号,景点,休闲街区,87.654602,43.836342
人民广场,新疆,乌鲁木齐,乌鲁木齐,0901,2833818,东风路,东风路与和平北路,景点,广场,87.624191,43.795177
河州清真大寺,新疆,乌鲁木齐,乌鲁木齐,0901,,红旗路,建中路92号,景点,宗教,87.620628,43.788586
中国工农红军西路军总支队纪念馆,新疆,乌鲁木齐,乌鲁木齐,0901,8881439,东风路,西后街37号,景点,纪念馆,87.629807,43.802486
北坊清真寺,新疆,乌鲁木齐,乌鲁木齐,0901,2057220,红旗路,人民路181号,景点,宗教,87.614639,43.791576
凤翔寺,新疆,乌鲁木齐,乌鲁木齐,0901,,红旗路,中山路289号,景点,宗教,87.61599,43.794357
汗腾格里大寺,新疆,乌鲁木齐,乌鲁木齐,0901,8667777,红旗路,解放南路31号,景点,宗教,87.618706,43.79052
兰州寺,新疆,乌鲁木齐,乌鲁木齐,0901,8163299,幸福路,跃进路277号,景点,宗教,87.630013,43.785065
明德路基督教堂,新疆,乌鲁木齐,乌鲁木齐,0901,8818558,东风路,明德路120号,景点,宗教,87.627106,43.791981
三屯碑清真寺,新疆,乌鲁木齐,乌鲁木齐,0901,135****2605,新疆大学,胜利路629号,景点,宗教,87.612267,43.765415
体育公园,新疆,乌鲁木齐,乌鲁木齐,0901,4380222,东风路,东环路206号,景点,公园/广场,87.633842,43.793625
天主教堂,新疆,乌鲁木齐,乌鲁木齐,0901,3889111,中山路,和平南路98号,景点,宗教,87.62471,43.78933
文庙,新疆,乌鲁木齐,乌鲁木齐,0901,8881439,东风路,前进路231号,景点,宗教,87.629433,43.802399
新疆大学民街民俗博物馆,新疆,乌鲁木齐,乌鲁木齐,0901,,文化路,龙泉街349号,景点,博物馆,87.617493,43.785629
延安公园,新疆,乌鲁木齐,乌鲁木齐,0901,2712719,延安路,延安路358号,景点,公园/广场,87.623245,43.769619
巴里坤寺,新疆,乌鲁木齐,乌鲁木齐,0901,3989888,国际大巴扎,和平南路428号,景点,宗教,87.619728,43.781567
白大寺,新疆,乌鲁木齐,乌鲁木齐,0901,5833769,新疆民俗街,解放南路441号,景点,宗教,87.618782,43.783241
二道桥清真寺,新疆,乌鲁木齐,乌鲁木齐,0901,8555480,新疆大学,和平南路505号,景点,宗教,87.61879,43.779778
乌鲁木齐市博物馆,新疆,乌鲁木齐,乌鲁木齐,0901,6193619,南湖路,凤起街111号文化中心,景点,博物馆,87.612946,43.822025
乌鲁木齐美术馆,新疆,乌鲁木齐,乌鲁木齐,0901,7655777,南湖路,南湖南路180号,景点,美术馆,87.614037,43.823383
永登寺,新疆,乌鲁木齐,乌鲁木齐,0901,8870488,文化路,和平南路207号,景点,宗教,87.622917,43.787418
南公园,新疆,乌鲁木齐,乌鲁木齐,0901,8555032,新疆大学,新华南路1689号,景点,公园/广场,87.606651,43.766567
洋行清真寺,新疆,乌鲁木齐,乌鲁木齐,0901,6266808,新疆大学,胜利路143号,景点,宗教,87.615257,43.776051
石化公园,新疆,乌鲁木齐,乌鲁木齐,0901,2052600,米东区,大庆路和中盛街交口旁,景点,公园/广场,87.701202,43.956379
新疆古生态园汗血马基地,新疆,乌鲁木齐,乌鲁木齐,0901,3819369;7652892,小西沟,昆明路158号野马国际大厦停车场2号观光电梯4楼新疆古生态园,景点,自然保护区,87.576739,43.854079
米东区人民公园,新疆,乌鲁木齐,乌鲁木齐,0901,,米东区中心城区,古牧地西路353号,景点,城市公园,87.642899,43.968182
雪隐山居,新疆,乌鲁木齐,乌鲁木齐县,0901,138****9555,乌鲁木齐县其他,水西沟方家庄197号农家乐,景点,更多景点/周边游,87.50148,43.489311
和阗街清真大寺,新疆,乌鲁木齐,乌鲁木齐,0901,3866555,奇台路,和田一街15号,景点,宗教,87.604202,43.787922
炉院街清真寺,新疆,乌鲁木齐,乌鲁木齐,0901,8347777,仓房沟,炉院东街29号,景点,宗教,87.595291,43.77562
南梁坡清真寺,新疆,乌鲁木齐,乌鲁木齐,0901,2012177,西北路,南昌路93号,景点,宗教,87.583191,43.807812
沙依布拉克寺,新疆,乌鲁木齐,乌鲁木齐,0901,6550000,奇台路,黄河路231号,景点,宗教,87.600418,43.786697
新疆科技馆,新疆,乌鲁木齐,乌鲁木齐,0901,6386167,阿勒泰路,新医路686号,景点,科技馆,87.577744,43.834049
八户梁街清真寺,新疆,乌鲁木齐,乌鲁木齐,0901,7997897,延安路,八户梁街159号,景点,宗教,87.621597,43.772812
天彩中国彩棉科技园,新疆,乌鲁木齐,乌鲁木齐,0901,3973612,新市区,乌昌路2538号,景点,博物馆,87.432419,43.934616
黑山头寺,新疆,乌鲁木齐,乌鲁木齐,0901,8825468,阿勒泰路,阿勒泰路1333号,景点,宗教,87.55249,43.859039
鲤鱼山清真寺,新疆,乌鲁木齐,乌鲁木齐,0901,,小西沟,府友巷14号,景点,宗教,87.577682,43.845055
陕西老坊寺,新疆,乌鲁木齐,乌鲁木齐,0901,8189190,文化路,新市路44号,景点,宗教,87.616783,43.786961
东坊大寺,新疆,乌鲁木齐,乌鲁木齐,0901,8131080,文化路,新市路181号,景点,宗教,87.621582,43.787434
喀什路独好游园,新疆,乌鲁木齐,乌鲁木齐,0901,2036777,粮校,喀什东路266号,景点,更多景点/周边游,87.595406,43.903175
太原路清真寺,新疆,乌鲁木齐,乌鲁木齐,0901,6918668,喀什西路,太原北路708号,景点,宗教,87.536179,43.888683
小东沟清真寺,新疆,乌鲁木齐,乌鲁木齐,0901,4658111,头屯河区,同盛街北八巷1号,景点,宗教,87.376801,44.016371
青少年科技中心,新疆,乌鲁木齐,乌鲁木齐,0901,8822999,阿勒泰路,北京南路2-4号科技大厦3楼,景点,科技馆,87.575684,43.839752
石人沟石碟谷风情园,新疆,乌鲁木齐,乌鲁木齐,0901,6868078,达坂城区,石仁子村一队石人子沟中路石人沟石碟谷风情园,景点,更多景点/周边游,87.788193,43.821423
新疆国际会展中心,新疆,乌鲁木齐,乌鲁木齐,0901,4612703,七道湾,红光山路3号,景点,展览馆,87.620789,43.87851
维斯特欢乐城,新疆,乌鲁木齐,乌鲁木齐,0901,180****9288,七道湾,温泉西路4号,景点,温泉,87.672508,43.840893
二宫清真寺,新疆,乌鲁木齐,乌鲁木齐,0901,3691377,北京南路,锦苑四巷17号,景点,宗教,87.570282,43.863586
固原清真大寺,新疆,乌鲁木齐,乌鲁木齐,0901,6021128,新疆民俗街,固原一巷60号,景点,景点/周边游,87.622284,43.783356
撒拉寺,新疆,乌鲁木齐,乌鲁木齐,0901,3227889,新疆民俗街,撒拉寺巷27号,景点,宗教,87.619789,43.782433
小西沟大寺,新疆,乌鲁木齐,乌鲁木齐,0901,135****5245,阿勒泰路,青城巷573号,景点,宗教,87.56263,43.852093
高家庄清真寺,新疆,乌鲁木齐,乌鲁木齐,0901,2181628,温泉路,温泉西路356号,景点,宗教,87.648094,43.834095
西大桥清真寺,新疆,乌鲁木齐,乌鲁木齐,0901,8212658,揽秀园西街,西虹西路145号,景点,宗教,87.593094,43.810249
红山清真寺,新疆,乌鲁木齐,乌鲁木齐,0901,7667777,新民路,红山路北3巷31号(园林水电家属院301室),景点,宗教,87.613914,43.806778
仓房沟清真大寺,新疆,乌鲁木齐,乌鲁木齐,0901,2818700,仓房沟,水泥厂街北巷与仓柏一巷交叉口西南260米,景点,宗教,87.581795,43.754063
南湖清真寺,新疆,乌鲁木齐,乌鲁木齐,0901,7660999,南湖东路,南湖东路北五巷97号,景点,宗教,87.625542,43.832085
十七户大寺,新疆,乌鲁木齐,乌鲁木齐,0901,2839588,天山区,赛马场路东3巷60号,景点,宗教,87.621811,43.745884
乌鲁木齐市烈士陵园,新疆,乌鲁木齐,乌鲁木齐,0901,8524910,天山区,燕儿窝风景区524号,景点,烈士陵园,87.597664,43.732815
燕儿窝风景区,新疆,乌鲁木齐,乌鲁木齐,0901,8533593,天山区,燕儿窝街道燕儿窝路811号,景点,自然风光,87.58725,43.717922
古牧地清真大寺,新疆,乌鲁木齐,乌鲁木齐,0901,,米东区中心城区,稻香南路471号,景点,宗教,87.648071,43.958984
苏州路清真大寺,新疆,乌鲁木齐,乌鲁木齐,0901,,苏州路,银川北路803号,景点,宗教,87.59259,43.866547
白云国际滑雪场,新疆,乌鲁木齐,乌鲁木齐县,0901,7693166,乌鲁木齐县其他,水西沟镇东湾村老虎沟,景点,滑雪场,87.494858,43.444366
梦幻之旅国际旅行社,新疆,乌鲁木齐,乌鲁木齐,0901,4000098688,南湖路,西虹东路456号腾飞大厦611室,景点,旅行社,87.614517,43.815948
新疆盐湖景区,新疆,乌鲁木齐,乌鲁木齐,0901,5900068,达坂城区,盐田三路古湖8号街盐湖景区,景点,自然风光,88.130432,43.384262
维斯特滑雪场,新疆,乌鲁木齐,乌鲁木齐,0901,4886088,七道湾,河马泉街道温泉路287号,景点,滑雪场,87.673286,43.843849
乌鲁木齐天山大峡谷景区,新疆,乌鲁木齐,乌鲁木齐县,0901,7629111;7629333,乌鲁木齐县其他,板房沟镇灯草沟村阑旅基地天山大峡谷游客服务中心,景点,自然风光,87.357048,43.263691
银峰滑雪场,新疆,乌鲁木齐,乌鲁木齐县,0901,135****0552,乌鲁木齐县其他,南溪南路水西沟镇中心十字路口左转300米上行,景点,滑雪场,87.478195,43.445686
东湾清真寺,新疆,乌鲁木齐,乌鲁木齐县,0901,,乌鲁木齐县其他,东湾村附近,景点,宗教,87.501205,43.473862
板房沟清真寺,新疆,乌鲁木齐,乌鲁木齐县,0901,,乌鲁木齐县其他,天山大道,景点,宗教,87.39991,43.463543
巴布盖民俗自然村,新疆,乌鲁木齐,乌鲁木齐县,0901,,乌鲁木齐县其他,216国道东50米,景点,古村古镇,87.180939,43.278183
九龙生态园,新疆,乌鲁木齐,乌鲁木齐,0901,5101234,西山新区,城区苜蓿沟北路3880号,景点,更多景点/周边游,87.458595,43.75592
仓房沟五队清真寺,新疆,乌鲁木齐,乌鲁木齐,0901,,沙依巴克区,菜园街与仓欣东路交叉口东北140米,景点,宗教,87.547953,43.733061
新疆卓越假期国际旅行社,新疆,乌鲁木齐,乌鲁木齐,0901,5892717;158****8621,光明路,友好南路643号人民公园北门旁,景点,旅行社,87.603737,43.802689
巩宁城城墙遗址,新疆,乌鲁木齐,乌鲁木齐,0901,,新疆农业大学,外环路高架沁园小区西南侧约30米,景点,古代遗迹,87.565056,43.807274
中旅假日国际旅行社,新疆,乌鲁木齐,乌鲁木齐,0901,5863711,长江路,经一路315号,景点,旅行社,87.595673,43.783333
信达旅行社,新疆,乌鲁木齐,乌鲁木齐,0901,2816556,中山路,人民路,景点,旅行社,87.603104,43.793522
康辉旅游,新疆,乌鲁木齐,乌鲁木齐,0901,2869123,黄河路,钱塘江路216号雪莲酒店1层大厅,景点,旅行社,87.599335,43.780827
空军新疆航空队纪念馆,新疆,乌鲁木齐,乌鲁木齐,0901,,幸福路,幸福路车站对面,景点,纪念馆,87.64743,43.784142
河坝沿清真寺,新疆,乌鲁木齐,乌鲁木齐,0901,3852111,光明路,中桥三巷大友国际北侧约40米,景点,宗教,87.608704,43.796871
奥生体育广场,新疆,乌鲁木齐,乌鲁木齐,0901,,红旗路,红旗路,景点,广场,87.616325,43.796879
中桥北寺,新疆,乌鲁木齐,乌鲁木齐,0901,,中山路,小西门南五巷26号,景点,宗教,87.609322,43.794979
东正教堂,新疆,乌鲁木齐,乌鲁木齐,0901,,新疆大学,新东路90号,景点,宗教,87.620682,43.770191
菜园子清真大寺,新疆,乌鲁木齐,乌鲁木齐,0901,,米东区,三道坝南路156号,景点,宗教,87.658291,43.971021
西二渠清真大寺,新疆,乌鲁木齐,乌鲁木齐,0901,,米东区,西二渠南巷9号,景点,宗教,87.629546,43.994825
东工南大寺,新疆,乌鲁木齐,乌鲁木齐,0901,,米东区,皇渠沿南四巷乌鲁木齐市第一0五小学南侧约130米,景点,宗教,87.692042,43.998497
金桥国旅,新疆,乌鲁木齐,乌鲁木齐,0901,3351777,米东区中心城区,稻香中路237号,景点,旅行社,87.648581,43.965891
石化回族清真寺,新疆,乌鲁木齐,乌鲁木齐,0901,,米东区,中瑞街142号,景点,宗教,87.687454,43.953232
中兴路步行广场,新疆,乌鲁木齐,乌鲁木齐,0901,,米东区,米东北路中兴路,景点,广场,87.677719,43.963085
葛家沟清真寺,新疆,乌鲁木齐,乌鲁木齐,0901,,水磨沟区,葛家沟东路与葛家沟西路交叉口东南500米,景点,宗教,87.743576,43.805729
铁西公园,新疆,乌鲁木齐,乌鲁木齐,0901,,头屯河区,西园街161号,景点,公园/广场,87.419836,43.872619
莲廷科技生态园,新疆,乌鲁木齐,乌鲁木齐,0901,,头屯河区,中枢北路西50米,景点,植物园,87.430921,43.886969
俊发红光山生态园,新疆,乌鲁木齐,乌鲁木齐,0901,4889165,米东区,红光山,景点,植物园,87.624076,43.891766
六道湾清真寺,新疆,乌鲁木齐,乌鲁木齐,0901,,昆仑东路,六道湾路139号,景点,宗教,87.635452,43.83683
五千年画廊,新疆,乌鲁木齐,乌鲁木齐,0901,4666683,南湖路,南湖南路182号,景点,美术馆,87.613968,43.823608
八道湾生态园,新疆,乌鲁木齐,乌鲁木齐,0901,,水磨沟区,丰华路912号,景点,植物园,87.692818,43.86998
区域古生物化石及典型岩矿标本陈列馆,新疆,乌鲁木齐,乌鲁木齐,0901,,新市区,齐高新技术产业开发区天津北路466号,景点,博物馆,87.565323,43.887386
兰亭诗书画院,新疆,乌鲁木齐,乌鲁木齐,0901,,卫星广场,广州南街38号,景点,美术馆,87.540977,43.873135
新疆体育国际旅行社,新疆,乌鲁木齐,乌鲁木齐,0901,3662725,小西沟,贵州路9号,景点,旅行社,87.57621,43.849041
新明社区科普展馆,新疆,乌鲁木齐,乌鲁木齐,0901,,地窝堡国际机场,迎宾北一路67号,景点,科技馆,87.498363,43.897867
康辉旅游,新疆,乌鲁木齐,乌鲁木齐,0901,189****8690,铁路局,铁路局江苏西路118号,景点,旅行社,87.557404,43.870922
二工古墓清真大寺,新疆,乌鲁木齐,乌鲁木齐,0901,,长春路,鲤鱼山南路西六巷321号,景点,宗教,87.585373,43.864937
西八家户寺,新疆,乌鲁木齐,乌鲁木齐,0901,,亚欧国际会展中心,鲤鱼山北路与鲤鱼山北路西一巷交叉口东北60米,景点,宗教,87.594772,43.88065
中营宫清真寺,新疆,乌鲁木齐,乌鲁木齐,0901,,阿勒泰路,北京南路215号,景点,宗教,87.573013,43.842621
头号桥清真寺,新疆,乌鲁木齐,乌鲁木齐县,0901,,乌鲁木齐县其他,永丰镇216国道西100米,景点,宗教,87.32317,43.535855
姚氏度假村,新疆,乌鲁木齐,乌鲁木齐,0901,3952588,新市区,与安宁渠路交汇处南侧1.5公里,景点,景点/周边游,87.495922,43.968482
海外国旅,新疆,乌鲁木齐,乌鲁木齐,0901,5835899,长江路,长江路31号,景点,旅行社,87.595383,43.793625
原野旅行社,新疆,乌鲁木齐,乌鲁木齐,0901,5816586,长江路,长江路339号伊犁大酒店,景点,旅行社,87.593193,43.787033
花儿沟风情园,新疆,乌鲁木齐,乌鲁木齐,0901,,大湾,花儿沟街316号,景点,自然风光,87.646988,43.748455
祥云庄园,新疆,乌鲁木齐,乌鲁木齐,0901,6869511,达坂城区,百泉路,景点,动植物园,87.826775,43.858749
纵横西部旅行社,新疆,乌鲁木齐,乌鲁木齐,0901,,长江路,钱塘江路419号喀什国际酒店写字楼11层1107号,景点,旅行社,87.590458,43.782488
新龙庄园渡假村,新疆,乌鲁木齐,乌鲁木齐,0901,5910888,达坂城区,三一四国道白杨沟附近,景点,动植物园,88.023186,43.66711
阿亚斯庄园,新疆,乌鲁木齐,乌鲁木齐县,0901,,乌鲁木齐县其他,水西沟附近,景点,动植物园,87.509743,43.457843
康辉大自然国际旅行社,新疆,乌鲁木齐,乌鲁木齐,0901,8786627,阿勒泰路,北京南街129号,景点,旅行社,87.574112,43.839703
新丝路旅行社,新疆,乌鲁木齐,乌鲁木齐,0901,4551597,揽秀园西街,外环路以内友好南路421号天隆大厦,景点,旅行社,87.596169,43.807873
梨园渡假村,新疆,乌鲁木齐,乌鲁木齐,0901,5942658,达坂城区,镇八家户村附近,景点,景点/周边游,88.321754,43.357857
中青旅新疆国际旅行社公司,新疆,乌鲁木齐,乌鲁木齐,0901,,文化路,解放南路255号珠拉大厦12层1219室,景点,旅行社,87.61908,43.786182
新疆大学科技园,新疆,乌鲁木齐,乌鲁木齐,0901,,克拉玛依西路,克拉玛依西街688号,景点,科技馆,87.565001,43.818541
团结清真寺,新疆,乌鲁木齐,乌鲁木齐,0901,,温泉路,温泉西路59号山水名苑小区旁,景点,宗教,87.651642,43.83062
保昌堡西寺,新疆,乌鲁木齐,乌鲁木齐,0901,,新市区,007乡道与保昌堡三路交叉口东120米,景点,宗教,87.527525,43.961964
长胜大队清真寺,新疆,乌鲁木齐,乌鲁木齐,0901,,仓房沟,仓房沟南路295号,景点,宗教,87.510719,43.735589
大石头清真寺,新疆,乌鲁木齐,乌鲁木齐,0901,,达坂城区,石人沟中路2519号,景点,宗教,87.802521,43.814217
大寨沟清真寺,新疆,乌鲁木齐,乌鲁木齐,0901,,头屯河区,银川路344号,景点,宗教,87.492476,43.879456
东白杨沟旅游风景区,新疆,乌鲁木齐,乌鲁木齐县,0901,4666931,乌鲁木齐县其他,东白杨沟村附近,景点,自然风光,87.253708,43.438095
法明寺,新疆,乌鲁木齐,乌鲁木齐县,0901,5921220,乌鲁木齐县其他,天山大道AK南430米,景点,宗教,87.396217,43.455441
和平园,新疆,乌鲁木齐,乌鲁木齐,0901,,阿勒泰路,苏州西街288号对面,景点,公园/广场,87.556213,43.857388
郃阳渠清真寺,新疆,乌鲁木齐,乌鲁木齐县,0901,,乌鲁木齐县其他,天山大道AK号,景点,宗教,87.42054,43.520756
黑头山维族清真寺,新疆,乌鲁木齐,乌鲁木齐,0901,,阿勒泰路,阿勒泰路918号,景点,宗教,87.563942,43.848381
红沙滩风景区,新疆,乌鲁木齐,乌鲁木齐,0901,,头屯河区,永丰镇西山农场附近,景点,海滨沙滩,87.371114,43.807384
红雁池风景旅游区,新疆,乌鲁木齐,乌鲁木齐,0901,,天山区,燕儿窝路与红雁池南路交叉口东2公里,景点,自然风光,87.616142,43.709633
徽庄·水乡旅游区,新疆,乌鲁木齐,乌鲁木齐,0901,,新市区,六十户鱼乡,景点,更多景点/周边游,87.440143,44.044563
冀宝斋画廊,新疆,乌鲁木齐,乌鲁木齐,0901,136****2056,五星南路,新民路西二巷与新民路交叉路口往东约50米（创天大厦东侧）,景点,美术馆,87.620841,43.806671
居春园,新疆,乌鲁木齐,乌鲁木齐,0901,,南湖路,南湖南路西2巷47号,景点,公园/广场,87.610207,43.822601
军垦美术馆,新疆,乌鲁木齐,乌鲁木齐,0901,,红旗路,民主路158号,景点,美术馆,87.615936,43.796883
乌鲁木齐科学技术馆,新疆,乌鲁木齐,乌鲁木齐,0901,5509830,中山路,黑龙江路1号青少年宫院内,景点,科技馆,87.60495,43.793633
李家湾清真寺,新疆,乌鲁木齐,乌鲁木齐,0901,,达坂城区,达西路7号,景点,宗教,88.363121,43.499638
历代和阗玉博物馆,新疆,乌鲁木齐,乌鲁木齐,0901,3783953,二宫体育馆,北京中路367号,景点,博物馆,87.552109,43.883636
庙尔沟瀑布风景区,新疆,乌鲁木齐,乌鲁木齐县,0901,,乌鲁木齐县其他,庙尔沟村附近,景点,自然风光,87.435669,43.414352
南北新农业博览馆,新疆,乌鲁木齐,乌鲁木齐,0901,,南湖路,南湖西路168号,景点,展览馆,87.608902,43.825211
清泉寺,新疆,乌鲁木齐,乌鲁木齐,0901,4684055,温泉路,水磨沟路472号,景点,宗教,87.659744,43.829578
托里乡清真寺,新疆,乌鲁木齐,乌鲁木齐县,0901,,乌鲁木齐县其他,X031乌鲁木齐市苜蓿台生态公园,景点,宗教,87.630157,43.449871
银川路清真寺,新疆,乌鲁木齐,乌鲁木齐,0901,4871434,医学院,西八家户路北二巷134号,景点,宗教,87.589149,43.847099
迎宾北一路清真寺,新疆,乌鲁木齐,乌鲁木齐,0901,,地窝堡国际机场,迎宾北一路142号,景点,宗教,87.493997,43.902668
三个庄子清真寺,新疆,乌鲁木齐,乌鲁木齐,0901,,米东区,三个庄西三巷,景点,宗教,87.584457,44.08711
上梁头清真寺,新疆,乌鲁木齐,乌鲁木齐,0901,,米东区,梁西路与上梁头东巷交叉路口往西北约200米,景点,宗教,87.576219,44.029408
水西沟清真大寺,新疆,乌鲁木齐,乌鲁木齐县,0901,,乌鲁木齐县其他,南泉路西50米,景点,景点/周边游,87.473902,43.480262
探索广场,新疆,乌鲁木齐,乌鲁木齐,0901,3844543,天津路,科学二街,景点,公园/广场,87.570365,43.866505
铁西大寺,新疆,乌鲁木齐,乌鲁木齐,0901,4823349,仓房沟,青峰路587号,景点,宗教,87.583571,43.770101
小渠子旅游区,新疆,乌鲁木齐,乌鲁木齐县,0901,,乌鲁木齐县其他,附近,景点,自然风光,87.122833,43.51582
妖魔山,新疆,乌鲁木齐,乌鲁木齐,0901,6297012,沙依巴克区,城区环卫南路,景点,自然风光,87.560501,43.771011
中梁大寺,新疆,乌鲁木齐,乌鲁木齐县,0901,,乌鲁木齐县其他,中梁村附近,景点,宗教,87.363014,43.540131
会馆多功能厅,新疆,乌鲁木齐,乌鲁木齐,0901,7688888,北京南路,昆明路158号野马国际大厦,景点,展览馆,87.574432,43.856121
高崖子清真寺,新疆,乌鲁木齐,乌鲁木齐,0901,,达坂城区,近郊X020,景点,宗教,88.562607,43.450619
永安旅行社,新疆,乌鲁木齐,乌鲁木齐,0901,4850773,友好北路,巴州路302号,景点,旅行社,87.588001,43.828971
盛大国际旅行社,新疆,乌鲁木齐,乌鲁木齐,0901,180****0500,粮校,喀什东路987号七号公馆9楼,景点,旅行社,87.566452,43.897274
金桥国际旅行社,新疆,乌鲁木齐,乌鲁木齐,0901,138****7280,新华北路,政协巷汇丰女装7楼,景点,旅行社,87.608971,43.799412
新疆大西部国际旅行社博格达宾馆旗舰店,新疆,乌鲁木齐,乌鲁木齐,0901,2830261,光明路,新华北路街道光明路253号博格达宾馆门口（博格达宾馆）,景点,旅行社,87.61734,43.79821
新疆中国国际旅行社有限责任公司,新疆,乌鲁木齐,乌鲁木齐,0901,5596114;5588114,长江路,长江路与五一路交叉口西南20米,景点,旅行社,87.594467,43.79023
新疆天山风情国际旅行社有限公司,新疆,乌鲁木齐,乌鲁木齐,0901,2323657;2323751,新疆农业大学,西虹西路371号SOHO新时代A2501室,景点,旅行社,87.585701,43.807472
喀纳斯国际旅行社,新疆,乌鲁木齐,乌鲁木齐,0901,5828200,西北路,西北路887号鑫丰达大厦a座24楼2401室,景点,旅行社,87.588638,43.813011
中国旅行社有限公司,新疆,乌鲁木齐,乌鲁木齐,0901,133****9085,东风路,中山路338号金砖国际大厦2层,景点,旅行社,87.620079,43.793903
新疆楼兰金舟国际旅行社,新疆,乌鲁木齐,乌鲁木齐,0901,4585029,扬子江路,扬子江路213号红十月小区东一区1号楼1单元1201室,景点,旅行社,87.597122,43.798252
亚心原生态冰雪乐园,新疆,乌鲁木齐,乌鲁木齐县,0901,,乌鲁木齐县其他,永丰乡包家槽子村,景点,主题乐园,87.333603,43.6838
亿达地下商业街,新疆,乌鲁木齐,乌鲁木齐,0901,2886888;3379933,米东区中心城区,稻香南路陈超中医诊所旁,景点,休闲街区,87.649231,43.963291
圣人鳄,新疆,乌鲁木齐,乌鲁木齐,0901,,建设路,解放北路街道,景点,动物园,87.620705,43.794872
美程在线国际旅行社,新疆,乌鲁木齐,乌鲁木齐,0901,4676311,南湖路,南湖东路人寿大厦2004号,景点,旅行社,87.614517,43.815952
91票务网,新疆,乌鲁木齐,乌鲁木齐,0901,4885491;4885891,南湖路,南湖东路77号新疆上海合作基地（长青四队车站）,景点,旅行社,87.62336,43.82814
新疆民街,新疆,乌鲁木齐,乌鲁木齐,0901,2330038;2828688,文化路,解放南路街道龙泉街349号,景点,休闲街区,87.617577,43.785572
三宫私宅,新疆,乌鲁木齐,乌鲁木齐,0901,,迎宾路,锦州西路天康家属院,景点,景点/周边游,87.542594,43.892584
新疆鲲鹏旅行社,新疆,乌鲁木齐,乌鲁木齐,0901,4008117770,长江路,奇台路460号兴乐世贸广场21层,景点,旅行社,87.592834,43.788261
美术馆二期,新疆,乌鲁木齐,乌鲁木齐,0901,,长春路,长春南路179号(美居物流园南侧,景点,美术馆,87.58152,43.869221
天池国际旅行社,新疆,乌鲁木齐,乌鲁木齐,0901,158****8288,建设路,解放北路128号天际大厦F4层,景点,旅行社,87.621338,43.799576
潘升大世界度假村,新疆,乌鲁木齐,乌鲁木齐,0901,150****5106,米东区,铁厂沟镇峡门子旅游区林泉路天山三巷31号1栋1号,景点,更多景点/周边游,87.873924,43.90995
度假南山大众滑雪场,新疆,乌鲁木齐,乌鲁木齐县,0901,8111888,乌鲁木齐县其他,水西沟镇,景点,滑雪场,87.478668,43.450668
长青美食购物街,新疆,乌鲁木齐,乌鲁木齐,0901,4672118,南湖路,南湖东路南2巷-19号,景点,观光街区,87.627143,43.825011
花千谷,新疆,乌鲁木齐,乌鲁木齐,0901,,达坂城区,石人沟中路与华瑞街交叉口南200米,景点,自然风光,87.785011,43.843525
新疆兵团中国青年旅行社,新疆,乌鲁木齐,乌鲁木齐,0901,6678888;6665566,天津路,二工街道天津北路银城大厦B座,景点,旅行社,87.567297,43.882407
马牙山,新疆,乌鲁木齐,乌鲁木齐,0901,,米东区,天池风景区西南（距天池约3公里）,景点,自然风光,87.943468,43.897328
新疆地质矿产博物馆,新疆,乌鲁木齐,乌鲁木齐,0901,4812066,友好北路,友好北路430号,景点,博物馆,87.588295,43.826908
新疆国际大巴扎,新疆,乌鲁木齐,乌鲁木齐,0901,8555485;8555486,国际大巴扎,解放南路国际大巴扎景区,景点,现代小镇,87.618027,43.780033
哈熊沟,新疆,乌鲁木齐,乌鲁木齐县,0901,,乌鲁木齐县其他,天山大峡谷内（西南角）,景点,自然风光,87.15506,43.255081
同程假期国际旅行社,新疆,乌鲁木齐,乌鲁木齐,0901,,华凌市场,友好南路429号天隆大厦,景点,旅行社,87.596123,43.80793
新疆康辉旅游米东门市,新疆,乌鲁木齐,乌鲁木齐,0901,3315551,米东区中心城区,古牧地西路363号,景点,旅行社,87.643941,43.964591
晨报国际旅行社,新疆,乌鲁木齐,乌鲁木齐,0901,186****2351,五星南路,东风路257号都市消费晨报一楼112室,景点,旅行社,87.633484,43.799557
新疆大西部国际旅行社,新疆,乌鲁木齐,乌鲁木齐,0901,,友好北路,友好北路225号宏运大厦19层,景点,旅行社,87.58638,43.828682
中国青年旅行社,新疆,乌鲁木齐,乌鲁木齐,0901,3883537,头屯河区,八一路445,景点,旅行社,87.293074,43.854094
丝路行旅行社,新疆,乌鲁木齐,乌鲁木齐,0901,,华凌市场,扬子江路街道友好南路429号天隆大厦10层B9,景点,旅行社,87.596367,43.807991
康辉旅游,新疆,乌鲁木齐,乌鲁木齐,0901,181****7104,红山路,友好南路471号,景点,旅行社,87.596924,43.806973
新疆商务旅行社,新疆,乌鲁木齐,乌鲁木齐,0901,8090958,国际大巴扎,新华南路街道新华南路广汇大厦15楼B号,景点,旅行社,87.610802,43.77866
新疆丝路游旅行社有限公司,新疆,乌鲁木齐,乌鲁木齐,0901,7686266,河南西路,河南西路169号红楼大酒店1楼,景点,旅行社,87.554176,43.86871
新疆绿洲寰宇国际旅行社,新疆,乌鲁木齐,乌鲁木齐,0901,,光明路,新华南路145号4楼,景点,旅行社,87.609016,43.803596
新疆金色阳光旅行社,新疆,乌鲁木齐,乌鲁木齐,0901,4331501,新医路,新医路89号新星大厦6层,景点,旅行社,87.595779,43.836067
新疆行家旅行社有限公司,新疆,乌鲁木齐,乌鲁木齐,0901,,人民电影院,文艺路106号恒福大厦A-23-7号,景点,旅行社,87.61836,43.79831
康辉旅游,新疆,乌鲁木齐,乌鲁木齐,0901,4552020,西北路,友好南路90号石油学院名苑1楼,景点,旅行社,87.586983,43.816025
新疆中旅假日国际旅行社有限公司,新疆,乌鲁木齐,乌鲁木齐,0901,2310325,长江路,伊宁路89号新丰大厦a座7层,景点,旅行社,87.594666,43.786537
徕远广场,新疆,乌鲁木齐,乌鲁木齐,0901,6995188,民主路,解放北路177号,景点,公园/广场,87.621109,43.797745
康辉旅游铁路局门市,新疆,乌鲁木齐,乌鲁木齐,0901,3633599,天津路,北京南路926号宜必思酒店,景点,旅行社,87.564339,43.866389
丝路风光国际旅行社,新疆,乌鲁木齐,乌鲁木齐,0901,,铁路局,北京中路51号大陆桥酒店北楼1楼,景点,旅行社,87.559284,43.873212
新疆国际康乐假期旅行社,新疆,乌鲁木齐,乌鲁木齐,0901,,北京南路,北京南路370号银通大厦,景点,旅行社,87.569687,43.854365
新疆旅游公司,新疆,乌鲁木齐,乌鲁木齐,0901,,新华北路,新华北路258号金谷大酒店803室,景点,旅行社,87.610802,43.798782
中国青年旅行社,新疆,乌鲁木齐,乌鲁木齐,0901,3844229,长春路,长春南路408号,景点,旅行社,87.583641,43.871517
新疆春之旅国际旅行社,新疆,乌鲁木齐,乌鲁木齐,0901,,长江路,长江路街道长江路265号恒裕国际大厦12楼,景点,旅行社,87.59388,43.788868
新疆和田玉文博馆,新疆,乌鲁木齐,乌鲁木齐,0901,189****3939,北京南路,昆明路158号野马古生态园左侧,景点,博物馆,87.575699,43.856194
九州国际旅行社,新疆,乌鲁木齐,乌鲁木齐,0901,,扬子江路,黑龙江路187号天山大酒店1108室,景点,旅行社,87.595184,43.794563
天池国际旅行社,新疆,乌鲁木齐,乌鲁木齐,0901,186****9741,医学院,银川路广汇丽园小区一号楼三单元301室,景点,旅行社,87.592873,43.83527
团结花园,新疆,乌鲁木齐,乌鲁木齐,0901,6263388,团结路,胜利路14号,景点,公园/广场,87.617455,43.778118
亚欧博览会,新疆,乌鲁木齐,乌鲁木齐,0901,,亚欧国际会展中心,红光山路3号,景点,展览馆,87.6208,43.87854
新疆康辉旅游,新疆,乌鲁木齐,乌鲁木齐,0901,189****2322,天津路,果岭·新天地B座404室,景点,旅行社,87.572021,43.885654
康辉旅游,新疆,乌鲁木齐,乌鲁木齐,0901,7675000,天津路,天津北路290号1-7号门面,景点,旅行社,87.567934,43.883124
野马丝路驿站文化主题沙龙,新疆,乌鲁木齐,乌鲁木齐,0901,7688888,小西沟,昆明路158号,景点,旅游项目/观光项目,87.574478,43.856239
维斯特温泉假日酒店,新疆,乌鲁木齐,乌鲁木齐,0901,4160888,七道湾,温泉东路287号,景点,温泉,87.670273,43.842365
八路军驻新疆办事处纪念馆,新疆,乌鲁木齐,乌鲁木齐,0901,2860393;2863663,新疆大学,胜利路392号,景点,纪念馆,87.615562,43.773544
新疆雪莲花国际旅行社,新疆,乌鲁木齐,乌鲁木齐,0901,5858406,新华南路,人民路38号新宏信大厦1404室（近大西门）,景点,旅行社,87.610329,43.791161
人民公园,新疆,乌鲁木齐,乌鲁木齐,0901,5849434,沙依巴克区,友好南路3号,景点,城市公园,87.604347,43.798309
中国棉花博物馆,新疆,乌鲁木齐,乌鲁木齐,0901,6090188,新市区,乌昌路2538号中国彩棉科技园,景点,博物馆,87.431931,43.935658
新疆维吾尔自治区博物馆,新疆,乌鲁木齐,乌鲁木齐,0901,4552826;4536436,自治区博物馆,西北路581号,景点,博物馆,87.583984,43.819508
新疆运通国际旅行社,新疆,乌鲁木齐,乌鲁木齐,0901,181****0005;135****9889,迎宾路,迎宾路丑马一号文创园内,景点,旅行社,87.516047,43.885727
中国旅行社,新疆,乌鲁木齐,乌鲁木齐,0901,8888941;180****3726,华凌干果市场,南湖西路南三巷红山村花园小区,景点,旅行社,87.608368,43.824127
新疆美程在线国旅,新疆,乌鲁木齐,乌鲁木齐,0901,4676303,乌鲁木齐市一中,"南湖东路139号（人寿大厦20楼2004,长青四队汽车站旁）",景点,旅行社,87.621346,43.799454
乌鲁木齐市植物园,新疆,乌鲁木齐,乌鲁木齐,0901,131****6928,二宫体育馆,北京中路916号,景点,植物园,87.556351,43.890846
新疆华青国际旅行社,新疆,乌鲁木齐,乌鲁木齐,0901,189****1077,扬子江路,黑龙江路187号天山大酒店1809室,景点,旅行社,87.595169,43.794697
北极岛冰雪乐园,新疆,乌鲁木齐,乌鲁木齐,0901,4816765,沙依巴克区,河滩北路人民公园内（北侧）,景点,主题乐园,87.603996,43.801113
新疆巴士国际旅行社有限公司,新疆,乌鲁木齐,乌鲁木齐,0901,135****3166,黄河路,黄河路2号招商银行大厦11楼,景点,旅行社,87.603256,43.792324
美食街,新疆,乌鲁木齐,乌鲁木齐,0901,,南湖路,华祥五巷6号2栋1层(市水务局旁),景点,休闲街区,87.613159,43.817986
恐龙山庄,新疆,乌鲁木齐,乌鲁木齐县,0901,181****6410,乌鲁木齐县其他,天山大峡谷,景点,更多景点/周边游,87.379313,43.418924
白杨沟南山南滑雪场,新疆,乌鲁木齐,乌鲁木齐县,0901,133****3111,乌鲁木齐县其他,216国道与109省道交叉口西行5千米（西白杨沟自然风景区）,景点,滑雪场,87.167923,43.429855
华都商业街,新疆,乌鲁木齐,乌鲁木齐,0901,,米东区,振兴北路820号,景点,观光街区,87.629121,43.971411
新疆民族文化国际旅行社有限公司,新疆,乌鲁木齐,乌鲁木齐,0901,2303296,延安路,延安路154号吉利商务基地3楼3-39室,景点,旅行社,87.619675,43.77293
农家乐园度假村,新疆,乌鲁木齐,乌鲁木齐,0901,3556382,西山新区,西山路与西山西街南一巷交叉口,景点,更多景点/周边游,87.539062,43.80212
新疆中旅,新疆,乌鲁木齐,乌鲁木齐,0901,2375518,中山路,中山路338号金砖国际大厦2楼,景点,旅行社,87.619755,43.794074
老南坊坑坑大寺,新疆,乌鲁木齐,乌鲁木齐,0901,5962155,新疆民俗街,龙泉街南巷52号,景点,宗教,87.615562,43.783062
峡门子风景区,新疆,乌鲁木齐,乌鲁木齐,0901,,米东区,铁厂沟镇,景点,自然风光,87.884804,43.907486
环球会展中心,新疆,乌鲁木齐,乌鲁木齐,0901,,北京南路,北京南路76号,景点,展览馆,87.575005,43.841972
南山牧场哈萨克民族风情园,新疆,乌鲁木齐,乌鲁木齐,0901,2057800,西山新区,西山西街祥瑞小区,景点,民俗文化村,87.53907,43.802128
三屯碑水库,新疆,乌鲁木齐,乌鲁木齐,0901,,天山区,燕儿窝街道,景点,现代建筑,87.615181,43.756763
黄工水库,新疆,乌鲁木齐,乌鲁木齐,0901,,米东区,幸福1号,景点,现代建筑,87.640839,44.139767
红山公园-南园,新疆,乌鲁木齐,乌鲁木齐,0901,8868416,红山路,新民西街76号,景点,公园/广场,87.610725,43.806923
新疆当代美术馆,新疆,乌鲁木齐,乌鲁木齐,0901,4656639,温泉路,温泉西路716号,景点,美术馆,87.655441,43.836094
新疆中国国际旅行社有限责任公司,新疆,乌鲁木齐,乌鲁木齐,0901,133****0555,人民路,人民路33号瑞达国际1期16楼,景点,旅行社,87.608109,43.792385
乌鲁木齐畅游国旅旅行社有限公司,新疆,乌鲁木齐,乌鲁木齐,0901,189****8857,华凌市场,友好南路天章大厦1012室,景点,旅行社,87.5951,43.808937
金博殿,新疆,乌鲁木齐,乌鲁木齐,0901,5188315;159****9808,华凌市场,西虹东路89号,景点,人文古迹,87.602165,43.815575
华凌步行街,新疆,乌鲁木齐,乌鲁木齐,0901,5185835,华凌市场,西虹东路109号华凌雅高美爵大饭店2楼,景点,休闲街区,87.605255,43.815136
新疆海外旅行社,新疆,乌鲁木齐,乌鲁木齐,0901,133****5855,长江路,宝山路793号新建大酒店4楼,景点,旅行社,87.585884,43.784344
小绿谷生态园,新疆,乌鲁木齐,乌鲁木齐,0901,,万达广场,万寿山街和大明湖路交汇处,景点,公园/广场,87.504852,43.83783
康辉旅游,新疆,乌鲁木齐,乌鲁木齐,0901,7728805;3105580,头屯河区,安康路与东林街交叉口西南80米,景点,旅行社,87.425261,43.872651
康辉旅游,新疆,乌鲁木齐,乌鲁木齐,0901,3322700;189****9939,米东区中心城区,古牧地中路与米泉南路交叉口东南20米,景点,旅行社,87.655655,43.965008
康辉旅游,新疆,乌鲁木齐,乌鲁木齐,0901,6287689;181****5155,天津路,新体巷161号奥林小区7栋1层商7室,景点,旅行社,87.565552,43.878071
达坂城古镇,新疆,乌鲁木齐,乌鲁木齐,0901,5945168;136****7945,达坂城区,312国道路侧白水涧古镇,景点,古村古镇,88.338608,43.326347
故乡庄院,新疆,乌鲁木齐,乌鲁木齐县,0901,138****5602,乌鲁木齐县其他,216国道永丰村二队,景点,更多景点/周边游,87.356022,43.565146
石人沟,新疆,乌鲁木齐,乌鲁木齐,0901,,达坂城区,石仁子村一队北侧,景点,自然风光,87.817734,43.835754
大东沟景区,新疆,乌鲁木齐,乌鲁木齐县,0901,,乌鲁木齐县其他,大东沟景区,景点,自然风光,87.535599,43.422417
铁路花园,新疆,乌鲁木齐,乌鲁木齐,0901,,铁路局,北二路与江苏西路交叉口西150米,景点,公园/广场,87.556038,43.871117
山和冷却塔,新疆,乌鲁木齐,乌鲁木齐,0901,182****2879,头屯河区,北站四路603号,景点,景点/周边游,87.472605,43.873249
爱家爱宝乐儿童游乐城,新疆,乌鲁木齐,乌鲁木齐,0901,,铁路局,南二路128号爱家购物广场,景点,游乐场,87.560822,43.866306
丽能影像新疆影像博物馆,新疆,乌鲁木齐,乌鲁木齐,0901,,小西沟,桂林路与融创街交叉口东南20米,景点,博物馆,87.573448,43.853962
康辉旅游,新疆,乌鲁木齐,乌鲁木齐,0901,6655661,万达广场,天柱山街275号,景点,旅行社,87.498584,43.840984
益彩画廊,新疆,乌鲁木齐,乌鲁木齐,0901,,华凌市场,西虹东路109号华凌贸易城F4层,景点,美术馆,87.603783,43.816193
峰庭画廊,新疆,乌鲁木齐,乌鲁木齐,0901,,华凌市场,西虹东路109号华凌贸易城F4层,景点,美术馆,87.603653,43.816963
红楼酒悦酒行,新疆,乌鲁木齐,乌鲁木齐,0901,159****5760,河南西路,河南西路169号红楼大酒店1楼,景点,旅行社,87.554184,43.868717
乌鲁木齐西山老君庙,新疆,乌鲁木齐,乌鲁木齐,0901,8728199,西山新区,西山路122号,景点,宗教,87.523239,43.801331
中韩小小大创意美术馆,新疆,乌鲁木齐,乌鲁木齐,0901,4328066,医学院,西八家户路768号二毛天山花园博雅文轩小区G16号楼一楼,景点,美术馆,87.598282,43.847927
三山广场,新疆,乌鲁木齐,乌鲁木齐,0901,,幸福路,体育馆路400号,景点,广场,87.638138,43.786148
八钢厂史馆,新疆,乌鲁木齐,乌鲁木齐,0901,,头屯河区,文景西路136号,景点,展览馆,87.297969,43.857891
小渠子乡,新疆,乌鲁木齐,乌鲁木齐县,0901,,乌鲁木齐县其他,小梁子乡附近,景点,人文古迹,87.122833,43.51582
植物园冰雪大世界,新疆,乌鲁木齐,乌鲁木齐,0901,131****6928,二宫体育馆,北京中路916号,景点,主题乐园,87.554443,43.890266
仓房沟游园,新疆,乌鲁木齐,乌鲁木齐,0901,,仓房沟,南站货场东路1-17号,景点,公园/广场,87.591721,43.768307
西河坝清真寺,新疆,乌鲁木齐,乌鲁木齐,0901,,新华南路,西河坝前街308号,景点,宗教,87.610725,43.787975
自治区党校礼堂,新疆,乌鲁木齐,乌鲁木齐,0901,,五星南路,西后街55号,景点,展览馆,87.631142,43.800816
新疆西尔丹辣椒文化观光园,新疆,乌鲁木齐,乌鲁木齐,0901,3967153,头屯河区,金石路与银环街交叉路口往东南约90米,景点,更多景点/周边游,87.391869,43.907223
水色假日生态度假景区,新疆,乌鲁木齐,乌鲁木齐,0901,6993637,头屯河区,奋进路与友联西街交叉口西300米,景点,动植物园,87.440117,44.044464
绿昆度假村,新疆,乌鲁木齐,乌鲁木齐,0901,3948345,新市区,北大路村,景点,更多景点/周边游,87.536913,43.999563
德坤文化广市场,新疆,乌鲁木齐,乌鲁木齐,0901,,米东区,卡子湾街道二钢兵团德坤利民社区,景点,广场,87.625738,43.908949
画家街,新疆,乌鲁木齐,乌鲁木齐,0901,6282798,新市区,校园路与喀什西路交叉口西北300米,景点,观光街区,87.523888,43.880688
天河广场,新疆,乌鲁木齐,乌鲁木齐,0901,6670666;6670999,天津路,天津北路316号,景点,公园/广场,87.568208,43.884013
新疆神域国际旅行社,新疆,乌鲁木齐,乌鲁木齐,0901,133****8718,西北路,友好南路429号天隆大厦8楼,景点,旅行社,87.596268,43.807732
亚心花海主题乐园,新疆,乌鲁木齐,乌鲁木齐,0901,7982467,头屯河区,兵团十二师三坪农场兵团十二师三坪农场中坪东街兵团十二师三坪花卉旅游产业园对面,景点,主题乐园,87.378159,43.935032
丝绸之路丝路汤泉,新疆,乌鲁木齐,乌鲁木齐县,0901,5911111;189****3151,乌鲁木齐县其他,水西沟镇平西梁村二队丝绸之路国际度假区内,景点,温泉,87.417305,43.445957
乌拉斯台草原,新疆,乌鲁木齐,乌鲁木齐县,0901,5837888,乌鲁木齐县其他,南山牧场西白杨沟景区,景点,自然风光,87.178345,43.434715
省心旅游,新疆,乌鲁木齐,乌鲁木齐,0901,3343108,米东区中心城区,古牧地西路高新小区门面756号,景点,旅行社,87.643769,43.964629
新疆国旅假期国际旅行社有限公司,新疆,乌鲁木齐,乌鲁木齐,0901,4811555;185****5280,人民路,人民路33号瑞达国际大厦1栋16层1-8室,景点,旅行社,87.608704,43.792271
丝绸之路国际度假区,新疆,乌鲁木齐,乌鲁木齐县,0901,5911111,乌鲁木齐县其他,水西沟镇平西梁村二队,景点,更多景点/周边游,87.416741,43.446071
河谷次生林景区,新疆,乌鲁木齐,乌鲁木齐,0901,,达坂城区,达东路,景点,自然风光,88.463234,43.422722
北郊记忆创意生活广场,新疆,乌鲁木齐,乌鲁木齐,0901,,迎宾路,校园路111号,景点,公园/广场,87.518073,43.884203
三角花园,新疆,乌鲁木齐,乌鲁木齐,0901,,头屯河区,八一路520号,景点,公园/广场,87.2951,43.8579
彦成车生活·文体创意园,新疆,乌鲁木齐,乌鲁木齐,0901,4183397,七道湾,红光山路2669号,景点,创意园区,87.62921,43.87976
天鹅湖领袖庄园,新疆,乌鲁木齐,乌鲁木齐,0901,,新市区,常州街120号,景点,更多景点/周边游,87.544873,43.914513
新疆滑雪联盟,新疆,乌鲁木齐,乌鲁木齐县,0901,139****8580,乌鲁木齐县,近郊水西沟镇平西梁景区,景点,滑雪场,87.477684,43.466511
师苑休闲园,新疆,乌鲁木齐,乌鲁木齐,0901,139****3636,头屯河区,中坪东街三坪农场青年队,景点,公园/广场,87.35965,43.940895
新疆雕塑艺术园,新疆,乌鲁木齐,乌鲁木齐,0901,136****0435,水磨沟区,观园路师范大学东门东北270米,景点,美术馆,87.716759,43.810413
水产品展示中心,新疆,乌鲁木齐,乌鲁木齐,0901,,长江路,长江路街道,景点,展览馆,87.59214,43.783741
菊花台景区,新疆,乌鲁木齐,乌鲁木齐县,0901,5931688;5931766,乌鲁木齐县其他,甘沟乡前进村,景点,自然风光,87.165024,43.481281
东方地球物理公司厂史展览馆,新疆,乌鲁木齐,乌鲁木齐,0901,,地窝堡国际机场,迎宾北一路67号新明社区科普展馆附近,景点,展览馆,87.498367,43.89782
少儿艺术馆,新疆,乌鲁木齐,乌鲁木齐,0901,,米东区,西营社区碱沟西路荷兰小镇,景点,美术馆,87.618622,43.955605
创新广场,新疆,乌鲁木齐,乌鲁木齐,0901,,新市区,二工街道四平路2288号,景点,广场,87.592969,43.892232
八钢历史馆,新疆,乌鲁木齐,乌鲁木齐,0901,,头屯河区,八一路728号,景点,展览馆,87.298022,43.857952
友好大酒店-会议厅,新疆,乌鲁木齐,乌鲁木齐,0901,,友好北路,友好北路548号,景点,展览馆,87.589638,43.82338
生命藻文博馆,新疆,乌鲁木齐,乌鲁木齐,0901,4810821,华凌市场,滨河中路190号滨河公寓一层,景点,博物馆,87.595942,43.818472
乌鲁木齐鑫兰台档案服务中心,新疆,乌鲁木齐,乌鲁木齐,0901,4699078,劳动街,安居南路东一巷,景点,展览馆,87.609047,43.818939
石河子大厦-会议中心,新疆,乌鲁木齐,乌鲁木齐,0901,,西北路,西北路1066号,景点,景点/周边游,87.595665,43.807194
植物园-科普馆,新疆,乌鲁木齐,乌鲁木齐,0901,7626898,二宫体育馆,北京中路916号,景点,科技馆,87.551949,43.887604
新疆康辉大自然国际旅行社八钢门市,新疆,乌鲁木齐,乌鲁木齐,0901,152****8134,头屯河区,柯坪路456号附近,景点,旅行社,87.289753,43.859223
民族风情街,新疆,乌鲁木齐,乌鲁木齐,0901,,新疆民俗街,龙泉街349号,景点,观光街区,87.617249,43.785381
天鹅湖自然风景区,新疆,乌鲁木齐,乌鲁木齐县,0901,,乌鲁木齐县其他,天山大峡谷内（南侧）,景点,更多景点/周边游,87.43853,43.343674
后峡,新疆,乌鲁木齐,乌鲁木齐县,0901,,乌鲁木齐县其他,萨尔达坂乡,景点,自然风光,87.170326,43.267612
欧李·画廊,新疆,乌鲁木齐,乌鲁木齐,0901,,新华北路,成功广场东大门旁,景点,美术馆,87.610542,43.797867
中聿堂专业文房四宝用品展示中心,新疆,乌鲁木齐,乌鲁木齐,0901,6678876;189****4307,长春路,八家户街道,景点,展览馆,87.587944,43.873894
城里城外度假村,新疆,乌鲁木齐,乌鲁木齐,0901,186****0888,水磨沟区,石人沟村百泉路149号,景点,更多景点/周边游,87.821753,43.856523
依山傍水四季休闲度假村,新疆,乌鲁木齐,乌鲁木齐,0901,189****5175,米东区,铁厂沟峡门子,景点,景点/周边游,87.914197,43.904637
鸿雁池水景度假村,新疆,乌鲁木齐,乌鲁木齐,0901,,天山区,燕儿窝路,景点,景点/周边游,87.607863,43.720539
新疆飞扬国际旅行社,新疆,乌鲁木齐,乌鲁木齐,0901,4528118,华凌市场,友好南路136号瑞昌大厦1101室,景点,旅行社,87.593163,43.814968
中国沉香文化博物馆交易中心,新疆,乌鲁木齐,乌鲁木齐,0901,,劳动街,西虹东路与西虹东路北二巷交叉口东南40米,景点,博物馆,87.607079,43.814674
中恒lCC展示中心,新疆,乌鲁木齐,乌鲁木齐,0901,,苏州路,银川路街道苏州东街343号,景点,展览馆,87.586141,43.861031
丝绸之路观光塔,新疆,乌鲁木齐,乌鲁木齐,0901,,国际大巴扎,解放南路8号国际大巴扎内,景点,高空观景,87.618073,43.779633
新疆海外国际旅行社有限责任公司,新疆,乌鲁木齐,乌鲁木齐,0901,4189718,沙依巴克区,公园北街162号212室,景点,旅行社,87.60083,43.796864
新疆峰景国旅,新疆,乌鲁木齐,乌鲁木齐,0901,150****2757,自治区博物馆,友好南路街道西北路989号,景点,旅行社,87.591019,43.811119
东区塔,新疆,乌鲁木齐,乌鲁木齐,0901,,仓房沟,钱塘江路38号东区,景点,景点/周边游,87.60318,43.774052
哈密天天快运公司乌鲁木齐公司会堂,新疆,乌鲁木齐,乌鲁木齐,0901,,仓房沟,三泰路西50米,景点,景点/周边游,87.597155,43.749215
东林憩苑,新疆,乌鲁木齐,乌鲁木齐,0901,5881091,米东区,哈熊沟金龙山庄西北侧210米,景点,人文古迹,87.993041,43.816614
易启旅游,新疆,乌鲁木齐,乌鲁木齐,0901,,中山路,中山路338号,景点,旅行社,87.620079,43.793846
新疆生态与地理研究所标本馆,新疆,乌鲁木齐,乌鲁木齐,0901,7885478,天津路,科学二街277号,景点,展览馆,87.567171,43.867607
八大怪,新疆,乌鲁木齐,乌鲁木齐,0901,,达坂城区,古镇景区内,景点,更多景点/周边游,88.338139,43.327219
之上云集,新疆,乌鲁木齐,乌鲁木齐,0901,,民主路,解放北路117号徕远广场B座1栋1层B2-04室,景点,休闲街区,87.619255,43.797459
爱乐儿童水乐园,新疆,乌鲁木齐,乌鲁木齐,0901,5588693;186****7800,奇台路,奇台路658号,景点,游乐场,87.587158,43.788319
邠州清真寺,新疆,乌鲁木齐,乌鲁木齐,0901,,大西门商业圈,马市巷79号,景点,景点/周边游,87.615835,43.789355
新疆艺术学院-美术馆,新疆,乌鲁木齐,乌鲁木齐,0901,,团结路,团结路734号,景点,美术馆,87.629303,43.771351
1+1当代艺术馆,新疆,乌鲁木齐,乌鲁木齐,0901,,华凌市场,华凌贸易城四楼连廊11室,景点,美术馆,87.602646,43.816551
吉利塔姬,新疆,乌鲁木齐,乌鲁木齐,0901,5884848;181****3337,小西门,河滩南路与西河街交叉口东南100米,景点,人文古迹,87.607605,43.796497
中青旅,新疆,乌鲁木齐,乌鲁木齐,0901,151****8055;3929400,新医路,银川路5号,景点,旅行社,87.593402,43.835252
青建新中心广场,新疆,乌鲁木齐,乌鲁木齐,0901,3334839,沙依巴克区,西城街810号附近,景点,公园/广场,87.553687,43.829958
圆心展厅,新疆,乌鲁木齐,乌鲁木齐,0901,,长春路,八家户街道,景点,展览馆,87.591614,43.874219
新疆遨游假期旅行社有限公司,新疆,乌鲁木齐,乌鲁木齐,0901,3202020;2317113,北京南路,北京南路442号新发大厦1510室,景点,旅行社,87.569016,43.856548
二毛姐模特道具陈列馆,新疆,乌鲁木齐,乌鲁木齐,0901,156****7126,小西门,小西门南四巷与中桥三巷交叉口正北方向109米,景点,展览馆,87.608467,43.796387
乌鲁木齐金博欢国际旅行社有限公司,新疆,乌鲁木齐,乌鲁木齐,0901,3819217,天津路,北京路895号豪威大厦1702室,景点,旅行社,87.561974,43.868591
丝路文化产业园,新疆,乌鲁木齐,乌鲁木齐县,0901,7516506;7516501,乌鲁木齐县其他,平西梁村丝路影城,景点,影视基地,87.415731,43.447075
天山小峡谷滑雪场,新疆,乌鲁木齐,乌鲁木齐县,0901,177****0357,乌鲁木齐县其他,灯草沟村西南400米处,景点,滑雪场,87.369606,43.415588
馕文化产业园,新疆,乌鲁木齐,乌鲁木齐,0901,,水磨沟区,九道湾路与腾汇三路交叉口西300米路北,景点,创意园区,87.687652,43.889073
冰雪特色小镇,新疆,乌鲁木齐,乌鲁木齐县,0901,,乌鲁木齐县其他,南水路,景点,游乐场,87.472939,43.47084
至绘艺术,新疆,乌鲁木齐,乌鲁木齐,0901,136****5339,南湖路,市政府小区东南门旁,景点,美术馆,87.609482,43.819084
新疆天文台南山观测站,新疆,乌鲁木齐,乌鲁木齐县,0901,3689020,乌鲁木齐县其他,S110,景点,天文馆,87.18103,43.472233
康辉旅游,新疆,乌鲁木齐,乌鲁木齐,0901,152****6730,新市区,喀什西路景苑社区门口5-2商铺,景点,旅行社,87.542216,43.888876
新疆中旅假日国际旅行社,新疆,乌鲁木齐,乌鲁木齐,0901,3921767,迎宾路,百园路88号通佳世纪城三期30号楼,景点,旅行社,87.545213,43.907243
康辉旅游,新疆,乌鲁木齐,乌鲁木齐,0901,8866644,天山区,青年路356号日月星光小区月光1号楼12号,景点,旅行社,87.643931,43.806407
省心旅游天山区嗨游营业部,新疆,乌鲁木齐,乌鲁木齐,0901,133****4332,大湾,朗天峰景2期西南门东南80米,景点,旅行社,87.651745,43.766635
安安杨子国际旅行社  总社,新疆,乌鲁木齐,乌鲁木齐,0901,189****0758,克拉玛依西路,西环中路辅路与西环高架路入口交叉口南40米,景点,旅行社,87.559625,43.816945
新疆昊天国际旅行社,新疆,乌鲁木齐,乌鲁木齐,0901,8733337,新疆农业大学,南昌北路99号,景点,旅行社,87.575691,43.818668
康辉旅游,新疆,乌鲁木齐,乌鲁木齐,0901,133****7676,医学院,鲤鱼山路888号盈科山水华庭21B栋一层五号商铺,景点,旅行社,87.588896,43.859726
康辉旅游,新疆,乌鲁木齐,乌鲁木齐,0901,150****5966,阿勒泰路,西北路24号,景点,旅行社,87.577568,43.829937
雷鸟探险,新疆,乌鲁木齐,乌鲁木齐,0901,,华凌市场,友好南路429号天隆大厦3楼a2号,景点,更多景点/周边游,87.596176,43.808029
丝路传奇和田玉博物馆,新疆,乌鲁木齐,乌鲁木齐,0901,,亚欧国际会展中心,南湖北路1956号亚欧财富广场F2层,景点,博物馆,87.607346,43.866046
西山农场汽车文化主题公园,新疆,乌鲁木齐,乌鲁木齐,0901,,沙依巴克区,聚兴路与军垦南路交叉口东100米,景点,公园/广场,87.396698,43.687498
山木旅游,新疆,乌鲁木齐,乌鲁木齐,0901,,粮校,杭州东街与株洲路交叉口东北100米,景点,旅行社,87.574855,43.895175
蚂蚁环球国际旅行社,新疆,乌鲁木齐,乌鲁木齐,0901,132****9882,自治区博物馆,西虹西路371号SOHO新时代A座601室,景点,旅行社,87.585335,43.807503
乌鲁木齐乌拉斯台,新疆,乌鲁木齐,乌鲁木齐县,0901,,乌鲁木齐县其他,管理间东北侧160米,景点,人文古迹,87.209885,43.464855
乌鲁木齐机场塔台,新疆,乌鲁木齐,乌鲁木齐,0901,,地窝堡国际机场,雅苑路与南一路交叉路口往北约100米（中国民用航空乌鲁木齐安全监督管理局西侧）,景点,人文古迹,87.47924,43.89813
康辉旅游,新疆,乌鲁木齐,乌鲁木齐,0901,2605507;181****5440,天山区,东泉路世界冠郡小区,景点,旅行社,87.667954,43.794094
南北风情国际旅行社,新疆,乌鲁木齐,乌鲁木齐,0901,8738700,阿勒泰路,阿勒泰路83号附1号金山小区10栋1003室,景点,旅行社,87.574473,43.832654
国际大巴扎演艺,新疆,乌鲁木齐,乌鲁木齐,0901,8555485;8555486,国际大巴扎,国际大巴扎4号楼4层演艺大剧院,景点,更多景点/周边游,87.617912,43.779415
彩印宫,新疆,乌鲁木齐,乌鲁木齐,0901,,劳动街,西虹东路北二巷与西虹东路交叉口西北20米,景点,自然风光,87.606522,43.815178
中青旅,新疆,乌鲁木齐,乌鲁木齐,0901,,米东区中心城区,古牧地西路726号,景点,旅行社,87.639785,43.963935
丝路星空夜市,新疆,乌鲁木齐,乌鲁木齐,0901,,三宫六队,兰溪街万达广场(乌鲁木齐店)西侧约30米,景点,夜市,87.569381,43.911271
头屯河谷森林公园冰雪王国,新疆,乌鲁木齐,乌鲁木齐,0901,,头屯河区,谷森林公园中心广场旁,景点,滑雪,87.334037,43.991017
智云慧聚影视基地,新疆,乌鲁木齐,乌鲁木齐,0901,130****2366,昆仑东路,南湖北路革新巷94号,景点,影视基地,87.610161,43.839638
春秋之旅国际旅行社,新疆,乌鲁木齐,乌鲁木齐,0901,185****9069,阿勒泰路,阿勒泰路金地苑2栋2层7号,景点,旅行社,87.569707,43.839627
天山区大巴扎街区,新疆,乌鲁木齐,乌鲁木齐,0901,,国际大巴扎,解放南路510号,景点,休闲街区,87.617218,43.780132
397文创园夜市,新疆,乌鲁木齐,乌鲁木齐,0901,,华凌市场,397艺术精品酒店385号,景点,夜市,87.59762,43.81672
二十里店清真寺,新疆,乌鲁木齐,乌鲁木齐,0901,,达坂城区,连霍高速公路西域妹妹客栈,景点,宗教,88.209536,43.37703
头屯河农场花田林海景区,新疆,乌鲁木齐,乌鲁木齐,0901,,头屯河区,酒花路,景点,更多景点/周边游,87.287018,43.915628
同安旅行社,新疆,乌鲁木齐,乌鲁木齐,0901,,明园,友好北路739号明园新时代大酒店1楼,景点,旅行社,87.590157,43.819378
红湖,新疆,乌鲁木齐,乌鲁木齐,0901,,新疆大学,胜利路666号,景点,更多景点/周边游,87.620911,43.762798
大巴扎步行街天域城F,新疆,乌鲁木齐,乌鲁木齐,0901,,国际大巴扎,龙泉街南巷与天池路交叉口东北160米,景点,休闲街区,87.615822,43.782955
峰景旅游,新疆,乌鲁木齐,乌鲁木齐,0901,189****4961,揽秀园西街,揽秀园西街37号,景点,旅行社,87.596964,43.805324
乌鲁木齐植物园月季园,新疆,乌鲁木齐,乌鲁木齐,0901,136****9930,二宫体育馆,北京中路916号,景点,植物园,87.556265,43.890806
新疆美术馆,新疆,乌鲁木齐,乌鲁木齐,0901,5515752,师范大学,友好北路167号,景点,美术馆,87.584778,43.829716
比德文底碳交通馆,新疆,乌鲁木齐,乌鲁木齐,0901,,华凌干果市场,河滩北路与河滩快速路出口交叉口西南60米,景点,科技馆,87.598251,43.823605
报史馆,新疆,乌鲁木齐,乌鲁木齐,0901,,扬子江路,友好南路571号,景点,展览馆,87.600861,43.803375
世纪鲸街,新疆,乌鲁木齐,乌鲁木齐,0901,159****7872,西山新区,苜蓿沟北路九鼎农贸批发市场西北侧约90米,景点,步行街,87.479863,43.780276
努尔斯曼特色民族馆,新疆,乌鲁木齐,乌鲁木齐,0901,,国际大巴扎,双庆巷电信住宅小区,景点,展览馆,87.616798,43.7822
秀园,新疆,乌鲁木齐,乌鲁木齐,0901,,铁路局,马家庄七巷与马家庄五巷交叉口东160米,景点,公园/广场,87.546143,43.870667
花田小镇电影公园,新疆,乌鲁木齐,乌鲁木齐,0901,5205111,长春路,长春南路美居物流园KL座星品汇内,景点,公园/广场,87.584422,43.866648
南湖星光夜市,新疆,乌鲁木齐,乌鲁木齐,0901,,南湖广场,西虹东路北九巷南湖印象快捷宾馆南侧约30米,景点,夜市,87.617958,43.817951
铁路局夜市,新疆,乌鲁木齐,乌鲁木齐,0901,138****2350,铁路局,四街小区31号,景点,夜市,87.558907,43.872051
海龙泉星光夜市,新疆,乌鲁木齐,乌鲁木齐,0901,,友好,克拉玛依东路479号（阿勒泰路与克拉玛依东街交汇处东北角）,景点,夜市,87.583176,43.824268
华农特水族,新疆,乌鲁木齐,乌鲁木齐,0901,151****3711,新疆农业大学,南昌路与南昌北路交叉口西南60米,景点,海洋馆,87.57724,43.814171
城南草林,新疆,乌鲁木齐,乌鲁木齐,0901,,沙依巴克区,翠青路,景点,自然景观,87.503522,43.666588
天山国家森林公园,新疆,乌鲁木齐,乌鲁木齐,0901,,米东区,原始部落自助烧烤东侧180米,景点,森林公园,87.882283,43.907301
携程旅游百事通,新疆,乌鲁木齐,乌鲁木齐,0901,,南湖东路,温泉西路15号综合楼一层5-1号商铺,景点,旅行社,87.636864,43.83046
玉文化博物馆,新疆,乌鲁木齐,乌鲁木齐,0901,,南门,人民路338号,景点,博物馆,87.624428,43.791153
飞扬户外旅行俱乐部,新疆,乌鲁木齐,乌鲁木齐,0901,189****0458,医学院,西八家户路710号,景点,旅行社,87.595085,43.841663
空港旅游集散中心,新疆,乌鲁木齐,乌鲁木齐,0901,,地窝堡国际机场,乌鲁木齐站片区街道迎宾路与贵港路交叉口西北140米,景点,旅行社,87.475661,43.901275
奇幻解压馆,新疆,乌鲁木齐,乌鲁木齐,0901,166****7909;177****6797,三宫六队,长春北路高新万达广场4楼,景点,展览馆,87.57206,43.91095
锦街夜市,新疆,乌鲁木齐,乌鲁木齐,0901,,迎宾路,乌鲁木齐经济技术开发区街道中亚北路72号旁,景点,夜市,87.523254,43.885056
891汽车文化主题公园,新疆,乌鲁木齐,乌鲁木齐,0901,,米东区,中鼎街,景点,公园/广场,87.684631,43.964893
画屿艺术馆,新疆,乌鲁木齐,乌鲁木齐,0901,,美居物流园,八家户街道长沙路商住小区158号,景点,美术馆,87.580251,43.868609
闲来小镇宽窄巷子文旅步行街,新疆,乌鲁木齐,乌鲁木齐县,0901,,乌鲁木齐县其他,南和路18号,景点,步行街,87.495735,43.478905
和平都会夜市,新疆,乌鲁木齐,乌鲁木齐,0901,,红旗路,解放北路街道红旗路36号,景点,夜市,87.616707,43.796539
石人沟蝴蝶谷,新疆,乌鲁木齐,乌鲁木齐,0901,,水磨沟区,水磨沟区农村事务管理办公室石人子沟村三队百泉路1078号,景点,自然风光,87.819625,43.835304
科普广场,新疆,乌鲁木齐,乌鲁木齐,0901,,长春路,小区10栋,景点,公园/广场,87.58522,43.879161
宝能星光夜市,新疆,乌鲁木齐,乌鲁木齐,0901,186****1758,万达广场,玄武湖路666号,景点,夜市,87.52098,43.83763
新疆随行远方旅行社有限公司,新疆,乌鲁木齐,乌鲁木齐,0901,158****2202,沙依巴克区,桐柏山街29号1号车间五楼506室,景点,旅行社,87.482903,43.811553
新卫南山露营,新疆,乌鲁木齐,乌鲁木齐县,0901,138****7440,乌鲁木齐县其他,新卫南山酒店,景点,户外露营,87.167671,43.510796
久久世纪亭,新疆,乌鲁木齐,乌鲁木齐,0901,,沙依巴克区,沙依巴克雅玛里克山旅游风景区（宝塔路北）,景点,人文古迹,87.573081,43.799081
康辉大自然国际旅行社,新疆,乌鲁木齐,乌鲁木齐,0901,181****2571,师范大学,友好北路8楼昆仑宾馆,景点,旅行社,87.585846,43.832523
五一星光夜市,新疆,乌鲁木齐,乌鲁木齐,0901,,长江路,奇台路657号万达广场德汇店F1层,景点,夜市,87.587311,43.787533
新疆自然博物馆,新疆,乌鲁木齐,乌鲁木齐,0901,0991-7885486,铁路局,科学二街277号,景点,博物馆,87.567451,43.867886
逍遥乐家国际旅行社有限公司乌鲁木齐新市区营业部,新疆,乌鲁木齐,乌鲁木齐,0901,,北京南路,贵州路91号,景点,旅行社,87.569957,43.847647
7坊街创意产业集聚区B区,新疆,乌鲁木齐,乌鲁木齐,0901,,温泉路,温泉西路716号,景点,创意园区,87.655373,43.836212
楼兰陨石科普馆,新疆,乌鲁木齐,乌鲁木齐,0901,,医学院,鲤鱼山南路,景点,科技馆,87.585483,43.853431
峰景国旅,新疆,乌鲁木齐,乌鲁木齐,0901,6908878,米东区,学苑路400号,景点,旅行社,87.692715,43.956174
西大寺,新疆,乌鲁木齐,乌鲁木齐,0901,,达坂城区,达坂城街241号,景点,景点/周边游,88.300914,43.358698
南山鹰嘴沟蒙古包景区,新疆,乌鲁木齐,乌鲁木齐县,0901,,乌鲁木齐县其他,314村道东100米,景点,自然风光,87.320938,43.424521
碧桂园国际展销中心,新疆,乌鲁木齐,乌鲁木齐,0901,,北京南路,北京南路358号大成国际1806a,景点,展览馆,87.570274,43.853734
大巴扎步行街,新疆,乌鲁木齐,乌鲁木齐,0901,3013888,国际大巴扎,解放南路510号新疆国际大巴扎内（北侧）,景点,休闲街区,87.618149,43.780907
康辉旅游,新疆,乌鲁木齐,乌鲁木齐,0901,181****0870,铁路局,南纬路街道河南西路292号,景点,旅行社,87.550394,43.866696
鑫丝途旅行社,新疆,乌鲁木齐,乌鲁木齐,0901,3333523;6186668,粮校,杭州东街198号,景点,旅行社,87.570897,43.893237
进取楼,新疆,乌鲁木齐,乌鲁木齐,0901,,新疆农业大学,老满城街（农大附中）,景点,更多景点/周边游,87.570892,43.808814
天润丝路云端牧场,新疆,乌鲁木齐,乌鲁木齐,0901,5930655,沙依巴克区,通坪路360号,景点,展览馆,87.417266,43.615313
携程旅游,新疆,乌鲁木齐,乌鲁木齐,0901,,沙依巴克区,沙依巴克人民公园,景点,旅行社,87.603157,43.802696
南山风景名胜区,新疆,乌鲁木齐,乌鲁木齐县,0901,,乌鲁木齐县其他,白毡房度假村西北侧,景点,自然风光,87.2313,43.389922
三角地步行区,新疆,乌鲁木齐,乌鲁木齐县,0901,,乌鲁木齐县其他,南康大道西100米,景点,更多景点/周边游,87.525397,43.620248
幸福花园七期小广场,新疆,乌鲁木齐,乌鲁木齐,0901,,天山区,金沙滩街南二巷宏大幸福花园6期东南侧约190米,景点,公园/广场,87.656076,43.776786
乌鲁木齐县水西沟镇东湾村南湾路西100米,新疆,乌鲁木齐,乌鲁木齐县,0901,,乌鲁木齐县其他,南湾路与南大路交叉口西北300米,景点,更多景点/周边游,87.501365,43.473045
博格达公园,新疆,乌鲁木齐,乌鲁木齐,0901,,天山区,大学路天山牧歌小区旁,景点,公园/广场,87.688291,43.783451
十七户湿地公园,新疆,乌鲁木齐,乌鲁木齐,0901,,天山区,燕儿窝街道十七户路与燕儿窝路交汇处东侧,景点,公园/广场,87.615221,43.737171
新疆中国旅行社,新疆,乌鲁木齐,乌鲁木齐,0901,131****5532,米东区中心城区,米东新城二期东门旁,景点,旅行社,87.634184,43.957474
憩园,新疆,乌鲁木齐,乌鲁木齐,0901,,仓房沟,仓房沟中路与水泥厂街交叉口东160米,景点,公园/广场,87.583025,43.757935
天天向上国际旅行社,新疆,乌鲁木齐,乌鲁木齐,0901,,万达广场,玄武湖路万达中心514A室,景点,旅行社,87.51779,43.838591
风车广场,新疆,乌鲁木齐,乌鲁木齐,0901,,达坂城区,达坂城区洛宾路,景点,公园/广场,88.309497,43.363731
雪岭鹰谷艾美露营公园,新疆,乌鲁木齐,乌鲁木齐县,0901,,乌鲁木齐县其他,C314,景点,户外露营,87.36553,43.437929
日月星光美夜市,新疆,乌鲁木齐,乌鲁木齐,0901,,天山区,青年路26号日月星光花园33号,景点,夜市,87.643089,43.806694
唐街,新疆,乌鲁木齐,乌鲁木齐,0901,,头屯河区,兵友路18号,景点,自然风光,87.350286,43.999276
南旅基地,新疆,乌鲁木齐,乌鲁木齐县,0901,,乌鲁木齐县其他,天山大道AK附近,景点,自然风光,87.375739,43.431191
非物质文化遗产数字博物馆,新疆,乌鲁木齐,乌鲁木齐,0901,,师范大学,友好北路167号,景点,博物馆,87.585388,43.829746
玉普源玉石博物馆,新疆,乌鲁木齐,乌鲁木齐,0901,,七道湾,立井街北十巷与规划支路交叉口西北100米,景点,博物馆,87.609138,43.857456
78酒食星光夜市,新疆,乌鲁木齐,乌鲁木齐,0901,138****2830,红旗路,红旗路93号,景点,夜市,87.616982,43.794842
花海景区,新疆,乌鲁木齐,乌鲁木齐,0901,,天山区,燕儿窝路2号乌鲁木齐市水上乐园,景点,更多景点/周边游,87.610987,43.752164
清真寺,新疆,乌鲁木齐,乌鲁木齐,0901,,大湾,明华街与明华街东二十四巷交叉口西北160米,景点,景点/周边游,87.647226,43.754853
峰景旅游,新疆,乌鲁木齐,乌鲁木齐,0901,189****2533,黑龙江路,黑龙江路23号,景点,旅行社,87.602486,43.793419
绾缃艺术馆,新疆,乌鲁木齐,乌鲁木齐,0901,172****0914,新市区,北京北路华联大厦B座14G,景点,美术馆,87.558029,43.877892
贡米巷夜市,新疆,乌鲁木齐,乌鲁木齐,0901,180****0080,米东区中心城区,贡米巷,景点,夜市,87.652468,43.96636
乌鲁木齐市欢乐世界,新疆,乌鲁木齐,乌鲁木齐,0901,8585999,天山区,燕儿窝路2号,景点,水上乐园,87.61317,43.75427
省心旅游,新疆,乌鲁木齐,乌鲁木齐,0901,,亚欧国际会展中心,银鑫路御园世家A1-1-3号,景点,旅行社,87.594322,43.869817
康辉旅游体验店,新疆,乌鲁木齐,乌鲁木齐,0901,,万达广场,经开万达广场,景点,旅行社,87.51781,43.841682
FEITUO飞鸵,新疆,乌鲁木齐,乌鲁木齐,0901,,南湖路,南湖南路58号,景点,动物园,87.614464,43.818886
河滩397,新疆,乌鲁木齐,乌鲁木齐,0901,,华凌市场,河滩北路397号,景点,创意园区,87.597091,43.815987
哈熊沟,新疆,乌鲁木齐,乌鲁木齐,0901,,米东区,柏杨河乡玉西布早村,景点,公园/广场,87.989715,43.82676
印象新疆·星光夜市,新疆,乌鲁木齐,乌鲁木齐,0901,,大湾,金疆大厦东,景点,夜市,87.638176,43.763744
金都美食文旅夜市,新疆,乌鲁木齐,乌鲁木齐,0901,,西北路,西北路1085号（近新疆职业大学友好校区）,景点,夜市,87.593597,43.808956
怪榆谷磨河生态园景区,新疆,乌鲁木齐,乌鲁木齐,0901,,达坂城区,西沟乡水磨村四队,景点,自然风光,88.382705,43.458693
谢家沟自然风景旅游区,新疆,乌鲁木齐,乌鲁木齐县,0901,,乌鲁木齐县其他,125县道东100米,景点,自然风光,87.001841,43.530322
山楂沟,新疆,乌鲁木齐,乌鲁木齐,0901,,米东区,阿克那尔农家乐北侧210米,景点,自然风光,87.937531,43.871453
新疆遨游假期旅行社,新疆,乌鲁木齐,乌鲁木齐,0901,181****0536,北京南路,北京南路442号新发大厦1510室,景点,旅行社,87.568863,43.856461
丝路小镇,新疆,乌鲁木齐,乌鲁木齐县,0901,,乌鲁木齐县其他,市燕尔窝路788号神木园,景点,现代小镇,87.416324,43.445499
值班岗亭,新疆,乌鲁木齐,乌鲁木齐,0901,,自治区中医院,五一路与经一路交叉口北20米,景点,更多景点/周边游,87.598343,43.790047
碱泉街游园,新疆,乌鲁木齐,乌鲁木齐,0901,,天山区,碱泉街142号,景点,公园/广场,87.647418,43.802158
新疆国际大巴扎二号步行街,新疆,乌鲁木齐,乌鲁木齐,0901,,国际大巴扎,天池路276号附近,景点,休闲街区,87.618683,43.780762
晨报国际旅行社,新疆,乌鲁木齐,乌鲁木齐,0901,139****2073,米东区中心城区,古牧地西路253号晨报国旅,景点,旅行社,87.645442,43.964229
南寻步行街,新疆,乌鲁木齐,乌鲁木齐,0901,,南湖路,南湖南路178号,景点,休闲街区,87.613892,43.818962
中国国旅,新疆,乌鲁木齐,乌鲁木齐,0901,138****0064,阿勒泰路,阿勒泰路鑫都大酒店对面,景点,旅行社,87.572144,43.837212
德港万达夜市,新疆,乌鲁木齐,乌鲁木齐,0901,,卫星广场,中亚南路片区街道德港万达广场,景点,夜市,87.533562,43.877274
桃山,新疆,乌鲁木齐,乌鲁木齐,0901,,水磨沟区,观园路100号,景点,自然风光,87.704118,43.800048
野马时光文体创意园,新疆,乌鲁木齐,乌鲁木齐,0901,3196373;180****1246,粮校,喀什东路809号野马时光文创园内停车场,景点,休闲街区,87.57254,43.900578
雅山生态公园,新疆,乌鲁木齐,乌鲁木齐,0901,,沙依巴克区,宝山路西三巷,景点,公园/广场,87.584516,43.795071
乌云山,新疆,乌鲁木齐,乌鲁木齐,0901,,沙依巴克区,G30连霍高速西50米,景点,自然风光,87.521293,43.691063
乌鲁木齐神舟假期国际旅行社,新疆,乌鲁木齐,乌鲁木齐,0901,180****6111,新华北路,新华北路8号新世纪A座11层B3号,景点,旅行社,87.608276,43.802727
帕米尔街小游园,新疆,乌鲁木齐,乌鲁木齐,0901,,昆仑东路,六道湾路与帕米尔街交叉口东北40米,景点,公园/广场,87.631462,43.841316
乌鲁木齐河,新疆,乌鲁木齐,乌鲁木齐县,0901,,乌鲁木齐县其他,G216（阿巴线）,景点,自然景观,87.114704,43.193888
日月艺术馆,新疆,乌鲁木齐,乌鲁木齐,0901,186****5098,天山区,幸福路幸福城市花园7期67号楼,景点,美术馆,87.654944,43.774014
中青旅,新疆,乌鲁木齐,乌鲁木齐,0901,,万达广场,澎湖路188号万达华府二期4栋商业楼3层305号,景点,旅行社,87.516104,43.838484
中青旅新疆国际旅行社,新疆,乌鲁木齐,乌鲁木齐,0901,,光明路,光明路123号建设广场5层,景点,旅行社,87.610355,43.803495
毛泽民故居,新疆,乌鲁木齐,乌鲁木齐,0901,2824628;6904880,南门,明德路29号,景点,名人故居,87.623093,43.792439
板房沟西寺,新疆,乌鲁木齐,乌鲁木齐县,0901,,乌鲁木齐县其他,C314与南鹰路交叉口东北方向941米,景点,宗教,87.385596,43.46314
温暖游乐园,新疆,乌鲁木齐,乌鲁木齐,0901,,新市区,长春中路1355号澳龙广场大厦E座四层405-318室,景点,游乐场,87.579742,43.883324
筑艺园,新疆,乌鲁木齐,乌鲁木齐,0901,,二宫体育馆,准噶尔路与昆仑路交叉口东南200米,景点,自然风光,87.549339,43.880573
青衣湖渡,新疆,乌鲁木齐,乌鲁木齐,0901,,铁路局,河南西路北巷秀园（西南角）,景点,更多景点/周边游,87.546068,43.870498
新村公园,新疆,乌鲁木齐,乌鲁木齐,0901,,新市区,石油新村院内,景点,公园/广场,87.520531,43.873756
平顶山创业小巴扎,新疆,乌鲁木齐,乌鲁木齐,0901,,克拉玛依西路,青河路202号,景点,夜市,87.56826,43.820881
玉石之路文博馆,新疆,乌鲁木齐,乌鲁木齐,0901,150****7879,美居物流园,天津南路339号,景点,博物馆,87.576294,43.866974
康辉旅游,新疆,乌鲁木齐,乌鲁木齐,0901,139****7441,亚欧国际会展中心,吉兴巷18号,景点,旅行社,87.603352,43.868641
人人购步行街,新疆,乌鲁木齐,乌鲁木齐,0901,8122111,火车南站,长江路501号,景点,休闲街区,87.591621,43.782883
乌市玉之殿,新疆,乌鲁木齐,乌鲁木齐,0901,151****2518;177****7285,米东区中心城区,稻香南路与稻香南路西七巷交叉口北180米,景点,更多景点/周边游,87.647591,43.956142
乌鲁木齐UKU科技体验馆,新疆,乌鲁木齐,乌鲁木齐,0901,181****7964,友好,友好北路610号富成国际购物中心1F,景点,展览馆,87.590462,43.821686
新疆中国旅行社,新疆,乌鲁木齐,乌鲁木齐,0901,2310568;138****6510,友好,滨河中路160号,景点,旅行社,87.593773,43.822147
霓虹步行街,新疆,乌鲁木齐,乌鲁木齐,0901,,万达广场,澎湖路298号,景点,步行街,87.516778,43.840298
翠泉公园,新疆,乌鲁木齐,乌鲁木齐,0901,,天山区,东泉路与新泉街交汇处东侧,景点,公园/广场,87.665828,43.80918
瑞达七楼夜市,新疆,乌鲁木齐,乌鲁木齐,0901,151****1115,延安路,延安路556号,景点,夜市,87.626167,43.767792
康辉旅游,新疆,乌鲁木齐,乌鲁木齐,0901,,南湖东路,南湖东路178号附近正东方向60米,景点,旅行社,87.624154,43.827694
洛宾公园,新疆,乌鲁木齐,乌鲁木齐,0901,,达坂城区,经二路,景点,公园/广场,88.313706,43.37235
咔叮星球,新疆,乌鲁木齐,乌鲁木齐,0901,,长春路,长春南路与长春南路西一巷交叉口东北120米,景点,游乐场,87.583841,43.866231
燕景神木园旅游景区-珍禽观赏区,新疆,乌鲁木齐,乌鲁木齐,0901,,天山区,燕儿窝街道,景点,动物园,87.590526,43.712887
黑甲山清真寺,新疆,乌鲁木齐,乌鲁木齐,0901,,后泉路,黑甲山前街,景点,宗教,87.6307,43.7813
燕景神木园小小动物园,新疆,乌鲁木齐,乌鲁木齐,0901,,天山区,燕儿窝路,景点,动物园,87.590461,43.712584
十二师104团哈萨克风情园,新疆,乌鲁木齐,乌鲁木齐,0901,,沙依巴克区,216国道西100米,景点,更多景点/周边游,87.424879,43.667382
天域美路旅行社,新疆,乌鲁木齐,乌鲁木齐,0901,3075758,卫星广场,经济技术开发区街道口岸路36号华汇广场312室,景点,旅行社,87.527542,43.87624
海洋国际旅行社,新疆,乌鲁木齐,乌鲁木齐,0901,138****6861,宝山路,扬子江路213号红十月西二区4号楼3号,景点,旅行社,87.591812,43.796765
森林支旅,新疆,乌鲁木齐,乌鲁木齐,0901,,人民广场,解放北路与东风路交叉口西南40米,景点,旅行社,87.620636,43.796204
南湖市民广场-玛河公园,新疆,乌鲁木齐,乌鲁木齐,0901,,南湖东路,南湖东路201号附近,景点,公园/广场,87.619939,43.826551
乌鲁木齐悦辰逸海旅行社有限责任公司,新疆,乌鲁木齐,乌鲁木齐,0901,3719448,万达广场,玄武湖路666号宝能城二号公寓楼3107室,景点,旅行社,87.520739,43.836599
惜时楼,新疆,乌鲁木齐,乌鲁木齐,0901,,新疆农业大学,文化南路新疆农业大学附属中学,景点,更多景点/周边游,87.570812,43.809192
毛泽民烈士办公室及宿舍故址,新疆,乌鲁木齐,乌鲁木齐,0901,,南门,明德路29号,景点,纪念馆,87.623092,43.792482
缘估产起瀑布,新疆,乌鲁木齐,乌鲁木齐,0901,,医学院,西八家户路,景点,更多景点/周边游,87.596482,43.839352
新疆西域之星旅游客运有限公司,新疆,乌鲁木齐,乌鲁木齐,0901,133****5333,红山路,红山路北一巷40号,景点,旅行社,87.604879,43.808579
达坂城徒步生态林,新疆,乌鲁木齐,乌鲁木齐,0901,,达坂城区,河谷路,景点,景点/周边游,88.463766,43.427084
勤学楼,新疆,乌鲁木齐,乌鲁木齐,0901,,新疆农业大学,文化南路新疆农业大学附属中学,景点,更多景点/周边游,87.570097,43.809397
石人沟鸟巢阵观景区,新疆,乌鲁木齐,乌鲁木齐,0901,,水磨沟区,葛家沟东路,景点,景点/周边游,87.768869,43.827309
华域旅游,新疆,乌鲁木齐,乌鲁木齐,0901,4519771,长春路,长春南路769号城建大厦1704,景点,旅行社,87.581308,43.880078
天山中旅,新疆,乌鲁木齐,乌鲁木齐,0901,8282000,北郊客运站,南湖北路855号友好花园一期4号外商铺,景点,旅行社,87.605031,43.852781
远眺楼,新疆,乌鲁木齐,乌鲁木齐,0901,,红山路,红山路北一巷红山公园内,景点,仿古建筑,87.603361,43.808041
劳动街夜市,新疆,乌鲁木齐,乌鲁木齐,0901,,南湖路,南湖路绿苑一巷18号（南湖劳动街家乐福旁）,景点,夜市,87.615311,43.818062
山地滑雪场,新疆,乌鲁木齐,乌鲁木齐县,0901,,乌鲁木齐县其他,八家户村南鹰路,景点,滑雪场,87.363688,43.436848
新疆金桥国际旅行社,新疆,乌鲁木齐,乌鲁木齐,0901,6261963,长春路,鲤鱼山南路1140号金色嘉园小区四号楼一层,景点,旅行社,87.59191,43.869944
朝阳雅居夜市,新疆,乌鲁木齐,乌鲁木齐,0901,183****6631,米东区,朝阳雅居,景点,夜市,87.62462,43.964062
达坂城爱情小镇,新疆,乌鲁木齐,乌鲁木齐,0901,,达坂城区,达东路东200米,景点,现代小镇,88.446173,43.411703
新疆中旅国际旅行社,新疆,乌鲁木齐,乌鲁木齐,0901,,铁路局,北京南路1054号,景点,旅行社,87.562905,43.869292
十二生肖,新疆,乌鲁木齐,乌鲁木齐,0901,,红山路,红山路北1巷40号红山公园内,景点,人文古迹,87.603956,43.807841
南山森林公园,新疆,乌鲁木齐,乌鲁木齐县,0901,,乌鲁木齐县其他,X023号（天山大道）,景点,森林公园,87.513905,43.621105
安全文化主题公园,新疆,乌鲁木齐,乌鲁木齐,0901,,天山区,碱泉二街113号,景点,公园/广场,87.646451,43.80172
南区公园,新疆,乌鲁木齐,乌鲁木齐,0901,,地窝堡国际机场,雅苑路与南四路交叉口东南120米,景点,公园/广场,87.479021,43.889611
北山公园,新疆,乌鲁木齐,乌鲁木齐,0901,,温泉路,泉北路西一巷世界公元-1期南侧,景点,公园/广场,87.653343,43.840752
浅水湾生态园,新疆,乌鲁木齐,乌鲁木齐,0901,,天山区,十七户路与赛马场路交叉口西北180米,景点,自然风光,87.60463,43.74524
IN BOX青年创意园,新疆,乌鲁木齐,乌鲁木齐,0901,,自治区博物馆,哈密路139号inbox潮盒,景点,观光街区,87.588898,43.810688
温州街夜市,新疆,乌鲁木齐,乌鲁木齐,0901,,阿勒泰路,温州街准噶尔小区北134号,景点,夜市,87.572548,43.839642
翔之鑫旅行社,新疆,乌鲁木齐,乌鲁木齐,0901,,人民路,文化路鑫金新宾馆,景点,旅行社,87.618668,43.791618
全美食星光夜市,新疆,乌鲁木齐,乌鲁木齐,0901,135****1831,铁路局,河南西路南26号,景点,夜市,87.561287,43.869297
耳饰博物馆,新疆,乌鲁木齐,乌鲁木齐,0901,,万达广场,玄武湖路999号万达广场F3层,景点,博物馆,87.518105,43.841316
花田林海生态园,新疆,乌鲁木齐,乌鲁木齐,0901,138****3790,头屯河区,天驹路四巷13号,景点,更多景点/周边游,87.285288,43.913453
紫辰泉生态游乐园,新疆,乌鲁木齐,乌鲁木齐,0901,19999113020,达坂城区,西沟乡泉泉湖村8队,景点,游乐场,88.373812,43.496232
兵青旅游,新疆,乌鲁木齐,乌鲁木齐,0901,6678888,友好北路,克拉玛依东街275号,景点,旅行社,87.589325,43.825226
绥远清真寺,新疆,乌鲁木齐,乌鲁木齐,0901,,新疆民俗街,和平南路330号正东方向80米,景点,宗教,87.622864,43.784393
旅游商业步行街,新疆,乌鲁木齐,乌鲁木齐,0901,,国际大巴扎,和平南路乌鲁木齐二道桥清真寺附近,景点,休闲街区,87.618256,43.779797
新疆博旅旅游客运有限责任公司,新疆,乌鲁木齐,乌鲁木齐,0901,181****9377,西山新区,西山东街480号西城华府沃美广场一层1091号,景点,旅行社,87.543327,43.801975
乌鲁木齐县甘沟乡乌孙度假山庄,新疆,乌鲁木齐,乌鲁木齐县,0901,133****2612,乌鲁木齐县其他,前进村直沟2公里处,景点,景点/周边游,87.161873,43.498386
中青旅,新疆,乌鲁木齐,乌鲁木齐,0901,,阿勒泰路,北艺公园街北一巷176号粮食局办公楼传达室,景点,旅行社,87.577637,43.830814
映像天目湖,新疆,乌鲁木齐,乌鲁木齐,0901,,长春路,鲤鱼山南路1062号,景点,景点/周边游,87.58976,43.862789
大街小巷美食街,新疆,乌鲁木齐,乌鲁木齐,0901,2310505,人民广场,文化路6号,景点,休闲街区,87.620651,43.796513
大佛寺,新疆,乌鲁木齐,乌鲁木齐,0901,0991-8855671,红山路,红山路2号,景点,景点/周边游,87.605644,43.809784
中旅假日国际旅行社,新疆,乌鲁木齐,乌鲁木齐,0901,,宝山路,雪莲小学西北门东北60米,景点,旅行社,87.591308,43.803628
金泉公园,新疆,乌鲁木齐,乌鲁木齐,0901,,天山区,延安路新疆大学南校区对面,景点,公园/广场,87.632889,43.738129
白杨沟风景区-神布拉克瀑布,新疆,乌鲁木齐,乌鲁木齐县,0901,,乌鲁木齐县其他,境内西白杨沟自然风景区,景点,自然景观,87.14634,43.411302
南湖市民广场,新疆,乌鲁木齐,乌鲁木齐,0901,,南湖东路,南湖东路30号后面（近市政府）,景点,广场,87.618479,43.822879
火炬广场,新疆,乌鲁木齐,乌鲁木齐,0901,,小西沟,高新街55号新疆火炬大厦,景点,公园/广场,87.571162,43.85505
仙海岛海洋生活馆,新疆,乌鲁木齐,乌鲁木齐,0901,135****0940,医学院,文化路与学院路交叉口东南200米,景点,海洋馆,87.583794,43.848713
新疆回族生态文化园,新疆,乌鲁木齐,乌鲁木齐,0901,,米东区,石人子沟北路,景点,文化公园,87.777064,43.876601
石人农场,新疆,乌鲁木齐,乌鲁木齐,0901,177****2023,水磨沟区,石矿路1798号,景点,自然风光,87.787178,43.821831
艾美露营公园,新疆,乌鲁木齐,乌鲁木齐县,0901,,乌鲁木齐县其他,板房沟镇314村道南300米,景点,户外露营,87.338162,43.42741
棋盘山公园,新疆,乌鲁木齐,乌鲁木齐,0901,,水磨沟区,葛家沟东路,景点,公园/广场,87.714016,43.833907
天之缘国际旅行社,新疆,乌鲁木齐,乌鲁木齐,0901,3807336;3807339,地窝堡国际机场,迎宾路1341号机场员工培训中心a区,景点,旅行社,87.479415,43.900065
鑫天商业街,新疆,乌鲁木齐,乌鲁木齐,0901,139****5361;151****5980,米东区中心城区,古牧地中路494号东南方向20米,景点,步行街,87.655523,43.964184
华凌步行街3号门小卖铺,新疆,乌鲁木齐,乌鲁木齐,0901,,华凌市场,西虹东路216号,景点,休闲街区,87.605736,43.814316
蜘蛛山,新疆,乌鲁木齐,乌鲁木齐,0901,,头屯河区,阿勒泰路西六巷东200米,景点,更多景点/周边游,87.546693,43.856046
新疆西域探索旅游有限公司,新疆,乌鲁木齐,乌鲁木齐,0901,135****8619;133****2667,华凌市场,友好南路421号金领时代802,景点,自然风光,87.595917,43.808701
乌鲁木齐大巴扎景区,新疆,乌鲁木齐,乌鲁木齐,0901,,国际大巴扎,解放南路510号,景点,自然风光,87.617218,43.780132
三工六队清真寺,新疆,乌鲁木齐,乌鲁木齐,0901,,三宫六队,宁波街北十二巷与绍兴东路交叉口东南50米,景点,宗教,87.57434,43.92069
新疆活体昆虫博物馆,新疆,乌鲁木齐,乌鲁木齐,0901,7733621;135****3201,二宫体育馆,杭州街植物园花卉市场,景点,展览馆,87.555051,43.888284
日月星光集装箱小镇,新疆,乌鲁木齐,乌鲁木齐,0901,,天山区,日月星光花园358号,景点,夜市,87.643517,43.807026
大白熊儿童创意美术馆,新疆,乌鲁木齐,乌鲁木齐,0901,139****1107,万达广场,天柱山街68号二期2楼222室,景点,美术馆,87.499828,43.840555
探秘公园,新疆,乌鲁木齐,乌鲁木齐,0901,187****0968,长江路,"德汇万达D栋3层D3001,D3012层",景点,公园/广场,87.585747,43.789207
1952文化创意产业园,新疆,乌鲁木齐,乌鲁木齐,0901,,温泉路,温泉东路509号,景点,创意园区,87.68869,43.827866
盛世春秋旅行社,新疆,乌鲁木齐,乌鲁木齐,0901,,小西门,新华北路258号金谷大酒店807室,景点,旅行社,87.610764,43.798691
庙尔沟清真寺,新疆,乌鲁木齐,乌鲁木齐县,0901,,乌鲁木齐县其他,南大路南侧,景点,宗教,87.45938,43.454617
小鱼儿游天下旅行社,新疆,乌鲁木齐,乌鲁木齐,0901,,米东区,米东南路天化102中学对面,景点,旅行社,87.644363,43.93784
峡门子,新疆,乌鲁木齐,乌鲁木齐,0901,,米东区,139县道,景点,自然风光,87.90796,43.907589
南山花海,新疆,乌鲁木齐,乌鲁木齐县,0901,,乌鲁木齐县其他,小东沟村村头,景点,植物园,87.572583,43.455841
头屯河谷森林公园金鳞湖,新疆,乌鲁木齐,乌鲁木齐,0901,,头屯河区,五一农场头,景点,自然风光,87.34964,44.001205
丝路名家艺术馆,新疆,乌鲁木齐,乌鲁木齐,0901,130****2895,铁路局,中亚南路片区街道马家庄一巷与马家庄五巷交叉口西20米,景点,美术馆,87.543274,43.869406
乌鲁木齐幻境空间,新疆,乌鲁木齐,乌鲁木齐,0901,135****2865,红山路,光明路39号CCMALL时代广场F3-037-4,景点,展览馆,87.608658,43.804039
发现之旅旅行社,新疆,乌鲁木齐,乌鲁木齐,0901,6620646,天津路,江苏东路369号吐哈石油大厦1楼,景点,旅行社,87.567558,43.874966
南山万亩花海,新疆,乌鲁木齐,乌鲁木齐县,0901,,乌鲁木齐县其他,板房沟镇,景点,植物园,87.388361,43.531401
西域纵横旅游服务有限公司,新疆,乌鲁木齐,乌鲁木齐,0901,181****8181,地窝堡国际机场,中亚北路418号天工鼎盛汽配城7号楼126号商铺,景点,旅行社,87.507736,43.902569
大庄子清真寺,新疆,乌鲁木齐,乌鲁木齐县,0901,,乌鲁木齐县其他,Z400,景点,景点/周边游,87.354861,43.635312
