名称,省份,真实城市,市县区,区号,电话,区域,地址,大分类,小分类,经度,纬度
京城百工坊,北京,北京,北京,010,67111381,左安门,光明路乙12号（夕照寺街口）,景点,博物馆,116.434853,39.883713
百年印象摄影画廊,北京,北京,北京,010,64381784,798/大山子,酒仙桥路4号,景点,展览馆,116.495628,39.984051
东京画廊,北京,北京,北京,010,59784838,798/大山子,酒仙桥路2号798艺术区陶瓷三街E02号,景点,展览馆,116.495476,39.98344
红门画廊,北京,北京,北京,010,,崇文门,崇文门东大街东便门角楼,景点,美术馆,116.434262,39.901633
国宜广场,北京,北京,北京,010,63950810,公主坟/万寿路,西三环中路19号,景点,广场,116.309193,39.904403
北京大学-地质博物馆,北京,北京,北京,010,62756088,颐和园,颐和园路5号北京大学燕园内,景点,博物馆,116.309937,39.991894
大葆台西汉墓博物馆,北京,北京,北京,010,83612852,世界公园,郭公庄707号,景点,博物馆,116.297859,39.806305
大钟寺古钟博物馆,北京,北京,北京,010,82139050;82132630,双榆树,北三环西路甲31号,景点,博物馆,116.338181,39.969074
中国第四纪冰川遗迹陈列馆,北京,北京,北京,010,88722585,模式口,模式口大街28号,景点,陈列馆,116.161873,39.937763
北京古代建筑博物馆,北京,北京,北京,010,63172150;63017620,虎坊桥,东经路21号,景点,博物馆,116.392044,39.877522
古陶文明博物馆,北京,北京,北京,010,63538811;63538884,右安门,右安门内西街12号,景点,博物馆,116.3573,39.87336
观复博物馆,北京,北京,北京,010,64338887;64337775,金盏,大山子张万坟金南路18号,景点,博物馆,116.534325,40.006969
中国航天博物馆,北京,北京,北京,010,68755656,南苑/德茂桥,万源路1号,景点,博物馆,116.423546,39.804871
北京焦庄户地道战遗址纪念馆,北京,北京,北京,010,60461906,顺义区,焦庄户村38号,景点,纪念馆,116.870066,40.233788
中国人民抗日战争纪念馆,北京,北京,北京,010,63777088;63777188,卢沟桥,卢沟桥宛平城内街101号,景点,纪念馆,116.225955,39.851771
北京鲁迅博物馆,北京,北京,北京,010,50872677,阜成门,新街口街道宫门口二条19号（阜成门地铁站B东北口步行260米）,景点,博物馆,116.358696,39.925732
密云区博物馆,北京,北京,密云区,010,69053677,密云果园,果园街道西门外大街2号,景点,博物馆,116.836227,40.377277
民族文化宫博物馆,北京,北京,北京,010,83195280,西单,复兴门内大街49号,景点,博物馆,116.369019,39.908096
奇石馆,北京,北京,北京,010,62048190,安定门,安德路102号,景点,陈列馆,116.391968,39.95126
北京石刻艺术博物馆,北京,北京,北京,010,62173543,魏公村,五塔寺路24号,景点,博物馆,116.330467,39.94463
首都博物馆,北京,北京,北京,010,63370491;63370492,复兴门,复兴门外大街16号,景点,博物馆,116.342067,39.906412
北京天文馆,北京,北京,北京,010,68312517,西直门/动物园,西直门外大街138号,景点,天文馆,116.336899,39.937424
通州博物馆,北京,北京,北京,010,69555161,新华大街,西大街9号,景点,博物馆,116.667381,39.908012
王府井古人类文化遗址博物馆,北京,北京,北京,010,85186306,王府井/东单,东长安街与王府井大街交叉口东北100米,景点,博物馆,116.412819,39.909153
西周燕都遗址博物馆,北京,北京,北京,010,61393475;61393049,窦店镇,琉璃河镇董家林村7区1号,景点,博物馆,116.056877,39.616669
北大红楼,北京,北京,北京,010,52208928;52208929,王府井/东单,五四大街29号,景点,纪念馆,116.405319,39.924675
北京艺术博物馆,北京,北京,北京,010,68413380;68456997,紫竹桥,西三环北路万寿寺内,景点,博物馆,116.311386,39.946651
北京周口店北京人遗址博物馆,北京,北京,北京,010,53230037,房山区,周口店镇周口店大街1号,景点,博物馆,115.929717,39.690099
中国地质博物馆,北京,北京,北京,010,66557858,西四,西四羊肉胡同15号,景点,博物馆,116.371742,39.923393
中国古动物馆,北京,北京,北京,010,88369280;88369210,西直门/动物园,"西直门外大街142号（北京动物园售票处西300米路南,北京天文馆西50米）",景点,博物馆,116.333946,39.937428
中国国家博物馆,北京,北京,北京,010,65116400,王府井/东单,东长安街16号（天安门广场东侧）,景点,博物馆,116.401398,39.905415
中国航空博物馆,北京,北京,北京,010,66916919;61784882,小汤山镇,小汤山镇顺沙路中国航空博物馆,景点,博物馆,116.366646,40.185047
北京民俗博物馆,北京,北京,北京,010,65510151,朝外大街,朝阳门外大街141号,景点,博物馆,116.443962,39.92408
中国钱币博物馆,北京,北京,北京,010,66024178,前门/大栅栏,西交民巷17号,景点,博物馆,116.395073,39.902348
中国人民革命军事博物馆,北京,北京,北京,010,66866244;66866248,公主坟/万寿路,复兴路9号,景点,博物馆,116.323875,39.909151
中国现代文学馆,北京,北京,北京,010,57311800,对外经贸,文学馆路45号,景点,陈列馆,116.430054,39.984692
中国印刷博物馆,北京,北京,北京,010,60261243,黄村,兴华北路25号（清源路地铁站A西北口步行210米）,景点,博物馆,116.331459,39.743484
中国邮政邮票博物馆,北京,北京,北京,010,65213894,建国门/北京站,贡院西街6号D座（近长安大戏院）,景点,博物馆,116.431206,39.910816
中国紫檀博物馆,北京,北京,北京,010,85752818,高碑店,建国路23号（地铁1号线高碑店站向西300米）,景点,博物馆,116.526093,39.910671
中华民族博物院,北京,北京,北京,010,62063646;62063647,亚运村,民族园路1号,景点,博物馆,116.390867,39.98538
中央民族大学民族博物馆,北京,北京,北京,010,68933341;68932390,魏公村,中关村南大街27号,景点,博物馆,116.318069,39.948967
北京自然博物馆,北京,北京,北京,010,67027702;67024431,天坛,天桥南大街126号,景点,博物馆,116.399811,39.883171
八达岭野生动物世界,北京,北京,延庆区,010,69122591,八达岭,八达岭镇216省道水泉沟,景点,野生动物园,115.996861,40.35117
八大处公园,北京,北京,北京,010,88964661;88961812,八大处,八大处路3号,景点,宗教,116.184358,39.962705
半壁店国家森林公园,北京,北京,北京,010,89231397,大兴区,庞安路,景点,森林公园,116.438622,39.613209
宝联体育公园,北京,北京,北京,010,57170857;57171211,紫竹桥,北洼西里48号（近地铁10号线、6号线慈寿寺站）,景点,城市公园,116.299042,39.936211
北滨河公园,北京,北京,北京,010,62011470,德外大街,德外大街安德路102号,景点,城市公园,116.391304,39.950478
北海公园,北京,北京,北京,010,64037972,地安门,文津街1号,景点,园林,116.388764,39.928252
北京动物园,北京,北京,北京,010,68390274;68314411,西直门/动物园,西直门外大街137号,景点,动物园,116.336731,39.942097
北京野生动物园,北京,北京,北京,010,89216606;89216666,大兴区,106国道榆垡镇万亩森林,景点,野生动物园,116.333611,39.496262
国家植物园,北京,北京,北京,010,82598771,香山/植物园,香山路与中轴路交叉口东北角,景点,植物园,116.210907,39.998135
菖蒲河公园,北京,北京,北京,010,,王府井/东单,菖蒲河沿9号（天安门东地铁站B东北口步行200米）,景点,城市公园,116.403618,39.908562
东单公园,北京,北京,北京,010,65129353,王府井/东单,大华路4号,景点,城市公园,116.417107,39.9049
丰台科技园生态主题公园,北京,北京,北京,010,63730113,看丹桥/新华街,科兴路1号(科怡路口)（丰台南路地铁站D西南口步行410米）,景点,公园/广场,116.295235,39.838959
福海公园,北京,北京,北京,010,,大红门,永外高庄138号,景点,城市公园,116.402,39.847157
古城公园,北京,北京,北京,010,68878597,古城/八角,古城南路1号,景点,公园/广场,116.193321,39.911777
北京国际雕塑公园,北京,北京,北京,010,68650422,鲁谷,石景山路2号（地铁玉泉路A出口西南400米）,景点,文化公园,116.245079,39.906017
昊天公园,北京,北京,北京,010,69354447,良乡,东关街73号,景点,公园/广场,116.154602,39.733765
黑山公园,北京,北京,门头沟区,010,69842990,门头沟城区,黑山大街12号,景点,城市公园,116.096481,39.94075
红领巾公园,北京,北京,北京,010,85824746,十里堡,八里庄5号,景点,城市公园,116.491402,39.926601
花乡公园,北京,北京,北京,010,63713852,世界公园,丰葆路,景点,公园/广场,116.297295,39.805218
槐房钓鱼公园,北京,北京,北京,010,,大红门,槐房路,景点,城市公园,116.378571,39.81871
黄渠公园,北京,北京,北京,010,65754850,定福庄,黄渠村（褡裢坡地铁站B东北口步行470米）,景点,城市公园,116.568497,39.927597
会城门公园,北京,北京,北京,010,63467342,首都博物馆/莲花池东路,双贝子坟路1号,景点,城市公园,116.333214,39.901096
景藏健康公园,北京,北京,北京,010,58590706,北苑家园,奥运村安立路81号（北五环仰山桥向北）,景点,公园/广场,116.40853,40.037822
景山公园,北京,北京,北京,010,64038098,地安门,景山西街44号（故宫后门对面）,景点,园林,116.396935,39.925797
莲花池公园,北京,北京,北京,010,63972892,北京西站/六里桥,西三环中路38号,景点,城市公园,116.314919,39.892105
柳荫公园,北京,北京,北京,010,84131660,安定门,安定门外黄寺大街8号,景点,城市公园,116.402122,39.960835
龙潭公园,北京,北京,北京,010,67144336;67186358,左安门,龙潭路8号,景点,城市公园,116.440735,39.878754
马甸公园,北京,北京,北京,010,138****0720,牡丹园/北太平庄,G6辅路与裕民路交叉口西侧,景点,城市公园,116.379868,39.972294
北京明城墙遗址公园,北京,北京,北京,010,65270574;65270080,崇文门,崇文门东大街9号,景点,文化公园,116.427933,39.901272
南馆公园,北京,北京,北京,010,84012558,东直门,西羊管胡同甲1号,景点,城市公园,116.427696,39.943535
金隅南湖公园,北京,北京,北京,010,64738813,望京,阜通西大街20号,景点,城市公园,116.460472,39.982311
南口公园,北京,北京,北京,010,69775448,南口镇,南口西大桥西侧,景点,城市公园,116.117912,40.234161
南礼士路公园,北京,北京,北京,010,62023200,月坛,南礼士路58号（南礼士路地铁站B东北口步行340米）,景点,城市公园,116.354645,39.910748
南苑公园,北京,北京,北京,010,67992403,新宫,南苑西路5号,景点,城市公园,116.378693,39.806465
人定湖公园,北京,北京,北京,010,62023200,德外大街,德胜街道安德路六铺炕15号（黄寺大街南侧）,景点,城市公园,116.38559,39.957405
日坛公园,北京,北京,北京,010,85616301;85635038,建外大街,日坛北路6号,景点,城市公园,116.44383,39.915566
三元桥文化园,北京,北京,北京,010,84542268,亮马桥/三元桥,三元桥新源里街心绿地,景点,城市公园,116.45079,39.949593
石榴庄公园,北京,北京,北京,010,,大红门,南四环中路大红门东桥凉水河南,景点,城市公园,116.422508,39.83342
北京世界公园,北京,北京,北京,010,83613681,世界公园,花乡街道大葆台158号,景点,主题公园,116.287921,39.810482
双龙公园,北京,北京,北京,010,,北京欢乐谷,北杨庄路138号,景点,城市公园,116.48288,39.869556
双秀公园,北京,北京,北京,010,62011695;82089805,牡丹园/北太平庄,北三环中路20号,景点,城市公园,116.374817,39.966297
双榆树公园,北京,北京,北京,010,,双榆树,科学院南路31号,景点,城市公园,116.324814,39.970451
顺城公园,北京,北京,北京,010,,阜成门,阜成门桥东100米（宫门口四条南）,景点,文化公园,116.357201,39.913258
顺义公园,北京,北京,北京,010,69441755,顺义城区,光明南街26号,景点,城市公园,116.662003,40.120822
四得公园,北京,北京,北京,010,64353759,酒仙桥,将台乡将台西路9号,景点,城市公园,116.474869,39.972145
四季青公园,北京,北京,北京,010,,远大路,蓝靛厂北路,景点,城市公园,116.287476,39.968742
太阳宫公园,北京,北京,北京,010,84574426,太阳宫,十字口东街（近太阳宫路）,景点,城市公园,116.455856,39.975361
天坛公园,北京,北京,北京,010,67013036;67012483,天坛,天坛东路天坛东里甲1号,景点,园林,116.411034,39.881775
万春园公园,北京,北京,北京,010,81524984,梨园,玉桥中路19号,景点,城市公园,116.677231,39.893257
万芳亭公园,北京,北京,北京,010,67211666,洋桥/木樨园,南三环西路3号,景点,城市公园,116.37571,39.858597
万柳公园,北京,北京,北京,010,82706909,苏州桥,新宫门路,景点,城市公园,116.293381,39.979977
万寿公园,北京,北京,北京,010,63540841;63542172,右安门,白纸坊东街甲29号（陶然亭地铁站A西北口步行480米）,景点,城市公园,116.368248,39.879787
望京公园,北京,北京,北京,010,64382268,望京,崔各庄地区彩虹路2号,景点,城市公园,116.498512,39.994781
卧龙公园,北京,北京,北京,010,69445460,顺义城区,顺白路2号,景点,城市公园,116.640556,40.14093
顺义夕阳红公园,北京,北京,北京,010,,石园,府前中街8号,景点,城市公园,116.670982,40.113068
西海子公园,北京,北京,北京,010,80882290,新华大街,新华街道西海子西路12号,景点,城市公园,116.664116,39.914635
香河园公园,北京,北京,北京,010,,左家庄,左家庄街道机场高速与左家庄东街交叉路口往西约50米,景点,城市公园,116.448906,39.95385
香山公园,北京,北京,北京,010,62591222,香山/植物园,香山街道买卖街40号,景点,园林,116.188598,39.990826
兴隆公园,北京,北京,北京,010,85759918,高碑店,兴隆庄甲8号（近高碑店地铁站）,景点,城市公园,116.533592,39.912609
宣武艺园,北京,北京,北京,010,83116736,牛街,槐柏树街12号（近宣武医院、长椿街地铁站西南口）,景点,城市公园,116.359192,39.895138
窑洼湖公园,北京,北京,北京,010,67316688,朝阳区,北工大路与奥林匹克路交叉口北480米,景点,城市公园,116.484222,39.882345
迎宾公园,北京,北京,北京,010,,城关街道,城关街道燕房路,景点,公园/广场,115.995987,39.700714
中山公园,北京,北京,北京,010,66055431,东城区,东华门街道中华路4号（天安门西侧）,景点,园林,116.394402,39.910706
八达岭全教学滑雪场,北京,北京,延庆区,010,69129922;69129988,八达岭,八达岭镇经济开发区66号,景点,滑雪场,115.957841,40.347022
怀北国际滑雪场,北京,北京,怀柔区,010,89696677,青龙峡,河防口村548号,景点,滑雪场,116.656303,40.447449
军都山滑雪场,北京,北京,北京,010,60725888,蟒山国家森林公园,崔村镇真顺村588号,景点,滑雪场,116.331245,40.239677
南山滑雪场,北京,北京,密云区,010,89091909;84411182,南山滑雪场,河南寨镇圣水头村,景点,滑雪场,116.861755,40.331215
万科石京龙滑雪场,北京,北京,延庆区,010,69191617;69191615,龙庆峡,中羊坊村旧小路龙聚山庄北区东邻,景点,滑雪场,115.96978,40.525173
云佛滑雪场,北京,北京,密云区,010,61008900,密云水库,溪翁庄镇313省道云佛滑雪场,景点,滑雪场,116.881516,40.473934
安亲王府,北京,北京,北京,010,,崇文门,东交民巷15号法国使馆旧址,景点,历史建筑,116.410721,39.90276
八达岭长城,北京,北京,延庆区,010,61118002;69122222,八达岭,军都山关沟古道北口,景点,古代遗迹,116.016777,40.356159
白河峡谷营地,北京,北京,怀柔区,010,139****0339,白河湾,琉璃庙镇青石岭村,景点,更多景点/周边游,116.681654,40.663221
北京后花园,北京,北京,北京,010,60707588;69768087,昌平区,后二路,景点,自然风光,116.077477,40.137981
白马关堡,北京,北京,密云区,010,,密云区其他,西火路与白南路交叉路口往东北约130米,景点,古代遗迹,116.916054,40.714813
妙应寺白塔,北京,北京,北京,010,66166099,阜成门,阜成门内大街171,景点,历史建筑,116.363335,39.924885
白云观,北京,北京,北京,010,63463531;63396074,复兴门,白云观街9号,景点,宗教,116.343773,39.90126
百望山森林公园,北京,北京,北京,010,62884356;62884508,百望山森林公园/309医院,黑山扈北口19号,景点,森林公园,116.255619,40.02997
北京海洋馆,北京,北京,北京,010,62176655,北下关,高梁桥斜街乙18号,景点,海洋馆,116.340965,39.944674
碧云寺,北京,北京,北京,010,62594463;62591222,香山/植物园,香山买卖街40号香山公园内,景点,宗教,116.19136,39.997486
蔡锷故居,北京,北京,北京,010,,新街口,棉花胡同66号,景点,名人故居,116.376465,39.937786
蔡元培故居,北京,北京,北京,010,65275840,王府井/东单,东堂子胡同75号（灯市口地铁站C东南口步行430米）,景点,名人故居,116.418419,39.914402
程砚秋故居,北京,北京,北京,010,,西四,西四北三条39号,景点,名人故居,116.367714,39.927856
北京大观园,北京,北京,北京,010,63582011;63544993,右安门,南菜园西街12号,景点,园林,116.35614,39.871433
大寒岭关城,北京,北京,门头沟区,010,87012690,门头沟区,018县道,景点,历史建筑,115.819058,39.940858
敕建大觉禅寺,北京,北京,北京,010,62456163;62456162,海淀区,苏家坨镇大觉寺路9号,景点,宗教,116.106022,40.052825
地坛公园,北京,北京,北京,010,64214657,雍和宫/地坛,安定门外大街,景点,古代遗迹,116.415459,39.954182
法海禅寺,北京,北京,北京,010,88715776,模式口,模式口大街48号,景点,历史建筑,116.159459,39.941479
法源寺,北京,北京,北京,010,63534171,牛街,法源寺前街7号,景点,宗教,116.369888,39.885384
冯国璋故居,北京,北京,北京,010,,地安门,帽儿胡同13号（南锣鼓巷地铁站E西北口步行450米）,景点,名人故居,116.401283,39.936455
北京凤凰岭,北京,北京,北京,010,62455933,海淀区,苏家坨镇凤凰岭路19号,景点,自然风光,116.084178,40.107709
缸瓦市基督教堂,北京,北京,北京,010,66176181;66172838,西四,西四南大街57号（西四丁字路口南侧路西）,景点,宗教,116.373155,39.921385
龚自珍故居,北京,北京,北京,010,,宣武门,上斜街50号,景点,名人故居,116.369118,39.897587
古崖居景区,北京,北京,延庆区,010,69110333,延庆区其他,古龙路东门营村,景点,古代遗迹,115.775452,40.462917
故宫博物院,北京,北京,北京,010,4009501925,王府井/东单,景山前街4号,景点,博物馆,116.397049,39.917965
郭守敬纪念馆,北京,北京,北京,010,83224626,后海/什刹海,德胜门西大街甲60号汇通祠内,景点,纪念馆,116.374237,39.948044
孔庙和国子监博物馆,北京,北京,北京,010,64075259;64057214,雍和宫/地坛,国子监街15号,景点,博物馆,116.413933,39.946651
和敬公主府,北京,北京,北京,010,64019808,东四,张自忠路7号（原铁狮子胡同）,景点,历史建筑,116.413437,39.934841
红螺寺,北京,北京,怀柔区,010,60681639;60681175,红螺寺,怀柔镇卢庄村北红螺东路2号,景点,宗教,116.62487,40.383263
鸿焱湖风景区,北京,北京,怀柔区,010,,怀柔区,桥梓镇沙峪口水库,景点,自然风光,116.48407,40.286706
虎峪自然风景区,北京,北京,北京,010,69771720,昌平区,南口地区虎峪路,景点,自然风光,116.106789,40.325191
黄花城水库,北京,北京,怀柔区,010,69648041,黄花城水长城,九渡河镇,景点,水利工程,116.345894,40.420753
纪晓岚故居纪念馆,北京,北京,北京,010,63036712,虎坊桥,大栅栏街道珠市口西大街241号（陕西巷南口）,景点,纪念馆,116.387245,39.890057
箭扣长城,北京,北京,怀柔区,010,61611765,渤海镇/慕田峪长城,雁栖镇西栅子村,景点,历史建筑,116.534496,40.446585
戒台寺,北京,北京,门头沟区,010,69805942;69806611,门头沟区,永定镇,景点,宗教,116.086519,39.87049
京东大峡谷,北京,北京,平谷区,010,60968317;60968260,平谷区,昌金路山东庄镇鱼子山村,景点,自然风光,117.168597,40.245186
京东石林峡风景区,北京,北京,平谷区,010,69989816;60987922,石林峡,雕窝村73号,景点,自然风光,117.241455,40.262119
精灵谷自然风景区,北京,北京,密云区,010,69016269;136****8016,密云区其他,石城镇琉辛路45号,景点,自然风光,116.781154,40.595542
敬谨亲王府,北京,北京,北京,010,,西单,教育街3号,景点,历史建筑,116.372749,39.905262
九谷口自然风景区,北京,北京,怀柔区,010,89696677,青龙峡,河防口村548号（近雁栖湖）,景点,自然风光,116.650459,40.448132
九眼楼生态长城展示区,北京,北京,延庆区,010,60186019,渤海镇/慕田峪长城,四海镇石窑村,景点,古代遗迹,116.491074,40.491745
居庸关长城,北京,北京,北京,010,60761005;69771665,居庸关长城,南口镇居庸关村,景点,历史建筑,116.073051,40.291023
可园,北京,北京,北京,010,183****1301,地安门,帽儿胡同7-13号(南锣鼓巷地铁站E西北口步行400米),景点,自然风光,116.401894,39.936516
敕赐和平寺,北京,北京,北京,010,69778491,昌平区,南口镇花塔村,景点,宗教,116.064766,40.223297
黎元洪故居,北京,北京,北京,010,,王府井/东单,王府井大街27号,景点,纪念馆,116.410568,39.922607
牛街礼拜寺,北京,北京,北京,010,63532564,牛街,牛街18号,景点,宗教,116.364594,39.885674
礼亲王府,北京,北京,北京,010,,西四,西城根南街9号（近西安门）,景点,历史建筑,116.37645,39.920647
李大钊烈士陵园,北京,北京,北京,010,62591044,香山/植物园,香山万安里1号,景点,烈士陵园,116.231453,39.981068
历代帝王庙博物馆,北京,北京,北京,010,66517739,阜成门,新街口街道阜成门内大街131号,景点,宗教,116.367355,39.924026
濂泉响谷,北京,北京,怀柔区,010,61611740,渤海镇/慕田峪长城,八道河乡八道河村,景点,自然风光,116.57502,40.495392
林白水故居,北京,北京,北京,010,,虎坊桥,棉花巷2号（虎坊桥地铁站A西北口步行440米）,景点,名人故居,116.379417,39.890312
龙泉峪长城,北京,北京,延庆区,010,135****2020,黄花城水长城,龙泉峪4号,景点,历史建筑,116.274261,40.409771
吕祖宫,北京,北京,北京,010,66068978,复兴门,顺城街15号,景点,宗教,116.357254,39.912895
落坡岭风景区,北京,北京,门头沟区,010,51860409,门头沟区,109国道与大台路交叉口西北50米,景点,自然风光,115.981262,39.986881
茅盾故居,北京,北京,北京,010,64040520,南锣鼓巷/鼓楼东大街,后圆恩寺胡同13号,景点,纪念馆,116.404739,39.93861
梅兰芳纪念馆,北京,北京,北京,010,83223598-8001,新街口,护国寺大街9号,景点,纪念馆,116.379417,39.935562
黑龙潭风景区,北京,北京,密云区,010,61016289;61016295,密云区其他,密关路石城镇大关桥西侧,景点,自然风光,116.776405,40.565098
密云水库,北京,北京,密云区,010,69014489,密云区其他,琉辛路,景点,现代建筑,116.957751,40.514187
妙峰山风景名胜区,北京,北京,门头沟区,010,61882936;61882920,门头沟区,妙峰山镇涧沟村,景点,自然风光,116.026185,40.063017
明皇文化艺术馆,北京,北京,北京,010,69747257,昌平镇,西关环岛西北侧,景点,展览馆,116.213211,40.224319
明十三陵,北京,北京,北京,010,60761005,十三陵水库,昌赤路十三陵定陵,景点,古代遗迹,116.235741,40.280537
慕田峪长城,北京,北京,怀柔区,010,61626876;61626022,渤海镇/慕田峪长城,渤海镇怀黄路慕田峪环岛旁,景点,历史建筑,116.565078,40.431632
那王府,北京,北京,北京,010,86080641,安定门,宝钞胡同甲19号,景点,历史建筑,116.398972,39.946522
北京麋鹿生态实验中心,北京,北京,北京,010,69280675,大兴区,鹿苑路(近旧忠路)南海子公园麋鹿苑内,景点,博物馆,116.457545,39.777035
欧阳予倩故居,北京,北京,北京,010,,东四,张自忠路甲5号（张自忠路地铁站A西北口步行240米）,景点,纪念馆,116.413788,39.933884
蒲洼狩猎场,北京,北京,北京,010,61371400,房山区,西南深山区蒲洼乡芦子水村,景点,更多景点/周边游,115.555328,39.764679
齐白石故居,北京,北京,北京,010,,复兴门,跨车胡同13号,景点,名人故居,116.364166,39.914574
崇礼住宅,北京,北京,北京,010,,东四,东四六条63-65号,景点,历史建筑,116.419991,39.930378
庆王府,北京,北京,北京,010,63443666,后海/什刹海,定阜街3号院,景点,历史建筑,116.380745,39.935982
燃灯佛舍利塔,北京,北京,北京,010,,新华大街,大成街临1号,景点,宗教,116.665756,39.915611
僧格林沁祠,北京,北京,北京,010,,地安门,地安门东大街47号,景点,宗教,116.407005,39.933685
上方山云水洞,北京,北京,北京,010,61315542,上方山国家森林公园,韩村河镇上方山水云洞,景点,自然风光,115.813812,39.667839
京报馆,北京,北京,北京,010,63152362;185****1925,虎坊桥,魏染胡同30号（虎坊桥地铁站A西北口步行410米）,景点,历史建筑,116.380722,39.891064
圣莲山风景区,北京,北京,北京,010,4008087179,房山区,史家营乡贾金路乡柳林水村,景点,自然风光,115.699615,39.841507
十渡风景名胜区,北京,北京,北京,010,185****2413,十渡镇,十渡镇九渡大街9号,景点,自然景观,115.504501,39.658657
石花洞,北京,北京,北京,010,60312243;60312170,河北镇,河北镇南车营村石花洞路石花洞景区,景点,自然风光,115.946274,39.795734
水关长城,北京,北京,延庆区,010,61118002,八达岭,石佛寺村（京藏高速水关长城出口处）,景点,历史建筑,116.032066,40.343105
顺承郡王府,北京,北京,北京,010,,西四,旧赵登禹路三十二号,景点,历史建筑,116.363777,39.922951
司马台长城,北京,北京,密云区,010,81009999;81008141,司马台长城,司马台村,景点,历史建筑,117.287102,40.65786
宋庆龄故居,北京,北京,北京,010,64044205;64015256,后海/什刹海,后海北沿46号,景点,名人故居,116.383072,39.945522
肃亲王府,北京,北京,北京,010,,王府井/东单,正义路与东长安街交叉口南280米,景点,历史建筑,116.407318,39.905342
孙中山行馆,北京,北京,北京,010,,地安门,张自忠路23号,景点,名人故居,116.410995,39.933914
谭嗣同故居,北京,北京,北京,010,86553939,广内大街,牛街街道北半截胡同41号(近菜市口大街),景点,纪念馆,116.374039,39.886436
潭柘寺景区,北京,北京,门头沟区,010,60861699;60863929,潭柘寺,潭柘寺风景区,景点,宗教,116.030594,39.903419
涛贝勒府,北京,北京,北京,010,,后海/什刹海,柳荫街27号13中,景点,历史建筑,116.384544,39.936951
桃源仙谷,北京,北京,密云区,010,61025667;61025309,密云区其他,石城镇南石城村,景点,自然风光,116.794136,40.541542
田汉故居,北京,北京,北京,010,,东四,细管胡同9号附近,景点,名人故居,116.41552,39.937164
团河行宫,北京,北京,北京,010,61285872,黄村,团河路,景点,历史建筑,116.378791,39.747578
万松老人塔,北京,北京,北京,010,,西四,西四砖塔胡同口南侧（西四肯德基对面）,景点,历史建筑,116.373253,39.922096
文丞相祠,北京,北京,北京,010,64014968,东四,府学胡同63号,景点,宗教,116.410423,39.936062
卧佛寺,北京,北京,北京,010,82598771,香山/植物园,香山街道卧佛寺路北京植物园,景点,宗教,116.207275,40.007477
西什库天主堂,北京,北京,北京,010,66175198,西四,西什库大街33号,景点,宗教,116.378777,39.925026
贤良祠,北京,北京,北京,010,,地安门,地安门西大街103号（东官房车站旁）,景点,宗教,116.386902,39.933716
辛亥滦州革命先烈纪念园,北京,北京,北京,010,65824516,海淀区,温泉路北京老年医院内,景点,烈士陵园,116.165314,40.050629
徐悲鸿纪念馆,北京,北京,北京,010,62276936,新街口,新街口北大街53号,景点,纪念馆,116.371567,39.945068
循郡王府,北京,北京,北京,010,,安定门,安定门内大街方家胡同13-15号,景点,历史建筑,116.414558,39.944405
燕古长城遗址,北京,北京,北京,010,,昌平区,长峪城登山步道西北侧90米,景点,古代遗迹,115.899078,40.217508
阳台山自然风景区,北京,北京,北京,010,62456816,海淀区,阳台山路北京市第四十七中学西侧,景点,自然风光,116.10553,40.068069
杨椒山祠,北京,北京,北京,010,,宣武门,宣外大街达智桥12号,景点,宗教,116.373177,39.896584
野鸭湖国家湿地公园,北京,北京,延庆区,010,69131458,康庄,康庄镇刘浩营村,景点,自然风光,115.847504,40.413631
颐和园,北京,北京,北京,010,62881144,颐和园,新建宫门路19号,景点,园林,116.281403,39.997612
银狐洞,北京,北京,北京,010,60363236,房山区,下英水村北一区49号,景点,自然风光,115.903481,39.798519
雍和宫,北京,北京,北京,010,84191906;84191907,安定门,雍和宫大街28号,景点,历史建筑,116.417313,39.947235
于谦祠,北京,北京,北京,010,,王府井/东单,西裱褙胡同甲23号（东单地铁站C东南口步行290米）,景点,宗教,116.423264,39.907684
元大都城垣遗址公园,北京,北京,北京,010,84648252,安贞,对外经贸大学南门对面,景点,古代遗迹,116.40779,39.97583
圆明园遗址公园,北京,北京,北京,010,82539566;62628501,颐和园,青龙桥街道清华西路28号（近地铁4号线圆明园站）,景点,古代遗迹,116.303329,40.006519
袁崇焕墓和祠,北京,北京,北京,010,67187057,广渠门内,本家润园C区东门,景点,宗教,116.438087,39.895222
袁督师庙,北京,北京,北京,010,,左安门,龙潭路8号龙潭公园内（西北角）,景点,宗教,116.436836,39.880295
月坛公园,北京,北京,北京,010,68020940,月坛,月坛北街甲6号,景点,园林,116.352234,39.916424
云居寺,北京,北京,北京,010,61389612;61389604,云居滑雪场,大石窝镇水头村,景点,宗教,115.775017,39.609077
斋堂城遗址,北京,北京,门头沟区,010,,爨底下村,斋堂村102309号,景点,古代遗迹,115.704788,39.977283
斋堂水库,北京,北京,门头沟区,010,64823746,爨底下村,斋堂水库（109国道南300米）,景点,现代建筑,115.675346,39.963058
詹天佑纪念馆,北京,北京,延庆区,010,69121006;69121516,八达岭,216省道八达岭旅游风景区内,景点,纪念馆,116.006799,40.358429
张恨水故居,北京,北京,北京,010,,西四,砖塔胡同95号,景点,名人故居,116.367584,39.922291
张之洞故居,北京,北京,北京,010,,地安门,白米斜街11号,景点,名人故居,116.395332,39.934837
郑亲王府,北京,北京,北京,010,,西单,大木仓胡同35号,景点,历史建筑,116.370689,39.91206
中央广播电视塔,北京,北京,北京,010,88416232;68450715,航天桥,西三环中路11号,景点,高空观景,116.307107,39.919074
朱彝尊故居,北京,北京,北京,010,,宣武门,海柏胡同16号,景点,名人故居,116.378052,39.896626
太平洋海底世界,北京,北京,北京,010,68714695,航天桥,西三环中路11号中央广播电视塔下,景点,海洋馆,116.306258,39.919084
富国海底世界,北京,北京,北京,010,65913398;65935263,三里屯/工体,三里屯街道工体南路工人体育场南门,景点,海洋馆,116.446564,39.928001
北京石景山游乐园,北京,北京,北京,010,88925159,古城/八角,石景山路25号,景点,游乐场,116.208758,39.911978
中青旅遨游网（亚运村连锁店）,北京,北京,北京,010,89192052,亚运村,慧忠里103号洛克时代B座1楼1010室,景点,旅行社,116.406904,40.002225
中国旅行社,北京,北京,北京,010,8008107171,左家庄,曙光大厦C座2层,景点,旅行社,116.451424,39.963604
森林国际旅行社,北京,北京,北京,010,57282825,牡丹园/北太平庄,北三环中路甲3号,景点,旅行社,116.390312,39.969112
中青旅遨游网,北京,北京,北京,010,89192068,苏州桥,长春桥路万柳亿城中心A座1层101室,景点,旅行社,116.302483,39.960297
中国妇女旅行社,北京,北京,北京,010,186****3550,王府井/东单,灯市口大街50号好润大厦1-3层,景点,旅行社,116.415413,39.918503
邮电国际旅行社,北京,北京,北京,010,65098833,朝阳公园/团结湖,朝阳北路225号318室,景点,旅行社,116.463913,39.923634
中国康辉旅行社,北京,北京,北京,010,58690940;58690941,建外大街,东三环中路39号建外SOHO东区9号商铺9327室,景点,旅行社,116.458321,39.906399
黄金假日旅行网,北京,北京,北京,010,68589990,阜成门,阜外大街二号万通金融中心A座六层,景点,旅行社,116.353951,39.922882
港中旅,北京,北京,北京,010,63574003,广内大街,广安门内大街338号港中旅大厦15楼,景点,旅行社,116.353958,39.888901
中青旅遨游网,北京,北京,北京,010,89192082,广外大街,广安门外大街305号西堤红山二区朝南底商1-29号,景点,旅行社,116.334131,39.893311
华远国际旅行社,北京,北京,北京,010,68038261,月坛,南礼士路36号,景点,旅行社,116.353493,39.922241
中国康辉旅行社,北京,北京,北京,010,65877701,朝阳公园/团结湖,农展馆南路5号京朝大厦1层,景点,旅行社,116.469833,39.934364
北京青年旅行社,北京,北京,北京,010,80447789,劲松/潘家园,潘家园南里12号潘家园大厦3层北区,景点,旅行社,116.450575,39.871685
中国职工国际旅行社,北京,北京,北京,010,65128680;85610361,建外大街,日坛路1号日坛宾馆二层,景点,旅行社,116.440686,39.917046
中青旅遨游网,北京,北京,北京,010,89192055,上地,上地东路上地佳园23号楼一层6号,景点,旅行社,116.316315,40.034985
中青旅遨游网,北京,北京,北京,010,89192091,亮马桥/三元桥,曙光曙光西里b座,景点,旅行社,116.451347,39.96072
中青旅遨游网,北京,北京,北京,010,89192081,复兴门,太平桥大街98-5号中海凯旋1号楼3单元1层,景点,旅行社,116.365132,39.913882
中青旅遨游网,北京,北京,北京,010,89192059,望京,望京湖光中街一号LOFTEL大厦首层,景点,旅行社,116.46682,39.99751
中国康辉旅行社,北京,北京,北京,010,83988398,西单,华远北街2号通港大厦1楼,景点,旅行社,116.372643,39.913525
中青旅遨游网,北京,北京,北京,010,89192098,西直门/动物园,交大东路钻河中心2号楼1层122室,景点,旅行社,116.350658,39.944538
中国康辉旅行社,北京,北京,北京,010,63108885,宣武门,宣武门外大街8号庄胜崇光百货6层西,景点,旅行社,116.375389,39.89629
中国国际旅行社,北京,北京,北京,010,4000079065,雍和宫/地坛,建外大街28号,景点,旅行社,116.42083,39.948772
中国铁道旅行社,北京,北京,北京,010,69448699,顺义城区,新顺南大街9号,景点,旅行社,116.650848,40.127342
金帆水上运动俱乐部,北京,北京,北京,010,,后海/什刹海,德胜门内大街105号西南40米西北方向150米,景点,水上项目/水上体验,116.380836,39.943825
燕山公园,北京,北京,北京,010,69341357,房山区,迎风中路14号,景点,公园/广场,115.957008,39.726963
乔波室内滑雪场,北京,北京,北京,010,60413499,马坡牛栏山镇,顺安路6号,景点,滑雪场,116.661389,40.199979
北京金隅凤山温泉度假村,北京,北京,北京,010,60711188;60713942,昌平镇,南邵镇蟒山路10号（近水库路）,景点,温泉,116.284482,40.249643
北京欢乐谷,北京,北京,北京,010,67389898;67383333-8004,北京欢乐谷,南磨房地区东四环小武基北路,景点,主题乐园,116.494705,39.867229
天池乐活汤泉,北京,北京,北京,010,69332332;69331586,燕山,向阳街道高家坡路11号,景点,温泉,115.946014,39.730549
北宫国家森林公园,北京,北京,北京,010,83840830,丰台区,大灰厂东路55号,景点,森林公园,116.117752,39.866119
中国美术馆,北京,北京,北京,010,64006326;64011816,王府井/东单,五四大街1号,景点,美术馆,116.408951,39.925079
圣恩禅寺,北京,北京,北京,010,60725927,昌平区,崔村镇香堂文化新村10区,景点,宗教,116.364662,40.252185
川谷度假村,北京,北京,怀柔区,010,136****6834,神堂峪,栖镇神堂峪南不夜谷门口,景点,景点/周边游,116.64679,40.413948
银锭桥三号,北京,北京,北京,010,,后海/什刹海,后海银锭桥胡同3号(银锭桥南5米),景点,自然风光,116.393394,39.938801
北京展览馆,北京,北京,北京,010,57960055;57960023,西直门/动物园,西直门外大街135号(近地铁西直门站),景点,展览馆,116.344131,39.940483
宋庄画家村画廊,北京,北京,北京,010,69598343;186****8869,宋庄,宋庄镇任庄村北1号,景点,美术馆,116.749985,39.951881
天安门广场,北京,北京,北京,010,63095745,天安门广场,东长安街与广场东侧路交叉口西南角,景点,广场,116.397552,39.903568
北京前门大栅栏,北京,北京,北京,010,63109680,前门/大栅栏,大栅栏街6号（近前门地铁站I口、前门大街）,景点,休闲街区,116.397041,39.896202
南宫旅游景区,北京,北京,北京,010,83316030;83313778,南宫,王佐镇南宫南路1号,景点,更多景点/周边游,116.152122,39.794563
北京渔阳国际滑雪场,北京,北京,平谷区,010,69908282;185****8666,平谷区,大旺务村688号,景点,滑雪场,117.147703,40.077147
阳光星期八公园,北京,北京,北京,010,68242059,五棵松,金沟河路26号,景点,城市公园,116.254463,39.916153
天鹅国旅,北京,北京,北京,010,,劲松/潘家园,农光南里1号龙辉大厦内（近劲松洋华堂）,景点,旅行社,116.461662,39.880554
北京电影旅游城,北京,北京,北京,010,82043638,牡丹园/北太平庄,北三环中路77号,景点,影视基地,116.357796,39.968636
白草畔自然风景区,北京,北京,北京,010,60369037;60369038,霞云岭国家森林公园,108国道四马台村,景点,自然风光,115.612893,39.784564
爨底下村,北京,北京,门头沟区,010,69818988,爨底下村,斋堂镇109国道爨柏景区内,景点,古村古镇,115.646083,39.99561
玲珑公园,北京,北京,北京,010,88131225,航天桥,八里庄北里3号（慈寿寺地铁站C2东南口步行280米）,景点,城市公园,116.295227,39.929131
北京上方山国家森林公园,北京,北京,北京,010,61315542;61315543,上方山国家森林公园,046县道上方山国家森林公园,景点,森林公园,115.826675,39.67403
南新仓文化休闲街,北京,北京,北京,010,64010849,东四,东四十条22号(近东门仓胡同),景点,休闲街区,116.43116,39.932449
海淀公园,北京,北京,北京,010,62850569,苏州桥,海淀公园路与铜牛路交叉口东南角,景点,城市公园,116.295269,39.987077
钟楼,北京,北京,北京,010,84027869;84027870,地安门,钟楼湾胡同临字9号,景点,历史建筑,116.395859,39.942432
神舟国旅,北京,北京,北京,010,84716758,望京,阜安西路望京西园三区316号楼2楼（近阜通西大街）,景点,旅行社,116.474899,39.998138
老北京微缩景园,北京,北京,北京,010,69771805,南口镇,南口地区南辛路,景点,影视基地,116.165848,40.252934
中国铁道博物馆,北京,北京,北京,010,64381317;64381517,金盏,酒仙桥北路1号院北侧,景点,博物馆,116.516345,39.997657
皇城根遗址公园,北京,北京,北京,010,,王府井/东单,北河沿大街与五四大街交叉口南100米路东,景点,古代遗迹,116.406563,39.92252
东方阁美术馆,北京,北京,北京,010,84211186,和平里/国展中心,和平里东街与民旺北胡同交叉口西南100米,景点,美术馆,116.424843,39.952553
北京画院美术馆,北京,北京,北京,010,65025171,朝阳公园/团结湖,朝阳公园南路12号,景点,美术馆,116.473091,39.93306
至高美术馆,北京,北京,北京,010,82560366;133****5688,苏州桥,长春桥路5号新起点家园-5,景点,美术馆,116.303871,39.960697
中国国家画院美术馆,北京,北京,北京,010,68411369,紫竹桥,西三环北路54号,景点,美术馆,116.310638,39.938038
凯旋画廊,北京,北京,北京,010,57623012,798/大山子,酒仙桥路798艺术区2号院A05,景点,美术馆,116.492661,39.986382
偏锋画廊,北京,北京,北京,010,59789562,798/大山子,酒仙桥路2号北京798艺术区2号路B11号,景点,美术馆,116.498039,39.986431
美嘉环球旅行社,北京,北京,北京,010,64949979,亚运村,亚运村大屯路169号3楼,景点,旅行社,116.377853,40.002393
昌平公园,北京,北京,北京,010,,昌平镇,鼓楼南街28号,景点,城市公园,116.237106,40.218147
双龙峡,北京,北京,门头沟区,010,69819310;69819988,爨底下村,斋堂镇火村,景点,自然风光,115.71759,39.950989
北京灵水举人村,北京,北京,门头沟区,010,69812890,门头沟区,斋堂镇灵水村,景点,古村古镇,115.731773,40.004105
北京世界花卉大观园,北京,北京,北京,010,87500840;87503548,草桥/公益西桥,南四环中路235号,景点,植物园,116.351964,39.836211
北京自来水博物馆,北京,北京,北京,010,64650787,东直门,东直门外香河园街3号,景点,博物馆,116.437408,39.946014
南锣鼓巷,北京,北京,北京,010,139****2634;155****6033,安定门,南锣鼓巷与地安门东大街交叉口北侧,景点,休闲街区,116.402405,39.937176
烟袋斜街,北京,北京,北京,010,64001606,地安门,地安门外大街50号,景点,休闲街区,116.394745,39.939323
保利艺术博物馆,北京,北京,北京,010,65008117,东直门,朝阳门北大街1号新保利大厦云楼9层（近地铁二号线东四十条站D口）,景点,博物馆,116.432709,39.932621
中国国旅,北京,北京,北京,010,4006008888,王府井/东单,东单北大街1号国旅大厦,景点,旅行社,116.417191,39.915283
什刹海冰场,北京,北京,北京,010,66125717,后海/什刹海,前海南沿5号,景点,城市公园,116.38781,39.940479
昌平区博物馆,北京,北京,北京,010,69741095,昌平镇,府学路10号昌平区图书馆2层,景点,博物馆,116.255165,40.220995
碧水风荷公园,北京,北京,北京,010,,清河,小营桥西侧（近小营环岛）,景点,城市公园,116.338539,40.039829
蟠龙山长城,北京,北京,密云区,010,81052790,古北口,古北口村（近古御道）,景点,历史建筑,117.167191,40.685432
京东大溶洞,北京,北京,平谷区,010,60971708,平谷区,黄松峪乡黑豆峪村,景点,自然风光,117.254676,40.211954
物华艺术馆,北京,北京,北京,010,64668215,亮马桥/三元桥,霞光里6号,景点,美术馆,116.458523,39.958807
索尼探梦,北京,北京,北京,010,65018800,朝阳公园/团结湖,朝阳公园南路1号朝阳公园内（南侧）,景点,科技馆,116.481499,39.937363
劳动人民文化宫,北京,北京,北京,010,65116776,王府井/东单,东长安街天安门东侧,景点,人文古迹,116.400002,39.910767
康庄公园,北京,北京,北京,010,69250081,黄村,滨河东里东,景点,城市公园,116.342239,39.755596
钓鱼台银杏大道,北京,北京,北京,010,,航天桥,三里河路与月坛南街交叉口西北角,景点,步行街,116.334297,39.918346
基督教会崇文门教堂,北京,北京,北京,010,65133549;65242193,崇文门,后沟胡同丁2号,景点,景点/周边游,116.420456,39.902912
中旅假日旅行社,北京,北京,北京,010,65032344,朝阳门,朝阳门南大街18号,景点,旅行社,116.436333,39.917454
铁路祥和旅行社,北京,北京,北京,010,63215855,首都博物馆/莲花池东路,复兴路6号（军事博物馆地铁站C1东南口步行390米）,景点,旅行社,116.328559,39.906697
好园,北京,北京,北京,010,65121342,王府井/东单,史家胡同53号（灯市口地铁站A西北口步行260米）,景点,更多景点/周边游,116.419434,39.918686
红螺湖鸟岛,北京,北京,怀柔区,010,60681238,红螺寺,红螺寺路与中刘路交叉口东北角,景点,自然风光,116.625854,40.361614
先农坛,北京,北京,北京,010,,前门/天坛,东经路21号,景点,历史建筑,116.391411,39.877125
玉渡山自然风景区,北京,北京,延庆区,010,69190280,玉渡山风景区,玉海路北1号,景点,自然风光,115.899048,40.531639
普度寺,北京,北京,北京,010,85112897,王府井/东单,南池子大街与普渡寺前巷交叉口东100米,景点,宗教,116.404739,39.913441
回龙观体育文化公园,北京,北京,北京,010,,回龙观,回龙观东大街与文华路交叉口,景点,文化公园,116.342135,40.077913
中国国际旅行社总社,北京,北京,北京,010,138****8345,亦庄,荣华中路7号院4号楼1层1084室,景点,旅行社,116.501274,39.801743
常营公园,北京,北京,北京,010,,常营,幺家店路与民族家园中路交叉口北侧,景点,城市公园,116.58136,39.935905
李四光纪念馆,北京,北京,北京,010,88815625,魏公村,民族大学南路11号(近中国地质科学院地质力学研究所),景点,纪念馆,116.31675,39.946312
前门大街,北京,北京,北京,010,65253176,前门/大栅栏,小江胡同1号,景点,休闲街区,116.397842,39.895168
天毓山庄,北京,北京,北京,010,69306878;69306678,房山区,周口店镇辛庄民族村,景点,更多景点/周边游,115.937775,39.666206
什刹海火神庙,北京,北京,北京,010,64008882,地安门,地安门外大街77号（8号线什刹海站南50米）,景点,宗教,116.395607,39.937141
通教寺,北京,北京,北京,010,64055918,东直门,东直门内北小街针线胡同19号,景点,宗教,116.426292,39.944149
南官房胡同39号四合院,北京,北京,北京,010,66572057,地安门,南官房胡同39号,景点,历史建筑,116.390411,39.937096
长陵,北京,北京,北京,010,60761008;60762279,明十三陵,怀长路明十三陵长陵景区,景点,古代遗迹,116.24955,40.30061
辽金城垣博物馆,北京,北京,北京,010,63054992,北京南站/开阳里,右安门外玉林小区甲40号,景点,博物馆,116.358833,39.862724
八奇洞景区,北京,北京,门头沟区,010,60863056;60863057,潭柘寺,潭柘寺镇八奇洞景区,景点,自然风光,116.029793,39.894547
人民英雄纪念碑,北京,北京,北京,010,,天安门广场,天安门广场,景点,革命旧址,116.39769,39.904633
白河堡水库,北京,北京,延庆区,010,60162064,百里画廊,香营乡,景点,现代建筑,116.172952,40.645951
中国国际旅行社,北京,北京,北京,010,66035933;66011122,复兴门,复兴门内大街99号,景点,旅行社,116.358936,39.90803
中国国际旅行社,北京,北京,北京,010,85999369,大望路,光华路与郎家园路交叉口西北方向50米左右,景点,旅行社,116.473419,39.913742
中国国旅,北京,北京,北京,010,64733371,望京,中环南路9号望京大厦A座1层,景点,旅行社,116.470212,39.985932
中国国旅,北京,北京,北京,010,82255712,牡丹园/北太平庄,北太平庄路18号城建大厦B座303室,景点,旅行社,116.3712,39.968644
中国国际旅行社,北京,北京,北京,010,82382290,五道口,花园路街道北四环学院桥东北角处,景点,旅行社,116.348143,39.986334
中国国际旅行社,北京,北京,北京,010,85253171,悠唐生活广场,朝外大街19号华普国际大厦16层东区,景点,旅行社,116.43885,39.924931
中国国际旅行社,北京,北京,北京,010,64174272,东直门,东直门外东中街甲2号,景点,旅行社,116.446171,39.944311
中国国际旅行社,北京,北京,北京,010,65123075,王府井/东单,灯市口大街57号院4,景点,旅行社,116.41304,39.91897
上地公园,北京,北京,北京,010,82785522,上地,信息路上地3街环岛西南角（近上地环岛）,景点,城市公园,116.310349,40.035088
王府井步行街,北京,北京,北京,010,,王府井/东单,东长安街与王府井大街交叉口北500米路东,景点,休闲街区,116.412407,39.913399
朝阳文化馆,北京,北京,北京,010,85993958,建外大街,朝阳门外小庄金台路17号,景点,展览馆,116.470268,39.91695
王府井天主教堂,北京,北京,北京,010,65240634,王府井/东单,王府井大街74号教堂（教堂附属楼）,景点,宗教,116.412086,39.91737
梨园主题公园,北京,北京,北京,010,,梨园,八通线临河里地铁站旁（近加州小镇）,景点,城市公园,116.678238,39.874187
清河燕清体育文化公园,北京,北京,北京,010,62936340,清河,毛纺路26号,景点,城市公园,116.338989,40.034489
德宝温泉会议中心,北京,北京,北京,010,69375447;69375500,良乡,良乡多宝路1号,景点,温泉,116.149666,39.737099
西黄寺博物馆,北京,北京,北京,010,58350902;58334652,德外大街,安贞街道德胜门外黄寺大街11号,景点,博物馆,116.390434,39.964764
圣泉山旅游风景区,北京,北京,怀柔区,010,60637288,红螺寺,桥梓镇口头村（京承高速）,景点,宗教,116.578578,40.369313
灵慧山景区,北京,北京,怀柔区,010,89601286,红螺寺,西甘路甘涧峪村,景点,自然风光,116.582375,40.398983
和平国际旅行社,北京,北京,北京,010,56024063,和平里/国展中心,东土城路13号金孔雀商务大厦二层,景点,旅行社,116.431816,39.950733
花市清真寺,北京,北京,北京,010,67167531,崇文门,西花市大街80号,景点,宗教,116.423561,39.896828
北京穆斯林大厦,北京,北京,北京,010,65126550,王府井/东单,王府井大街241号,景点,现代建筑,116.410767,39.914715
九天普化宫,北京,北京,北京,010,,朝外大街,朝外大街百脑汇后,景点,人文古迹,116.444901,39.92403
国际企业文化园,北京,北京,北京,010,,亦庄,亦庄开发区五环文化园西路6号院,景点,城市公园,116.486336,39.808495
基督教堂海淀堂,北京,北京,北京,010,62562975,中关村,海淀西大街39号（近理想国际大厦）,景点,宗教,116.30761,39.983253
后海,北京,北京,北京,010,64070792,后海/什刹海,什刹海街道鼓楼西大街,景点,自然风光,116.385497,39.942347
安贞社区街心公园,北京,北京,北京,010,,安贞,北三环中路安贞西里小区内,景点,城市公园,116.398758,39.972347
红军公园,北京,北京,北京,010,85383072,朝阳区,大鲁店北路萧太后河公园,景点,公园/广场,116.582211,39.845048
世界地热博览园,北京,北京,北京,010,83318032;83318649,云岗,王佐镇南宫南路1号,景点,植物园,116.152229,39.79463
法海寺森林公园,北京,北京,北京,010,68875776;88715776,模式口,翠微山南麓模式口28号,景点,森林公园,116.160414,39.940572
密云全民体育健身园,北京,北京,密云区,010,69040992,密云鼓楼,滨河路与光明街交叉口西南140米,景点,城市公园,116.837288,40.372044
东交民巷天主堂,北京,北京,北京,010,65135170,崇文门,东交民巷甲13号,景点,宗教,116.412094,39.902924
大通旅游,北京,北京,怀柔区,010,22198888,怀柔区,多家营业网点,景点,旅行社,116.586861,40.632389
宛平城步行街,北京,北京,北京,010,,卢沟桥,城内街与东关南街交口宛平城步行街,景点,步行街,116.230072,39.851955
虹鳟鱼一条沟,北京,北京,怀柔区,010,61728862,神堂峪,雁栖地区,景点,更多景点/周边游,116.600988,40.411898
国家动物博物馆,北京,北京,北京,010,64807975;64806899,亚运村,北辰西路1号院5号（近大屯路中国科学院动物研究所）,景点,博物馆,116.381432,40.00256
荷花市场,北京,北京,北京,010,,后海/什刹海,地安门西大街51号,景点,观光街区,116.391289,39.934963
丫髻山旅游风景区,北京,北京,平谷区,010,61972535;61974009,平谷区,刘家店镇北吉山村,景点,自然风光,116.969203,40.27393
怀柔水库,北京,北京,怀柔区,010,51913789,怀柔区,台关路梅苑花园西侧,景点,现代建筑,116.617256,40.322095
北京人艺戏剧博物馆,北京,北京,北京,010,85120006,王府井/东单,王府井大街22号首都剧场4层,景点,博物馆,116.411835,39.921585
北京节水展馆,北京,北京,北京,010,88159532,航天桥,恩济庄46号C区（近恩济西街）,景点,陈列馆,116.28466,39.929356
报国寺,北京,北京,北京,010,63173169,广内大街,广安门内街道广安门内,景点,宗教,116.359535,39.891216
明北京城城墙遗迹,北京,北京,北京,010,,复兴门,西二环与宣武门西大街交叉口东北角（宣武门西大街-广安门北滨河路）,景点,古代遗迹,116.357285,39.900223
灵境胡同,北京,北京,北京,010,87013388,西单,西单北大街,景点,休闲街区,116.377991,39.914616
观光南瓜园,北京,北京,北京,010,80532226,通州区,于家务回族乡于家务卫生室西2公里,景点,公园/广场,116.686455,39.717651
将府公园,北京,北京,北京,010,64331580;64360177,酒仙桥,东八间房村临甲10号,景点,城市公园,116.512343,39.975539
北京张裕爱斐堡国际酒庄,北京,北京,密云区,010,89092999;89089999,密云区其他,巨各庄镇宁菜路与密三路交汇处东南侧,景点,更多景点/周边游,116.902296,40.375652
草场地艺术区,北京,北京,北京,010,64326910,望京,崔各庄乡草场地（近五元桥）,景点,创意园区,116.50177,39.998753
密云石城旅游服务,北京,北京,密云区,010,,桃源仙谷,卫生院西北门旁,景点,旅行社,116.82222,40.543934
柳沟民俗村,北京,北京,延庆区,010,61192790;159****6385,柳沟,井庄镇柳果路与西北路交叉口,景点,特色乡村,116.097295,40.446717
北小河公园,北京,北京,北京,010,64708518,望京,望京西路师家坟156号,景点,城市公园,116.455231,40.005207
碧海公园,北京,北京,北京,010,,旧宫,庑殿路与宣颐路交叉口西南侧,景点,城市公园,116.438797,39.810417
东小口森林公园,北京,北京,北京,010,,立水桥,天通苑南街道黑泉路与西小口路交叉口东南侧,景点,森林公园,116.394112,40.048733
北京奥林匹克公园,北京,北京,北京,010,84992008,亚运村,奥运村街道北辰东路15号,景点,城市公园,116.392465,40.015175
富莱茵国际旅行社,北京,北京,北京,010,87202842,沙子口,沙子口路76号富莱茵花园12号楼3层,景点,旅行社,116.407451,39.859761
千年古村高碑店,北京,北京,北京,010,87740826;87740205,高碑店,高碑店桥向南200米,景点,古村古镇,116.527939,39.900299
北京励志堂科举匾额博物馆,北京,北京,北京,010,87739693;188****2155,朝阳区,文化新大街1366号,景点,博物馆,116.540752,39.89858
柏林寺,北京,北京,北京,010,64045080,安定门,戏楼胡同1号(雍和宫东侧),景点,宗教,116.419868,39.946285
北京朝来森林公园,北京,北京,北京,010,,望京,新勇路朝来农艺园对面,景点,森林公园,116.454201,40.031303
海洋国旅旅行社,北京,北京,北京,010,86718329,牡丹园/北太平庄,学院南路4号鑫荣泉532室,景点,旅行社,116.368996,39.958256
神舟国际旅行社,北京,北京,北京,010,86660608,劲松/潘家园,松榆北路2号,景点,旅行社,116.462017,39.875624
太申祥和山庄,北京,北京,北京,010,80713806,回龙观,史各庄街道北清路5号,景点,园林,116.285166,40.096008
北京基督教青年会,北京,北京,北京,010,65287743,王府井/东单,东单北大街3号青年会大楼10层,景点,宗教,116.417564,39.914742
尚隐·泉都市生活馆,北京,北京,北京,010,83826666,青塔,双林东路8号,景点,温泉,116.256414,39.877354
北京百年世界老电话博物馆,北京,北京,北京,010,89585816;89585806,通州区,宋庄镇潞邑东路疃里东区庄园G3-108,景点,博物馆,116.701546,39.94622
三影堂摄影艺术中心,北京,北京,北京,010,64322663,金盏,崔各庄乡草场地155号A,景点,美术馆,116.508209,40.001678
科技大学会议中心,北京,北京,北京,010,62315522,五道口,北四环中路251号,景点,景点/周边游,116.363007,39.98769
宁郡王府,北京,北京,北京,010,,王府井/东单,北极阁三条71号（东单地铁站F东北口步行300米）,景点,人文古迹,116.418762,39.910713
广福观,北京,北京,北京,010,,后海/什刹海,鼓楼烟袋斜街37号（近石碑胡同）,景点,宗教,116.394859,39.939388
华清温泉宾馆,北京,北京,北京,010,84826665,天通苑,立水桥甲2号（近天通苑）,景点,温泉,116.417908,40.057858
石景山区石刻文物园,北京,北京,北京,010,88724148,模式口,模式口大街与模南小区路交叉口西40米,景点,陈列馆,116.15789,39.935223
汉石桥湿地公园,北京,北京,北京,010,61411577;61411200,顺义区,汉石桥村木燕路59号,景点,自然风光,116.807968,40.123215
龙潭西湖公园,北京,北京,北京,010,67118324,左安门,龙潭路甲1号,景点,公园/广场,116.431526,39.877304
何扬吴茜现代绘画馆,北京,北京,北京,010,84338157,金盏,金盏乡长店村1128号,景点,展览馆,116.554008,39.998516
同仁堂博物馆,北京,北京,北京,010,67026919,崇文门,东兴隆街52号（新世界1期车库对面）,景点,博物馆,116.416313,39.896141
静福寺,北京,北京,北京,010,,香山/植物园,碧云寺北1公里许木兰陀山麓,景点,宗教,116.190903,40.003635
中国马文化博物馆,北京,北京,延庆区,010,81182120,八达岭,阳光路8号阳光雪山城堡,景点,博物馆,115.946571,40.351551
金星公园,北京,北京,北京,010,,黄村,滨河街,景点,城市公园,116.339317,39.761963
知春公园,北京,北京,北京,010,85874568,双榆树,科学院南路101号-113号,景点,城市公园,116.325882,39.974155
菩萨山风景区,北京,北京,北京,010,,昌平区,流村镇菩萨鹿,景点,自然风光,115.981766,40.101055
后桑峪村天主教堂,北京,北京,门头沟区,010,,门头沟区,斋堂镇后桑峪村,景点,宗教,115.76738,40.005615
北京老爷车博物馆,北京,北京,怀柔区,010,61677039,怀柔电影旅游拍摄基地,杨宋镇凤翔一园19号,景点,博物馆,116.678383,40.299171
长园渔场,北京,北京,怀柔区,010,61627120,神堂峪,雁栖地区,景点,自然风光,116.632607,40.41098
密云时光公园,北京,北京,密云区,010,,密云县县城,公园街（密云二中对面）,景点,城市公园,116.845619,40.38171
金桥旅游公司,北京,北京,北京,010,88813020,魏公村,西三环北路19-1号北京外国语大学宾馆,景点,旅行社,116.308708,39.955888
双泉寺,北京,北京,北京,010,88951890,石景山区,黑陈路168号,景点,宗教,116.159027,39.972851
永定门公园,北京,北京,北京,010,67692146,天坛,天坛街道永定门东滨河路18号,景点,城市公园,116.399048,39.87648
平西情报联络站纪念馆,北京,北京,门头沟区,010,69806535,门头沟区,涧沟村村委会斜对面,景点,纪念馆,116.039112,40.064352
西城城隍庙,北京,北京,北京,010,,复兴门,复兴门金融大街33号,景点,宗教,116.3601,39.910458
中华圣公会教堂旧址,北京,北京,北京,010,,宣武门,佟麟阁路85号（新华社西门对面),景点,古代遗迹,116.368271,39.902164
雾雨飞虹谷景区,北京,北京,密云区,010,,桃源仙谷,琉辛路龙云山风景区内(南侧),景点,自然风光,116.805061,40.564476
北方温泉会议中心,北京,北京,北京,010,61353521;151****2355,良乡,梅花街7号,景点,温泉,116.163887,39.743072
水头民俗旅游村,北京,北京,北京,010,61389096,房山区,大石窝镇水头村,景点,特色乡村,115.766518,39.611256
水峪民俗村,北京,北京,北京,010,61305049,霞云岭国家森林公园,南窖乡水峪村,景点,古村古镇,115.830765,39.761494
西河民俗旅游村,北京,北京,北京,010,61347969,十渡镇,永乐店镇西河村,景点,特色乡村,115.573746,39.637791
御康郊野公园,北京,北京,北京,010,,世界公园,花乡六圈村丰葆路168号,景点,城市公园,116.281761,39.814903
堂上民俗旅游村,北京,北京,北京,010,60368194,房山区,京昆路与堂上煤矿路交叉口东160米,景点,文化村落,115.588028,39.780979
大峪沟民俗旅游村,北京,北京,北京,010,61339981,房山区,张坊镇大峪沟村,景点,民俗文化村,115.739105,39.592445
四马台民俗旅游村,北京,北京,北京,010,60369038,霞云岭国家森林公园,霞云岭乡四马台村,景点,特色乡村,115.63147,39.782303
七渡民俗旅游村,北京,北京,北京,010,61344088,十渡镇,十渡镇七渡村,景点,特色乡村,115.622681,39.642597
五合民俗旅游村,北京,北京,北京,010,61344725,十渡镇,X018,景点,特色乡村,115.624794,39.650692
北京南宫民族温泉养生园,北京,北京,北京,010,83392508;83317817,南宫,王佐镇迎宾路南宫世界地热博览园内,景点,温泉,116.153513,39.792713
民航博物馆,北京,北京,北京,010,84323666,金盏,机场辅路200号,景点,博物馆,116.538051,40.017811
五棵松奥林匹克文化公园,北京,北京,北京,010,,五棵松,万寿路街道西四环中路辅路,景点,文化公园,116.275208,39.912373
东王庄休闲广场,北京,北京,北京,010,,五道口,东王庄小区北侧（近北京林业大学）,景点,广场,116.343407,39.999359
柏峪民俗旅游村,北京,北京,门头沟区,010,69818988,爨底下村,斋堂镇北12公里,景点,民俗文化村,115.611077,40.013567
北京市乡村民俗旅游村韭园村,北京,北京,门头沟区,010,,门头沟区,王平镇韭园村,景点,自然风光,115.991142,39.97084
江水河民俗旅游村,北京,北京,门头沟区,010,,门头沟区,灵山名胜风景区,景点,民俗文化村,115.502777,40.031105
八亩堰民俗旅游村,北京,北京,门头沟区,010,,门头沟区,八亩堰村百花山脚下,景点,民俗文化村,115.560135,39.858143
稻香湖生态园,北京,北京,北京,010,62460391,上庄,稻香湖路与稻香湖北路交叉口东南角,景点,动植物园,116.179506,40.096926
北京工艺懋隆艺术馆,北京,北京,北京,010,65762457,管庄,三间房东路1号（近朝阳路）,景点,美术馆,116.579758,39.919895
仙龙岛乐园,北京,北京,北京,010,,十渡镇,十大路北京十渡风景名胜区,景点,水上乐园,115.55938,39.640862
万丰公园,北京,北京,北京,010,,六里桥/丽泽桥,万丰路莲怡园小区西侧,景点,城市公园,116.292015,39.883228
东风公园,北京,北京,北京,010,,朝阳区,姚家园北二路1号（梵谷水郡东1.1公里）,景点,公园/广场,116.516251,39.956329
太阳宫体育休闲公园,北京,北京,北京,010,,太阳宫,太阳宫中路6号,景点,城市公园,116.449371,39.979977
海棠公园,北京,北京,北京,010,,十八里店,海棠街十八里店乡老君堂村,景点,公园/广场,116.504906,39.835865
北京青年旅行社,北京,北京,北京,010,81117766,西单,西长安街15号民航营业大厦B座241室（近西单文化广场）,景点,旅行社,116.377945,39.908005
定慧寺,北京,北京,北京,010,,五棵松,阜成路66号,景点,宗教,116.278984,39.923519
官园公园,北京,北京,北京,010,62011470,西直门/动物园,后广平胡同36号旁,景点,城市公园,116.360954,39.935604
阳光假期,北京,北京,北京,010,65188959;65189966-168,建国门/北京站,建国门内大街18号恒基中心办公楼3座701-702室（近北京火车站）,景点,旅行社,116.427842,39.906789
中国铁道博物馆,北京,北京,北京,010,67051638,前门/大栅栏,前门大街甲2号,景点,博物馆,116.400414,39.899799
东韵民族艺术博物馆,北京,北京,北京,010,84329101,金盏,孙河乡前苇沟村村北甲1号,景点,博物馆,116.557358,40.025059
崔永平皮影艺术博物馆,北京,北京,北京,010,60502692,马驹桥,马驹桥金桥花园16号楼411-413号,景点,博物馆,116.546379,39.750328
北京教学植物园,北京,北京,北京,010,87550306,左安门,龙潭湖3号,景点,植物园,116.434662,39.874214
石景山科技馆,北京,北京,北京,010,68863652,古城/八角,八角西街40号,景点,科技馆,116.199356,39.913242
东高地青少年科技馆,北京,北京,北京,010,68753706;68384070,南苑/德茂桥,万源西里28栋,景点,科技馆,116.42038,39.802799
中国医学科学院药用植物园,北京,北京,北京,010,62899713,上地,西北旺马连洼北路151号,景点,植物园,116.272583,40.034649
北京金台艺术馆,北京,北京,北京,010,65011074,朝阳公园/团结湖,农展馆南路1号朝阳公园西1门内,景点,博物馆,116.475296,39.935966
山戎文化陈列馆,北京,北京,延庆区,010,69199534,玉渡山风景区,玉皇庙村玉海路,景点,陈列馆,115.89959,40.514893
延庆博物馆,北京,北京,延庆区,010,69143788,延庆城区,妫水北街24号,景点,博物馆,115.977776,40.466976
怀柔博物馆,北京,北京,怀柔区,010,69695699,怀柔城区,府前街9号院12号,景点,博物馆,116.634377,40.31646
中国佛教图书文物馆,北京,北京,北京,010,63533772,牛街,法源寺前街7号,景点,展览馆,116.370346,39.884556
禁毒教育基地教育展览馆,北京,北京,北京,010,87392503,五方桥,黄厂路,景点,科技馆,116.551689,39.858696
北京服装学院民族服饰博物馆,北京,北京,北京,010,64288067,对外经贸,樱花园东街甲2号北京服装学院服装综合楼3层,景点,博物馆,116.429756,39.974068
纳兰性德史迹陈列馆,北京,北京,北京,010,80713599,上庄,上庄乡上庄村翠湖水乡旅游度假区内,景点,陈列馆,116.198105,40.106609
中国印钞造币博物馆,北京,北京,北京,010,88016028,西直门/动物园,西直门外大街甲143号凯旋大厦（近动物园）,景点,博物馆,116.33313,39.939293
北京动物园科普馆,北京,北京,北京,010,68390274,西直门/动物园,西直门外大街137号,景点,展览馆,116.335426,39.942375
黄松峪地质博物馆,北京,北京,平谷区,010,157****4757,平谷区,黑豆峪村京东大溶洞风景区,景点,博物馆,117.258826,40.215499
国家电力展示中心,北京,北京,北京,010,85956391,大望路,建国路75号,景点,展览馆,116.483299,39.90958
朱启钤故居,北京,北京,北京,010,,建国门/北京站,赵堂子胡同3号（近朝阳门南小街）,景点,名人故居,116.429092,39.914639
东升八家郊野公园,北京,北京,北京,010,62997227,清河,双清路5号,景点,城市公园,116.336823,40.019386
北京当代艺术馆,北京,北京,北京,010,69599903,宋庄,庄500号,景点,美术馆,116.728432,39.957352
宋庄美术馆,北京,北京,北京,010,80856950,宋庄,小堡工业区路宋庄小堡艺术园区甲2号,景点,美术馆,116.713669,39.964199
上上美术馆,北京,北京,北京,010,89578568,宋庄,小堡环岛东北角,景点,美术馆,116.718941,39.960251
中国华侨历史博物馆,北京,北京,北京,010,64070943;64093039,北新桥/簋街,东直门北小街与草园胡同交叉口西北角,景点,博物馆,116.42514,39.942932
玛莱特红酒庄园,北京,北京,北京,010,186****0775,大兴区,葡萄观光园1号（采辛路旁）,景点,更多景点/周边游,116.654381,39.667442
第十二中学生态博物馆,北京,北京,北京,010,83666020,六里桥/丽泽桥,益泽路15号,景点,博物馆,116.309128,39.861752
北京大学-校史馆,北京,北京,北京,010,62765931,颐和园,颐和园路5号北京大学内（近畅春园路）,景点,展览馆,116.306061,39.993298
北京中医药大学中医药博物馆,北京,北京,北京,010,64286672;64286835,芍药居,北三环东路11号北京中医药大学逸夫科技馆内,景点,博物馆,116.426674,39.970512
中国人民大学博物馆,北京,北京,北京,010,62515691,双榆树,中关村大街59号中国人民大学人文楼(近当代商城),景点,博物馆,116.313652,39.96999
中国化工博物馆,北京,北京,北京,010,82677217,中关村,北四环西路62号中国化工集团大厦3楼,景点,博物馆,116.308792,39.984379
隆长寺,北京,北京,北京,010,,西四,西四北三条3号（近大红罗厂）,景点,宗教,116.372566,39.927921
清真普寿寺,北京,北京,北京,010,66033896,西四,锦什坊街63号（近金融街）,景点,宗教,116.36232,39.921841
北京佛教居士林,北京,北京,北京,010,66112834,西四,西安门大街129号,景点,人文古迹,116.376381,39.922737
古刹护国关帝庙,北京,北京,北京,010,,西四,砖塔胡同68号（西四地铁站D西南口步行400米）,景点,宗教,116.369598,39.922058
UCCA尤伦斯当代艺术中心,北京,北京,北京,010,57800200,798/大山子,酒仙桥路4号798艺术区内（近大山子桥）,景点,美术馆,116.495201,39.984119
祖大寿祠,北京,北京,北京,010,,阜成门,富国街(旧祖家街)3号,景点,宗教,116.367592,39.931355
减河公园,北京,北京,北京,010,89403358,顺义城区,右堤路绿港家园1区对面,景点,城市公园,116.667252,40.135063
北二环城市公园,北京,北京,北京,010,,雍和宫/地坛,安定门（鼓楼大街地铁站F东北口步行110米）,景点,城市公园,116.404678,39.9487
中国国际科技会展中心,北京,北京,北京,010,,牡丹园/北太平庄,裕民路12号（健德门地铁站D西南口步行330米）,景点,景点/周边游,116.382217,39.973877
庆丰公园,北京,北京,北京,010,67735955;67780738,国贸/建外,东三环中路39号,景点,城市公园,116.463547,39.90316
中国地质大学博物馆,北京,北京,北京,010,82322204,五道口,学院路29号中国地质大学逸夫楼10-12层,景点,博物馆,116.352661,39.990997
新发地海子公园,北京,北京,北京,010,,西红门,新村街道京开高速（海子公园）,景点,城市公园,116.348923,39.816666
中国葡萄博物馆,北京,北京,北京,010,80273611,大兴区,采育镇万亩葡萄观光园东南侧,景点,博物馆,116.650291,39.660419
中央音乐学院查阜西纪念馆,北京,北京,北京,010,66425712,复兴门,鲍家街43号中央音乐学院图书馆楼2楼,景点,纪念馆,116.358246,39.902477
冀热察挺进军司令部旧址陈列馆,北京,北京,门头沟区,010,186****9394,爨底下村,斋堂镇马栏村下109进入斋马路前进6公里,景点,陈列馆,115.694734,39.937268
北京国际鲜花港,北京,北京,北京,010,61417123,顺义区,杨镇鲜花港南路9号,景点,植物园,116.794846,40.182796
中关村步行街,北京,北京,北京,010,51721478,中关村,中关村大街15号（近海淀大街）,景点,步行街,116.314982,39.98017
仙栖洞,北京,北京,北京,010,61336292;61336228,仙栖洞,东关上村（近二渡）,景点,自然风光,115.749168,39.659458
什刹海历史文化展览馆,北京,北京,北京,010,83229842,地安门,地安门外大街烟袋斜街37号广福观(什刹海畔),景点,展览馆,116.394775,39.939198
北京市西城区青少年科学技术馆,北京,北京,北京,010,68044163,月坛,月坛北街3号,景点,陈列馆,116.350296,39.918816
北京门头沟区科技馆,北京,北京,门头沟区,010,69859472;69846866,门头沟城区,新桥大街40号,景点,科技馆,116.102013,39.939713
望京乐园,北京,北京,北京,010,59203849,望京,望京街9号望京国际商业中心B座6层,景点,游乐场,116.484055,39.990192
东坝郊野公园,北京,北京,北京,010,65491802,东坝,康各庄路与管庄路交叉口西南角,景点,城市公园,116.573793,39.950146
亢山广场,北京,北京,北京,010,,昌平镇,府学路25号,景点,广场,116.251968,40.22036
抗战名将纪念馆,北京,北京,北京,010,82599808,香山/植物园,香山北正黄旗18号,景点,纪念馆,116.204788,39.989937
宛平城,北京,北京,北京,010,83891255,卢沟桥,宛平城地区西五环卢沟桥东城北街,景点,历史建筑,116.226082,39.851419
左家庄街心公园,北京,北京,北京,010,,亮马桥/三元桥,左家庄街道广顺南大街北侧（紧邻地铁14号线阜通站）,景点,城市公园,116.446909,39.952
宣仁庙,北京,北京,北京,010,,王府井/东单,东华门街道北池子大街2-4号（近凝和庙）,景点,宗教,116.402985,39.922855
二十四节气公园,北京,北京,北京,010,,天坛,永定门东街,景点,文化公园,116.407616,39.872723
通惠河玉河遗址,北京,北京,北京,010,,地安门,地安门东大街,景点,古代遗迹,116.399986,39.933796
帽儿胡同,北京,北京,北京,010,,地安门,交道口街道,景点,休闲街区,116.396233,39.936794
八大胡同,北京,北京,北京,010,66515956,前门/大栅栏,珠市口西大街与南新华街交叉口东北角,景点,休闲街区,116.38739,39.890999
基督教会朝阳堂,北京,北京,北京,010,64330511,酒仙桥,东四环东风南路60号,景点,宗教,116.491928,39.95335
基督教会珠市口堂,北京,北京,北京,010,63016678,前门/大栅栏,前门大街129号（珠市口路口西南角）,景点,宗教,116.398125,39.890972
永宁天主教堂,北京,北京,延庆区,010,,延庆区其他,阜民街黄甲巷7号(延流路昌赤路),景点,宗教,116.166916,40.523369
丰台堂,北京,北京,北京,010,87500214,草桥/公益西桥,世界花卉大观园西门南侧,景点,宗教,116.347969,39.837406
北京二十二院街艺术区,北京,北京,北京,010,58760101,双井,百子湾路32号苹果社区内（今日美术馆附近）,景点,创意园区,116.470016,39.899723
孚王府,北京,北京,北京,010,,朝阳门,朝阳门内大街路北137号,景点,历史建筑,116.424988,39.925591
百花洞,北京,北京,延庆区,010,69191034,龙庆峡,龙庆峡风景区内（东南角）,景点,自然风光,116.007034,40.547558
神舟国旅,北京,北京,北京,010,67676067,方庄/蒲黄榆,芳古路与南三环东路辅路交叉口西北40米,景点,旅行社,116.43174,39.859211
太和殿,北京,北京,北京,010,85007421,王府井/东单,景山前街4号故宫博物院内,景点,人文古迹,116.39711,39.917091
中和殿,北京,北京,北京,010,,东城区,景山前街4号故宫博物院内,景点,人文古迹,116.397087,39.917824
保和殿,北京,北京,北京,010,85007422,王府井/东单,景山前街4号故宫博物院内,景点,人文古迹,116.396996,39.918438
乾清宫,北京,北京,北京,010,85007422,东城区,景山前街4号故宫博物院,景点,人文古迹,116.396973,39.920055
乾清门,北京,北京,北京,010,,东城区,景山前街4号故宫博物院内,景点,人文古迹,116.396973,39.919254
太和门,北京,北京,北京,010,65132255,王府井/东单,景山前街4号故宫博物院内,景点,人文古迹,116.397202,39.915192
交泰殿,北京,北京,北京,010,85007422,东城区,景山前街4号故宫博物院内（北侧）,景点,人文古迹,116.396912,39.92049
皇极殿,北京,北京,北京,010,85007422,王府井/东单,景山前街4号故宫博物院宁寿宫内,景点,人文古迹,116.40036,39.919949
石马峪民俗村,北京,北京,密云区,010,61021082,密云区其他,沙石路与二石路交叉口东北约160米,景点,民俗文化村,116.905678,40.454159
西大庄科民俗村,北京,北京,延庆区,010,69112002;69113700,延庆区其他,X012,景点,民俗文化村,115.783752,40.521011
上磨民俗村,北京,北京,延庆区,010,136****1815,延庆区其他,延庆永宁镇上磨村,景点,古村古镇,116.107224,40.51265
秀水湾民俗村,北京,北京,延庆区,010,60185882,百里画廊,千家店镇六道河河西秀水湾36号,景点,古村古镇,116.345711,40.693459
东四奥林匹克社区公园,北京,北京,北京,010,,东四,豆瓣胡同2号楼东南侧,景点,城市公园,116.433548,39.928192
罗马湖,北京,北京,北京,010,,后沙峪,后沙峪地区罗各庄村罗东路8号,景点,自然风光,116.518306,40.102511
中青旅遨游网,北京,北京,北京,010,89192089,建外大街,东大桥路8号尚都国际中心底商106号,景点,旅行社,116.451137,39.919697
亚运村升旗广场,北京,北京,北京,010,,亚运村,亚运村北辰东路8号村长楼前,景点,广场,116.403583,39.993391
国际民俗旅游文化村,北京,北京,北京,010,87740525,高碑店,高碑店路1438号,景点,民俗文化村,116.528285,39.899695
世纪京华酒文化博物馆,北京,北京,北京,010,63867643,北大地/万丰路,丰体北路6号,景点,博物馆,116.28038,39.868069
灿艺术中心,北京,北京,北京,010,59789760;186****6120,798/大山子,酒仙桥路4号798艺术区B区11号高台阶厂库,景点,美术馆,116.496521,39.985683
隆安寺,北京,北京,北京,010,67103852,广渠门内,广渠门内白桥南里1号,景点,宗教,116.440277,39.895439
淳亲王府,北京,北京,北京,010,,东四,正义路5号院,景点,历史建筑,116.416382,39.928555
禄米仓,北京,北京,北京,010,,朝阳门,朝内南小街,景点,历史建筑,116.430641,39.917698
单车公园,北京,北京,北京,010,81746048,回龙观,回龙观体育公园内,景点,城市公园,116.341805,40.078781
西贯市清真寺,北京,北京,北京,010,69768987;69760863,昌平区,西贯市村后街28号,景点,宗教,116.146187,40.136402
风水坡森林公园,北京,北京,北京,010,87757531,蟒山国家森林公园,崔村镇西峪村北风水坡,景点,森林公园,116.328491,40.260372
森鑫森林公园,北京,北京,北京,010,89481740,南彩镇,潮白河畔,景点,森林公园,116.739494,40.085766
月明涧溶洞公园,北京,北京,北京,010,,顺义区,龙湾屯镇唐洞村东,景点,自然风光,116.897355,40.22135
北京东区艺术中心,北京,北京,北京,010,69598811,宋庄,朱庄水墨同盟画廊旁,景点,美术馆,116.719261,39.964878
仙台旅游区,北京,北京,门头沟区,010,68872492,门头沟区,以南2公里,景点,景点/周边游,115.900574,40.031532
双林寺,北京,北京,门头沟区,010,61340841,爨底下村,X012与上清水北大街交叉口正西方向252米,景点,宗教,115.612366,39.951488
灵溪风景区,北京,北京,门头沟区,010,19910707626,门头沟区,妙峰山镇岭角村,景点,自然风光,115.975433,40.01778
百花谷自然景区,北京,北京,门头沟区,010,61826088,门头沟区,（百花山国家级自然保护区）,景点,自然风光,115.559792,39.85601
东山梨花园,北京,北京,门头沟区,010,60812631,门头沟区,军庄镇东山村东山大后街9号,景点,自然风光,116.14002,40.01135
姚广孝墓塔,北京,北京,北京,010,60761334,房山区,青龙湖镇常乐寺村（张宸华小区西北480米处）,景点,古代遗迹,116.086014,39.825188
龙虎沟瀑布峰风景区,北京,北京,北京,010,61340339;61622944,十渡镇,近郊十渡,景点,自然风光,115.602867,39.67577
没有共产党就没有新中国纪念馆,北京,北京,北京,010,60368258;60368286,房山区,霞云岭堂上村,景点,纪念馆,115.584648,39.780807
夏都公园,北京,北京,延庆区,010,69144238,延庆城区,湖北西路2号,景点,城市公园,115.974373,40.453564
华冠天一博物馆,北京,北京,平谷区,010,88512699,平谷城区,府前西街34号,景点,博物馆,117.102899,40.140234
杨令公祠,北京,北京,密云区,010,,古北口,当铺后东街,景点,宗教,117.166381,40.687798
黄峪口风景区,北京,北京,密云区,010,,密云区其他,西石路与西黄路交叉口西180米,景点,自然风光,116.8302,40.610157
卧虎山长城景区,北京,北京,密云区,010,81051177,古北口,古北口镇河西村,景点,自然风光,117.158958,40.68985
密云白河石滩漂风景区,北京,北京,密云区,010,69015028,密云区其他,密关路与立新村路交叉口西侧,景点,自然风光,116.832436,40.44112
万科公园,北京,北京,北京,010,65865555,朝阳公园/团结湖,甜水西园甜水园街,景点,城市公园,116.477219,39.925529
黄村街心公园,北京,北京,北京,010,69250487,黄村,黄村兴丰大街三段197号,景点,城市公园,116.338627,39.729066
普法公园,北京,北京,怀柔区,010,69646747,商业街,迎宾中路15号,景点,城市公园,116.637115,40.314526
圆金梦黄金主题公园,北京,北京,怀柔区,010,61617090,怀柔区,杨树底下村,景点,城市公园,116.520699,40.541419
国际交流中心,北京,北京,北京,010,68323000,阜成门,展览馆路24号,景点,展览馆,116.346222,39.926983
平谷人民公园,北京,北京,平谷区,010,69961679,平谷城区,平谷府前西街5号,景点,城市公园,117.107689,40.141171
天元公园,北京,北京,北京,010,,青塔,青塔西路（近巴厘岛）,景点,公园/广场,116.261101,39.875927
通州运河公园,北京,北京,北京,010,80855502;80855509,武夷花园,通胡大街70号,景点,城市公园,116.69173,39.906223
龙熙温泉水世界,北京,北京,北京,010,89282222-8605,庞各庄,庞各庄镇顺景路8号,景点,温泉,116.30216,39.62452
中国妇女儿童博物馆,北京,北京,北京,010,65269678,建国门/北京站,北极阁路9号,景点,博物馆,116.423553,39.910465
朝阳公园亚布洛尼滑雪场,北京,北京,北京,010,65076591;189****8653,朝阳公园/团结湖,农展南路1号,景点,滑雪场,116.482605,39.944225
万寿兴隆寺,北京,北京,北京,010,,西四,北长街39号,景点,宗教,116.390793,39.920277
延庆水泉沟西水峪景区,北京,北京,延庆区,010,,百里画廊,大庄科乡东南部水泉沟村,景点,自然风光,116.371918,40.753975
国家会议中心,北京,北京,北京,010,84373300,亚运村,天辰东路7号,景点,地标建筑,116.38945,40.002914
王府国际旅行社,北京,北京,北京,010,85865564,大望路,东四环八里庄西里1号慈云寺远洋天地69号楼304室,景点,旅行社,116.494611,39.912849
神舟国旅,北京,北京,北京,010,51280116,朝阳公园/团结湖,东三环北路17号新时代证券大厦1层,景点,旅行社,116.456383,39.924442
德胜公园,北京,北京,北京,010,84032422,德外大街,旧鼓楼大街,景点,城市公园,116.382355,39.948473
中国民间国际旅游公司,北京,北京,北京,010,,亮马桥/三元桥,霄云路21号嘉里大通中心5层,景点,旅行社,116.465174,39.959964
鸦儿胡同,北京,北京,北京,010,,后海/什刹海,鼓楼西大街与鸦儿胡同交叉口西40米,景点,历史建筑,116.392059,39.941113
关岳庙,北京,北京,北京,010,64050887,后海/什刹海,鼓楼西大街149号,景点,宗教,116.38575,39.946861
通信电信博物馆,北京,北京,北京,010,64041099,宣武门,骡马市大街9号中国联通北京分公司总部大楼,景点,博物馆,116.379402,39.890076
醇亲王府,北京,北京,北京,010,64035858,后海/什刹海,后海北沿44号,景点,历史建筑,116.384605,39.944981
拈花寺,北京,北京,北京,010,,后海/什刹海,大石桥胡同61号,景点,宗教,116.387009,39.94733
西海,北京,北京,北京,010,82565555;80882290,后海/什刹海,德胜门西顺城街与德胜门桥交叉口南80米,景点,自然风光,116.377571,39.947582
和园景逸大酒店朗月温泉,北京,北京,北京,010,69457777,顺义区,边河路57号院2区,景点,温泉,116.486399,40.085529
全国农业展览馆,北京,北京,北京,010,59198331,亮马桥/三元桥,东三环北路16号,景点,展览馆,116.465126,39.940552
北京青年旅行社,北京,北京,北京,010,57134545,西直门/动物园,西直门外德宝新园华侨酒店418室,景点,旅行社,116.349084,39.941394
新华社礼堂,北京,北京,北京,010,,宣武门,佟麟阁路62号院,景点,现代建筑,116.369873,39.90205
未名湖,北京,北京,北京,010,62754070,颐和园,颐和园路5号北京大学,景点,自然风光,116.310654,39.994823
博雅塔,北京,北京,北京,010,,颐和园,颐和园路5号,景点,历史建筑,116.311844,39.993961
温榆河白各庄湖生态湿地,北京,北京,北京,010,,沙河,沙河水库东,景点,自然风光,116.355598,40.124886
黄瓦财神庙,北京,北京,北京,010,,地安门,鼓楼东大街117号,景点,宗教,116.403206,39.940994
中商国际旅行社,北京,北京,北京,010,84516266;84511688,亮马桥/三元桥,东三环北路1号中国旅贸大厦405室,景点,旅行社,116.459267,39.953762
中国旅行社总社,北京,北京,北京,010,65593822;65593825,崇文门,东华门街道崇文门西大街3-3号,景点,旅行社,116.41546,39.901627
中青旅遨游网,北京,北京,北京,010,89192080,崇文门,新怡家园5号楼1层5单元商业10号,景点,旅行社,116.414398,39.899181
枫华旅游,北京,北京,北京,010,65911415,国贸/建外,建国门外大街3号京伦饭店6层,景点,旅行社,116.453629,39.90892
兴海公园,北京,北京,北京,010,,西红门,宏福路兴海家园星苑斜对面,景点,公园/广场,116.333633,39.789303
华丰国际旅行社,北京,北京,北京,010,83548651,牛街,广安门内大街202号A座228,景点,旅行社,116.363068,39.88866
老北京动态民俗文化城,北京,北京,北京,010,,前门/大栅栏,大栅栏步行街7号,景点,更多景点/周边游,116.396988,39.896053
一得阁,北京,北京,北京,010,63032145,前门/大栅栏,南新华街25号(和平门地铁站D2西南口步行440米),景点,美术馆,116.384125,39.895958
勑建火神庙,北京,北京,北京,010,,阜成门,琉璃厂东街29号,景点,宗教,116.354256,39.922005
天通艺园,北京,北京,北京,010,84821199,天通苑,天通苑东一区11号楼对面大花园入口处,景点,城市公园,116.434593,40.070705
中国旅行社,北京,北京,北京,010,62717405;62717409,清河,育新花园西路与育新南路交叉口东南220米,景点,旅行社,116.344929,40.053899
凯撒旅游,北京,北京,北京,010,64405588,安贞,北三环东路28号易亨大厦7层709室,景点,旅行社,116.416075,39.968685
灵照寺,北京,北京,延庆区,010,69180339,延庆城区,湖北西路5号,景点,宗教,115.972527,40.456402
南马场水库,北京,北京,北京,010,,石景山区,黑石头村南马场,景点,现代建筑,116.17392,39.977032
五道营胡同,北京,北京,北京,010,,安定门,安定门街道五道营胡同67号西门,景点,步行街,116.40927,39.9484
平北红色第一村,北京,北京,延庆区,010,60189251,延庆区其他,沙塘沟村（近昌平碓臼峪）,景点,纪念馆,116.166854,40.41016
龙仙宫,北京,北京,北京,010,61336955,房山区,张坊镇东关村龙泉寺沟（近仙栖洞）,景点,自然风光,115.736366,39.66943
玉蜓公园,北京,北京,北京,010,67692146,天坛,永定门东滨河路17号,景点,公园/广场,116.418167,39.872631
马致远故居,北京,北京,门头沟区,010,,门头沟区,西落坡村内,景点,名人故居,116.032532,39.959946
平谷世纪广场,北京,北京,平谷区,010,,平谷城区,新平北路（近林荫北街）,景点,广场,117.107618,40.143771
平谷峨眉山,北京,北京,平谷区,010,,平谷区,南独乐河镇峨眉山村,景点,自然风光,117.197227,40.220425
京西古道风景区,北京,北京,门头沟区,010,61880498,妙峰山,妙峰山镇水峪嘴村,景点,古道,116.049703,39.966163
圣泉山观音寺,北京,北京,怀柔区,010,60637288,红螺寺,桥梓镇口头村圣泉山景区内,景点,宗教,116.581759,40.365464
马铃薯博物馆,北京,北京,延庆区,010,60159988,延庆区其他,延农路希森马铃薯产业集团1楼,景点,博物馆,115.913824,40.451954
华晟恒旅游,北京,北京,北京,010,,月坛,三里河东路1-1号,景点,旅行社,116.344553,39.917263
涌溪公园,北京,北京,北京,010,,安贞,安定路32号,景点,城市公园,116.406738,39.970146
中国国旅,北京,北京,北京,010,88083871,航天桥,三里河路13号中国建筑文化中心1层,景点,旅行社,116.333305,39.928945
春秋旅行社,北京,北京,北京,010,65170418,朝阳门,朝内大街188号a座（鸿安国际商务大厦）,景点,旅行社,116.424309,39.923729
树村郊野公园,北京,北京,北京,010,,上地,上地街道树村路农大南路交汇处东,景点,城市公园,116.302643,40.027874
明珠生态休闲公园,北京,北京,密云区,010,,密云区其他,京密路十里堡河槽镇(明珠花园小区对面),景点,公园/广场,116.79097,40.354034
海洋国旅旅行社,北京,北京,北京,010,51660337,亮马桥/三元桥,东三环北路甲2号京信大厦主楼5楼三区535室（近三元东桥）,景点,旅行社,116.461647,39.954521
中国国际贸易中心展厅,北京,北京,北京,010,65052288,国贸/建外,建国门外大街1号,景点,展览馆,116.45929,39.910103
千佛崖风景区,北京,北京,平谷区,010,,天云山,黄土梁国家森林公园千佛崖景区,景点,自然风光,117.258301,40.30965
看丹公园,北京,北京,北京,010,,看丹桥/新华街,看丹南路路南,景点,公园/广场,116.267982,39.831371
常营清真古寺,北京,北京,北京,010,65755914,管庄,朝阳北路与民族家园东路交叉路口西北侧,景点,宗教,116.587097,39.925587
谭鑫培故居,北京,北京,北京,010,,虎坊桥,前门外樱桃斜街4473号,景点,名人故居,116.388557,39.893024
畅春园公园,北京,北京,北京,010,,颐和园,颐和园路,景点,城市公园,116.293381,39.997276
曹勇国际艺术馆,北京,北京,北京,010,,酒仙桥,酒仙桥路2号798艺术797路B02号,景点,美术馆,116.49395,39.98637
北京台湾街,北京,北京,北京,010,68656688,鲁谷,石景山路2号（国际雕塑公园西南侧远洋山水对面）,景点,休闲街区,116.236389,39.904331
沙河水库,北京,北京,北京,010,,沙河,北京新亚研修学院附近,景点,现代建筑,116.329552,40.131275
黄草湾郊野公园,北京,北京,北京,010,,大屯,大屯街道北五环路（近姜庄湖高尔夫俱乐部）,景点,城市公园,116.435242,40.005802
视觉经典美术馆,北京,北京,北京,010,65280057,王府井/东单,东单北大街北极阁三条32号,景点,美术馆,116.419678,39.910351
时尚体育公园,北京,北京,北京,010,89232289,大兴区,半壁店森林公园东星明湖度假村内,景点,公园/广场,116.438477,39.613384
花市社区博物馆,北京,北京,北京,010,67166227,崇文门,大街花市枣苑8-9号楼地下,景点,博物馆,116.429359,39.89584
北京凤凰岭美术馆,北京,北京,北京,010,62405836;186****1252,云岗,海淀区翠湖云中心,景点,美术馆,116.195908,39.872437
北京青年旅行社,北京,北京,北京,010,63987730;4006556968,公主坟/万寿路,羊坊店街道羊坊店路11号中东大厦南楼304号（近军事博物馆）,景点,旅行社,116.320744,39.903224
抱璞斋,北京,北京,北京,010,,宣武门,南新华街琉璃厂文化街(和平门地铁站C1东南口步行490米),景点,美术馆,116.384315,39.895679
白乙化烈士纪念馆,北京,北京,密云区,010,61025708,桃源仙谷,琉辛路与河北路交叉东行100米,景点,纪念馆,116.826996,40.565166
槐新公园,北京,北京,北京,010,,草桥/公益西桥,南四环中路142号,景点,城市公园,116.362152,39.825634
美术馆街心公园,北京,北京,北京,010,64011816,东四,美术馆东街,景点,城市公园,116.410896,39.925842
钓鱼台国际旅行社,北京,北京,北京,010,64465840,左家庄,西坝河南路3号C座,景点,旅行社,116.43409,39.958996
妫水公园,北京,北京,延庆区,010,,延庆区其他,东外小区,景点,城市公园,115.96096,40.456078
沙厂水库,北京,北京,密云区,010,,密云区其他,京承高速穆家寨出口附近近羊山桥,景点,现代建筑,117.037777,40.394687
旺兴湖郊野公园,北京,北京,北京,010,,旧宫,绿化隔离区内（近庑殿路）,景点,城市公园,116.436096,39.814407
盘龙瀑风景区,北京,北京,平谷区,010,60928604;84924248,盘山风景名胜区,南山村,景点,自然风光,117.276268,40.128929
云瀑沟风景区,北京,北京,延庆区,010,159****6098,延庆区其他,旧县镇香龙路三里庄村,景点,自然风光,116.039013,40.587158
永宁古城,北京,北京,延庆区,010,60189799;133****0022,延庆区其他,昌赤路,景点,历史建筑,116.165466,40.526501
北京紫砂艺术馆,北京,北京,北京,010,63106239,宣武门,琉璃厂西街,景点,美术馆,116.37925,39.895065
福地广场,北京,北京,北京,010,,广内大街,菜市口大街1号,景点,公园/广场,116.373611,39.887337
东城毛泽东故居,北京,北京,北京,010,,地安门,景山吉安所左巷8号,景点,名人故居,116.400665,39.92926
上水湾自然风景区,北京,北京,密云区,010,81060280,密云区其他,西火路,景点,自然风光,116.89632,40.63794
回龙园,北京,北京,北京,010,81717050,回龙观,龙禧三街与育知路交叉口西北角,景点,城市公园,116.324913,40.082851
旺泉峪长城,北京,北京,怀柔区,010,,渤海镇/慕田峪长城,怀柔响水湖,景点,历史建筑,116.454312,40.452563
河防口长城,北京,北京,怀柔区,010,,怀北滑雪场,怀北镇河防口村（青龙峡）,景点,历史建筑,116.67498,40.433334
巴旅天翔旅行社,北京,北京,北京,010,52980136,六里桥/丽泽桥,莲花池西里29号公交调度中心906室,景点,旅行社,116.305037,39.890477
孚郡王墓,北京,北京,北京,010,,海淀区,北,景点,古代遗迹,116.114695,40.075295
西单美食街,北京,北京,北京,010,,西单,西单北大街109号西单婚庆大楼2楼（西单商场对面）,景点,休闲街区,116.37326,39.914101
黄松峪水库,北京,北京,平谷区,010,,石林峡,黄松峪乡胡关路黄松峪水库,景点,现代建筑,117.250771,40.247849
宣武区青少年科技馆,北京,北京,北京,010,63174940,宣武门,宣武门外大街137号,景点,科技馆,116.372818,39.897312
映画廊,北京,北京,北京,010,59789029,798/大山子,酒仙桥路4号北京798艺术区七星中街,景点,展览馆,116.496452,39.982174
椒园寺遗址,北京,北京,门头沟区,010,,门头沟区,龙泉地区,景点,宗教,116.076269,39.974959
牛口峪水库,北京,北京,北京,010,,城关街道,西环路与房山大街交叉口西400米,景点,现代建筑,115.964859,39.7019
松榆里公园,北京,北京,北京,010,,劲松/潘家园,松榆里33号,景点,公园/广场,116.470146,39.874702
镇海寺郊野公园,北京,北京,北京,010,,十八里店,小红门红坊路,景点,城市公园,116.487053,39.82877
国防艺术区,北京,北京,北京,010,89579319,宋庄,徐宋路与小堡北街交叉口北40米,景点,休闲街区,116.723671,39.951771
凯撒旅游,北京,北京,北京,010,56496576,百子湾,西大望路甲22号合生汇写字楼四层（近世贸天阶东门）,景点,旅行社,116.4814,39.893639
海洋国际旅行社,北京,北京,北京,010,68227318,公主坟/万寿路,复兴路乙20号汇通商务楼44号楼625室,景点,旅行社,116.299534,39.906739
中国科学国际旅行社,北京,北京,北京,010,153****9735,中关村,中关村南三街15号中国科学院内,景点,旅行社,116.327248,39.979911
万泉文化公园,北京,北京,北京,010,,苏州桥,中直东路（近万泉河路）,景点,文化公园,116.301346,39.991497
台湾会馆,北京,北京,北京,010,,前门/大栅栏,前门东大街大江胡同114号,景点,历史建筑,116.400558,39.894604
西湖园,北京,北京,北京,010,,首都机场,二纬路与一经路交叉口西北角,景点,城市公园,116.607964,40.04882
北京鹿世界主题园,北京,北京,怀柔区,010,60684757;135****5946,怀柔电影旅游拍摄基地,安乐庄312号,景点,动物园,116.701949,40.294848
海淀清真古寺,北京,北京,北京,010,62558296,苏州桥,苏州街19号（苏州街地铁站A西北口步行440米）,景点,宗教,116.305481,39.978794
古城草堂,北京,北京,怀柔区,010,61611046,渤海镇/慕田峪长城,雁栖镇西栅子村南吉利,景点,历史建筑,116.534431,40.46846
草场地美术馆,北京,北京,北京,010,64325598,798/大山子,机场辅路草场地美术馆b区46号（近798艺术区）,景点,美术馆,116.503349,40.000275
安定门京城老物件陈列室,北京,北京,北京,010,,地安门,铃铛胡同甲4号,景点,陈列馆,116.394844,39.942371
转山子水库,北京,北京,密云区,010,,密云区其他,水库北岸不老屯镇转山子村,景点,现代建筑,116.922903,40.586653
关渡河,北京,北京,怀柔区,010,,红螺寺,方向山路旁河滩,景点,景点/周边游,116.564105,40.362936
美国使馆旧址,北京,北京,北京,010,,前门/大栅栏,东华门街道前门东大街23号,景点,历史建筑,116.401421,39.90081
北京青年旅行社,北京,北京,北京,010,57227822;186****8810,六里桥/丽泽桥,丰台北路甲45号鼎恒中心商务楼,景点,旅行社,116.300377,39.867039
南海子公园,北京,北京,北京,010,52386316;150****2905,大兴区,瀛海镇黄亦路16号,景点,城市公园,116.463761,39.777974
北京青年旅行社,北京,北京,北京,010,188****1206,双井,广渠门外大街8号A座1804室,景点,旅行社,116.458572,39.892921
大运河森林公园,北京,北京,北京,010,61569200,通州区,通怀路大运河森林公园,景点,森林公园,116.747147,39.870612
安外清真寺,北京,北京,北京,010,84128869,安定门,安定门外大街青年湖南里上龙西里24号楼,景点,宗教,116.405785,39.953476
崇效寺,北京,北京,北京,010,63541481,广内大街,白纸坊西街枣林西里,景点,宗教,116.356964,39.882118
马甸清真寺,北京,北京,北京,010,,牡丹园/北太平庄,马甸南村7号,景点,宗教,116.378609,39.969196
汉路县城遗址,北京,北京,北京,010,,宋庄,潞源北街与景行路交叉口西南角,景点,古代遗迹,116.725616,39.913708
北京青年旅行社,北京,北京,北京,010,84848084,天通苑,立汤路186号龙德紫金公寓3-418（近龙德广场）,景点,旅行社,116.414428,40.061943
白浮泉公园,北京,北京,北京,010,,昌平镇,白浮泉路与南丰路交汇处,景点,城市公园,116.268837,40.212231
京城槐园,北京,北京,北京,010,,东坝,姚家园路石油加油站对面,景点,城市公园,116.571297,39.942875
京城梨园,北京,北京,北京,010,85574859,朝阳区,平房地区姚家园路与东五环路交汇处东南角,景点,城市公园,116.550808,39.933832
博大公园,北京,北京,北京,010,,亦庄,天华南街,景点,城市公园,116.503296,39.796375
北京西山国家森林公园,北京,北京,北京,010,62720251;62720252,香山/植物园,闵庄路与香山南路交叉口西100米,景点,森林公园,116.192901,39.974997
众信旅游,北京,北京,北京,010,65505598,大望路,东四环中路58号远洋国际中心a座108号,景点,旅行社,116.49128,39.914627
众信旅游,北京,北京,北京,010,66033678;66033698,西单,宣武门内大街宣武门商务酒店北侧约160米,景点,旅行社,116.374788,39.900705
众信旅游,北京,北京,北京,010,59203838,望京,阜荣街8号院1号楼1层A座01A,景点,旅行社,116.48191,39.988884
众信旅游,北京,北京,北京,010,64400877,安定门,安定门外大街183-10号京宝花园一层,景点,旅行社,116.407677,39.952663
飞扬旅行社,北京,北京,北京,010,82387319,五道口,学院路六所大厦5层,景点,旅行社,116.352231,40.001371
静之湖石涌泉汤泉中心,北京,北京,北京,010,61709988,昌平区,兴寿镇桃峪口村桃下路静之湖度假酒店内,景点,温泉,116.440964,40.241718
北京青年旅行社,北京,北京,北京,010,57296736,广渠门内,国瑞北路20号,景点,旅行社,116.425316,39.898891
江水泉公园,北京,北京,延庆区,010,69185370,延庆城区,广兴街人民检察院北,景点,城市公园,115.977783,40.483253
段祺瑞宅,北京,北京,北京,010,,朝阳门,仓南胡同5号,景点,历史建筑,116.430283,39.928383
洪承畴宅,北京,北京,北京,010,68003887,地安门,地安门东大街南锣鼓巷59号,景点,历史建筑,116.402809,39.938251
荣禄故居,北京,北京,北京,010,,地安门,交道口菊儿胡同3号,景点,名人故居,116.407639,39.939346
嵩祝寺及智珠寺,北京,北京,北京,010,,东四,景山后街嵩祝院北巷23号,景点,宗教,116.403999,39.928387
大公主府,北京,北京,密云区,010,,密云县县城,美术馆后街23号,景点,历史建筑,116.839584,40.380795
正源清真寺,北京,北京,北京,010,66251966,新街口,冠英园西区40号,景点,宗教,116.365997,39.937061
端郡王府,北京,北京,北京,010,,阜成门,平安里西大街43号,景点,历史建筑,116.36145,39.933865
棍贝子府,北京,北京,北京,010,,新街口,新街口东街31号积水潭医院内,景点,历史建筑,116.375862,39.943863
南岗子天主教堂,北京,北京,北京,010,67143341,广渠门内,永生巷6号,景点,宗教,116.427727,39.88924
利马窦墓,北京,北京,北京,010,,阜成门,车公庄大街6号北京行政学院校园内,景点,古代遗迹,116.34771,39.93055
星光影视园,北京,北京,北京,010,60295656,西红门,北兴路东段2号,景点,影视基地,116.361415,39.773271
北京科学中心,北京,北京,北京,010,83059999,牡丹园/北太平庄,北辰路9号院,景点,科技馆,116.392632,39.970196
立水桥公园,北京,北京,北京,010,,立水桥,安立路（近明天第一城）,景点,城市公园,116.40979,40.051392
青龙山旅游区,北京,北京,平谷区,010,69909090,平谷区,大旺务村东688号,景点,自然风光,117.149486,40.079371
密云吉祥寺,北京,北京,密云区,010,81090100,密云区其他,不老屯镇吉祥寺路边庄子村（近不老湖风景区）,景点,宗教,116.967262,40.606071
番字石刻,北京,北京,密云区,010,,密云区其他,西火路番字牌小学东侧约110米,景点,古代遗迹,116.891258,40.739674
神农峪风景区,北京,北京,密云区,010,,密云区其他,穆家峪镇峪村闸,景点,自然风光,117.035255,40.438465
福佑寺,北京,北京,北京,010,,东城区,北长街20号,景点,宗教,116.391441,39.920055
欧美同学会会址,北京,北京,北京,010,65257647,王府井/东单,东华门街道南河沿大街111号,景点,人文古迹,116.406529,39.90911
胜泉亲水湾旅游景区,北京,北京,平谷区,010,61948649,平谷区,华西路与泉水浴北路交叉口东南方向423米,景点,自然风光,117.100555,40.297546
轩辕庙遗址,北京,北京,平谷区,010,,平谷区,山东庄镇轩辕路2号,景点,古代遗迹,117.159613,40.193694
牛栏山清真寺,北京,北京,北京,010,,马坡牛栏山镇,昌金路牛栏山东口公交站,景点,宗教,116.658798,40.2127
回民营清真寺,北京,北京,北京,010,,后沙峪,裕安路后沙峪安路,景点,宗教,116.54274,40.118389
侯宝林故居,北京,北京,北京,010,,东四,东四头条19号,景点,名人故居,116.419052,39.925117
宝应寺,北京,北京,北京,010,,广内大街,广安门登莱胡同29号,景点,宗教,116.354774,39.888149
三圣庵,北京,北京,北京,010,,虎坊桥,陶然亭北里黑窑厂街14号,景点,宗教,116.382164,39.881859
圣安寺,北京,北京,北京,010,,牛街,宣武门外南横街西口,景点,宗教,116.365158,39.883587
白水寺森林公园,北京,北京,北京,010,,燕山,燕山中路西北侧（近燕山火车站）,景点,森林公园,115.950699,39.749737
京剧艺术博物馆,北京,北京,北京,010,,阜成门,平安里西大街22号国家京剧院,景点,博物馆,116.365479,39.931957
中国消防博物馆,北京,北京,北京,010,87899935,大红门,马家堡东路187号,景点,博物馆,116.387444,39.83453
轩辕黄帝陵,北京,北京,平谷区,010,,平谷区,北山路与桥山路交叉口北460米,景点,古代遗迹,117.158096,40.193398
清河宝盛里植物园,北京,北京,北京,010,,清河,永泰庄北路（近西贝九十九毡房）,景点,植物园,116.366425,40.039639
龙潭湖冰雪嘉年华,北京,北京,北京,010,67115570,左安门,龙潭路8号龙潭湖公园北门内,景点,主题乐园,116.440738,39.880858
荣宝美术馆,北京,北京,北京,010,63036802;63035279,宣武门,琉璃厂西街19号荣宝斋大厦,景点,美术馆,116.383125,39.895721
安乐林小区,北京,北京,北京,010,,天坛,安乐林头条2号,景点,公园/广场,116.406876,39.863602
白塔寺,北京,北京,北京,010,66166099,阜成门,西四宫门口东岔,景点,宗教,116.362785,39.924896
柏林寺西,北京,北京,北京,010,,安定门,环二环绿道,景点,宗教,116.423706,39.950363
北京市长青生命纪念园,北京,北京,北京,010,85383888,次渠,黑庄户乡大鲁店,景点,纪念公园,116.590849,39.826569
景山四合院,北京,北京,北京,010,85208989,东四,富强胡同23号,景点,人文古迹,116.409027,39.919968
琉璃渠,北京,北京,门头沟区,010,,门头沟区,龙泉镇琉璃渠后街155号,景点,古村古镇,116.086876,39.971455
天宁寺,北京,北京,北京,010,63432507,复兴门,天宁寺前街甲3号（西二环与天宁寺前街交口西100米路北）,景点,宗教,116.345963,39.894699
洋桥温泉居,北京,北京,北京,010,,洋桥/木樨园,洋桥南500米西丽华饭店后,景点,温泉,116.386635,39.852448
七棵树自由风艺术区,北京,北京,北京,010,64189488,东坝,东坝地区东坝半截塔55号,景点,创意园区,116.519585,39.966525
长春健身园,北京,北京,北京,010,,苏州桥,泉宗北路与万柳西路交叉口西50米,景点,公园/广场,116.292336,39.96479
狼各庄清真寺,北京,北京,北京,010,,庞各庄,星顺路北京市大兴区(黄村一幼狼各庄分园)西侧约230米,景点,宗教,116.349159,39.671951
故宫九龙壁,北京,北京,北京,010,65132255;85007421,东城区,景山前街4号故宫博物院宁寿宫内,景点,人文古迹,116.400444,39.918488
易游天下国际旅行社,北京,北京,北京,010,,总部基地,航丰路1号时代财富天地1楼科丰桥,景点,旅行社,116.287757,39.831737
北京汽车博物馆,北京,北京,北京,010,63756666,看丹桥/新华街,看丹街道南四环西路126号,景点,博物馆,116.301666,39.828907
佳途行国际旅行社,北京,北京,北京,010,,大望路,八里庄西里1号远洋天地68号楼101室,景点,旅行社,116.492799,39.912419
如心会议中心,北京,北京,北京,010,82316185,牡丹园/北太平庄,学院路37号,景点,景点/周边游,116.349388,39.981758
密虹公园,北京,北京,密云区,010,,密云果园,新西路75号,景点,城市公园,116.83606,40.375992
圣尼古拉教堂,北京,北京,北京,010,,东直门,东直门北大街东侧,景点,宗教,116.434639,39.945427
地铁文化公园,北京,北京,北京,010,,西红门,西红门规划南环路（近地铁四号线西红门站）,景点,文化公园,116.326203,39.781718
798艺术区,北京,北京,北京,010,59789114,酒仙桥,酒仙桥街道酒仙桥路2号,景点,创意园区,116.495514,39.984932
百花深处胡同,北京,北京,北京,010,,新街口,新街口南大街（近护国寺街）,景点,步行街,116.37429,39.93784
钟楼湾胡同,北京,北京,北京,010,,地安门,西北部鼓楼北侧,景点,休闲街区,116.396431,39.9426
府学胡同,北京,北京,北京,010,,东四,府学胡同和敬府宾馆东北侧约80米,景点,历史建筑,116.412804,39.935661
礼士胡同,北京,北京,北京,010,,朝阳门,礼士胡同72,景点,休闲街区,116.417763,39.92168
北京青年旅行社,北京,北京,北京,010,51660323,朝外大街,朝外大街19号,景点,旅行社,116.43895,39.924931
文津街,北京,北京,北京,010,84676415,西四,府右街,景点,步行街,116.386287,39.922532
军事外交陈列馆,北京,北京,北京,010,,德外大街,德胜门外大街6号院2号楼,景点,纪念馆,116.38121,39.966076
中外首工美术馆,北京,北京,北京,010,84017922,王府井/东单,北河沿大街83号1楼,景点,美术馆,116.405899,39.926762
北京基督教会宽街堂,北京,北京,北京,010,84039432,地安门,地安门东大街吉祥胡同10号,景点,宗教,116.401024,39.933147
龙腾文化广场,北京,北京,北京,010,,后沙峪,裕民大街38号1号楼,景点,公园/广场,116.541046,40.102383
玉东园,北京,北京,北京,010,88857654,颐和园,金河路颐和园西门路和金河的交叉口附近,景点,城市公园,116.257439,39.991333
丹青圃公园,北京,北京,北京,010,,四季青,门头馨园路与门头馨东街交叉口东南280米,景点,城市公园,116.227074,39.975323
中国科学院学术会堂,北京,北京,北京,010,59358118,中关村,中关村北一条15号,景点,景点/周边游,116.322639,39.988171
白盒子之家WHITEBOX CHOICE,北京,北京,北京,010,59784800,酒仙桥,酒仙桥路2号798艺术区B07号,景点,展览馆,116.496613,39.986431
神舟国旅,北京,北京,北京,010,83545127,右安门,白纸坊东街1号楼3单元1层,景点,旅行社,116.373022,39.878782
中青旅遨游网,北京,北京,北京,010,89192101,朝阳公园/团结湖,呼家楼向军北里6号楼汇鑫写字楼1层102室,景点,旅行社,116.461044,39.926033
北京青年旅行社,北京,北京,北京,010,89355311;89355305,良乡,拱辰大街二号,景点,旅行社,116.142351,39.741591
望承公园,北京,北京,北京,010,,望京,望京街道南湖渠西路220号,景点,城市公园,116.452019,39.995167
中商国际旅行社,北京,北京,北京,010,66030202;66036262,西单,复兴门内大街45号(西单地铁站F2西北口步行280米),景点,旅行社,116.371475,39.908695
金色福旅行社,北京,北京,北京,010,51653333,管庄,朝阳路8号朗庭大厦A座822室,景点,旅行社,116.598213,39.91116
西峰寺,北京,北京,门头沟区,010,68872492,门头沟区,岢罗村西山窝中（近万佛陵园）,景点,宗教,116.078903,39.885471
中驰航服,北京,北京,北京,010,65921722,三里屯/工体,工体东路15号（近东大桥）,景点,旅行社,116.450828,39.929312
北京青年旅行社,北京,北京,北京,010,83342755;83342766,望京,阜通东大街6号方恒国际中心D座815室,景点,旅行社,116.48278,39.99102
八角文化广场,北京,北京,北京,010,,古城/八角,八角社区路,景点,广场,116.194733,39.915943
东升文体公园,北京,北京,北京,010,,清河,宝盛路（奥林匹克森林公园北园北侧）,景点,城市公园,116.375923,40.039799
德青源生态园,北京,北京,延庆区,010,,延庆区其他,古龙路,景点,更多景点/周边游,115.829439,40.477811
八达岭古长城,北京,北京,延庆区,010,61118002,八达岭,西残路东南侧,景点,古代遗迹,115.988478,40.344787
东管头教堂,北京,北京,北京,010,,六里桥/丽泽桥,东管头街123号,景点,宗教,116.317001,39.861851
西顶庙,北京,北京,北京,010,186****3399,远大路,西顶路金源时代购物中心对面,景点,宗教,116.289864,39.960297
北京金水桥国际旅行社有限公司,北京,北京,北京,010,65133773;138****5770,前门/大栅栏,东交民巷新大陆6号,景点,旅行社,116.400916,39.903126
京浪岛公园,北京,北京,门头沟区,010,,门头沟区,龙泉镇三家店后街,景点,城市公园,116.095985,39.975674
行宫民俗旅游村,北京,北京,平谷区,010,61973617,平谷区,S204与行宫路交叉口东北方向100米,景点,民俗文化村,117.001327,40.254617
郎园Vintage创意园,北京,北京,北京,010,51660015,国贸/建外,通惠河北路郎家园6号（近万达广场）,景点,休闲街区,116.470367,39.906513
瑞桉国际旅行社,北京,北京,北京,010,57168653,十里堡,八里庄西里97号住邦2000商务中心4号楼2106室,景点,旅行社,116.49554,39.91461
青龙湖公园,北京,北京,北京,010,83310645,青龙湖镇,王佐镇阅湖中街怪村西,景点,城市公园,116.0884,39.79767
海洋国际旅行社,北京,北京,北京,010,68339990;68362062,西直门/动物园,西外大街新兴东巷甲15号金泰鑫侨大厦5楼,景点,旅行社,116.348936,39.941106
凯撒旅游,北京,北京,北京,010,67082198,崇文门,东打磨厂街34号新怡家园1号楼1层底商,景点,旅行社,116.415174,39.899214
财主院,北京,北京,门头沟区,010,69816982;137****2312,爨底下村,斋堂镇爨柏景区爨底下村内,景点,历史建筑,115.644264,39.99828
中天瀚海农业观光园,北京,北京,怀柔区,010,60673064,怀柔区,前辛庄村南口100米,景点,动植物园,116.568099,40.316119
林枫花园,北京,北京,北京,010,,草桥/公益西桥,地铁公益西桥站东侧,景点,城市公园,116.372093,39.835335
景泰公园,北京,北京,北京,010,,沙子口,永定门外大街与民主北街交叉口东北角,景点,城市公园,116.401749,39.869236
北京公社,北京,北京,北京,010,,酒仙桥,酒仙桥路4号798艺术区,景点,美术馆,116.495865,39.982418
站台中国,北京,北京,北京,010,57626068,酒仙桥,酒仙桥路2号798艺术区中二街D07号,景点,美术馆,116.495605,39.986061
大兴滨河森林公园,北京,北京,北京,010,61210476,黄村,兴良路与天水大街交叉口北侧,景点,城市公园,116.313058,39.705364
凯撒旅游,北京,北京,北京,010,139****1118,十里堡,朝阳北路珠江罗马嘉园东区53号楼107号,景点,旅行社,116.51518,39.92344
北京青年旅行社,北京,北京,北京,010,87789401;87789401,建外大街,建国门外大街12号外贸大楼516室,景点,旅行社,116.450325,39.907875
华远旅游,北京,北京,北京,010,59138262,东大桥,朝阳北路237号复星国际中心,景点,旅行社,116.455574,39.924133
爱嘉途旅游,北京,北京,北京,010,84814116,天通苑,立汤路186号龙德广场家乐福1层,景点,旅行社,116.414925,40.059368
燕山飞拉达,北京,北京,怀柔区,010,61622078,幽谷神潭,怀北镇上黄土梁48号,景点,更多景点/周边游,116.675926,40.541458
京北大峡谷,北京,北京,延庆区,010,138****5565,延庆区其他,水泉沟村北口,景点,自然风光,116.244568,40.430107
长城抗战纪念馆,北京,北京,密云区,010,81051801,古北口,京密路西100米,景点,纪念馆,117.161644,40.681213
曙光防灾教育公园,北京,北京,北京,010,88843101,远大路,紫竹院路正福寺76号（四季青桥东）,景点,文化公园,116.282042,39.947521
杜仲公园,北京,北京,北京,010,85367196,双桥,312路669路夜29路312号-23路联运,景点,城市公园,116.569321,39.893021
中旅体育旅行社,北京,北京,北京,010,68948259,魏公村,中关村南大街甲10号银海大厦,景点,旅行社,116.32332,39.9636
香屯,北京,北京,延庆区,010,159****4134,延庆区其他,香屯村(近十三陵),景点,更多景点/周边游,116.277573,40.406322
红螺果脯博物馆,北京,北京,怀柔区,010,60693569,怀柔区,庙城镇郑重庄631号,景点,博物馆,116.619331,40.287151
枣林公园,北京,北京,北京,010,,黄村,兴丰大街玫瑰城购物中心南侧,景点,城市公园,116.33651,39.752064
中国国旅,北京,北京,北京,010,51289662,亮马桥/三元桥,霄云路21号嘉里大通中心,景点,旅行社,116.465376,39.959886
玫瑰园,北京,北京,北京,010,,德外大街,德胜门外大街马甸公园对面（近马甸桥）,景点,植物园,116.38192,39.970352
XYZ画廊,北京,北京,北京,010,84599299,798/大山子,酒仙桥路4号798艺术区内（熊猫慢递对面）,景点,展览馆,116.495369,39.985714
798桥艺术空间,北京,北京,北京,010,188****1798,798/大山子,酒仙桥路创意产业研究院旁79号,景点,展览馆,116.495743,39.984375
永定河文化博物馆,北京,北京,门头沟区,010,69844602-2008;69839148,门头沟城区,门头沟路8号,景点,博物馆,116.09639,39.943008
滴水湖,北京,北京,密云区,010,,密云区其他,大城子镇,景点,自然风光,117.195297,40.456795
北京青年旅行社,北京,北京,北京,010,62163715,北下关,学院南路76号,景点,旅行社,116.330238,39.957489
爱嘉途旅游,北京,北京,北京,010,63264044,广外大街,马连道家乐福超市二层（马连道茶叶一条街）,景点,旅行社,116.326141,39.882351
湖南会馆,北京,北京,北京,010,,菜市口/陶然亭,烂缦胡同101号,景点,历史建筑,116.371979,39.885738
兴旺公园,北京,北京,北京,010,,黄村,三合路与兴旺路交叉口南150米,景点,城市公园,116.313828,39.741264
长辛店二七公园,北京,北京,北京,010,83876262,卢沟桥,西花园南里甲1号,景点,城市公园,116.206566,39.83189
金面王朝,北京,北京,北京,010,67383333-8004,北京欢乐谷,金蝉西路华侨城大剧院内（近欢乐谷）,景点,旅游项目/观光项目,116.49839,39.867245
兴华公园,北京,北京,北京,010,,西红门,欣宁街北口（近京良路）,景点,公园/广场,116.329163,39.795967
万科艺园,北京,北京,北京,010,69456680,顺义区,白马路与天北路交叉口西800米路北,景点,更多景点/周边游,116.522321,40.18336
天桥市民文化广场,北京,北京,北京,010,,虎坊桥,天桥南大街7号（天桥地铁站A西北口旁）,景点,广场,116.397728,39.883186
西太平猴山,北京,北京,北京,010,61347873,霞云岭国家森林公园,房山世界地质公园十渡园区七渡村七渡花果山景区内,景点,自然风光,115.57711,39.731216
亚泰假日园旅行社,北京,北京,北京,010,67135151,崇文门,葱店西街27号,景点,旅行社,116.423103,39.889565
临汾会馆,北京,北京,北京,010,,前门/大栅栏,西打磨厂胡同105号,景点,历史建筑,116.406425,39.898979
高鑫公园,北京,北京,北京,010,,丰台区,樊羊路（近世界公园）,景点,城市公园,116.298309,39.797821
坦博艺术中心,北京,北京,北京,010,,田村,杏石口路30号,景点,美术馆,116.251907,39.945717
中国国际旅行社,北京,北京,北京,010,68058758;68059038,阜成门,阜成门外大街北京国宾酒店,景点,旅行社,116.350624,39.924244
中间美术馆,北京,北京,北京,010,62730230,四季青,杏石口路50号中间艺术区内（近杏石口桥）,景点,美术馆,116.231071,39.954102
金盛强世界花卉创意园,北京,北京,北京,010,52105821,通州区,台湖镇国家大剧院舞美基地北门对面（小台湖饭庄）,景点,创意园区,116.632308,39.841645
大稿国际艺术区,北京,北京,北京,010,81566003,梨园,梨园地区怡乐中路422号,景点,创意园区,116.636246,39.876495
第四次世界妇女大会纪念公园,北京,北京,怀柔区,010,69644995,怀柔区,城南石厂环岛处（近916在国际会议中心站）,景点,纪念公园,116.626298,40.300976
成仁华艺艺术馆,北京,北京,北京,010,64668777,地安门,地安门东大街111号,景点,美术馆,116.398827,39.933678
安河桥清真寺,北京,北京,北京,010,,颐和园,青龙桥西街与香山路交叉口西北100米,景点,宗教,116.266441,40.0056
清华园火车站遗址,北京,北京,北京,010,,五道口,成府路路口西南小巷清华园铁路职工宿舍内,景点,历史建筑,116.331772,39.99152
中青旅遨游旅行旗舰店,北京,北京,北京,010,89192050,东直门,东直门南大街5号中青旅大厦1层,景点,旅行社,116.432785,39.937786
憩园,北京,北京,北京,010,,右安门,马连道14号院(陶然亭地铁站D西南口步行150米),景点,自然景观,116.373482,39.87701
天马假期国际旅行社,北京,北京,北京,010,57243237,劲松/潘家园,东三环南路辅路与弘燕南一路交叉口东南方向100米左右,景点,旅行社,116.46051,39.865959
荷塘月色,北京,北京,北京,010,,五道口,双清路30号清华大学内,景点,更多景点/周边游,116.325043,40.004234
凯撒旅游,北京,北京,北京,010,85827588,石佛营,石佛营西里23号楼1楼（泛海国际对面）,景点,旅行社,116.498438,39.934692
神玉艺术馆,北京,北京,北京,010,82088388;82086388,德外大街,北三环中路3号双全大厦4楼,景点,陈列馆,116.390793,39.96904
承恩寺,北京,北京,北京,010,68611900,模式口,模式口大街第九中学北门对面（近金顶街）,景点,宗教,116.164917,39.936037
平庄郊野公园,北京,北京,北京,010,,田村,四季青镇旱河路,景点,城市公园,116.241058,39.944458
森林国际旅行社,北京,北京,北京,010,4006683030,和平里/国展中心,和平里东街12号中林商务楼4楼,景点,旅行社,116.425629,39.957146
中华世纪坛,北京,北京,北京,010,84187900,公主坟/万寿路,羊坊店街道复兴路甲9号,景点,博物馆,116.321397,39.910748
北京大学博雅国际会议中心中华厅,北京,北京,北京,010,82689999;82689998,五道口,中关村北大街127号北大博雅国际酒店内（近北大医院）,景点,展览馆,116.313309,39.997768
元典美术馆,北京,北京,北京,010,64753932;86275503,望京,广顺北大街利泽西园一区112号楼2层,景点,美术馆,116.462997,40.013407
南磨房四合院博物馆,北京,北京,北京,010,,北京欢乐谷,南磨房心连心广场,景点,博物馆,116.498924,39.871498
中国国际旅行社,北京,北京,北京,010,68681556,鲁谷,银河大街1号,景点,旅行社,116.218644,39.906101
众信旅游,北京,北京,北京,010,185****0023,中关村,善缘街1号立方庭大厦1楼1号,景点,旅行社,116.308688,39.980368
众信旅游,北京,北京,北京,010,85584144,亚运村,大屯路慧忠北里408号（安立路地铁站A1西北口步行210米）,景点,旅行社,116.404341,40.002871
中国园林博物馆,北京,北京,北京,010,63915025;63915017,云岗,射击场路15号,景点,博物馆,116.177152,39.878976
北京时间博物馆,北京,北京,北京,010,64087610,南锣鼓巷/鼓楼东大街,鼓楼东大街298号,景点,博物馆,116.396973,39.940338
中青旅遨游网,北京,北京,北京,010,89192083,黄村,兴华大街3号枣园波普中心3号楼东侧1层,景点,旅行社,116.331413,39.748302
喇叭沟门满族民俗博物馆,北京,北京,怀柔区,010,60623729;60623547,怀柔区,喇叭沟门满族乡喇叭沟门村2号,景点,博物馆,116.621276,40.901566
京门铁路遗址公园,北京,北京,门头沟区,010,,门头沟城区,城子大街与九龙路交叉口西北角,景点,城市公园,116.098358,39.953999
中国铁道旅行社,北京,北京,北京,010,51840985;51826161,公主坟/万寿路,北蜂窝路20号楼底商,景点,旅行社,116.32933,39.900976
奥加美术馆,北京,北京,北京,010,64153388,三里屯/工体,东直门外大街26号,景点,美术馆,116.44809,39.940651
九道湾胡同,北京,北京,北京,010,,北新桥/簋街,九道湾南巷,景点,步行街,116.419083,39.939777
丰泰庵,北京,北京,北京,010,,后海/什刹海,后海南沿26号,景点,宗教,116.388023,39.939781
特色小街,北京,北京,北京,010,,天坛,前门大街步行街内,景点,观光街区,116.398315,39.891659
广顺国际旅行社,北京,北京,北京,010,58047777,望京,望京SOHO塔1-B座8层0811室,景点,旅行社,116.480898,39.996918
亮马河会议中心万黛厅,北京,北京,北京,010,65906688,亮马桥/三元桥,东三环北路8号亮马河大厦会议中心2楼（近农展馆北路）,景点,景点/周边游,116.463148,39.946078
幸运旅途,北京,北京,北京,010,57258020,亦庄,亦庄文化园西路林肯公园6号院8号楼1405室,景点,旅行社,116.492762,39.806911
青少年农业科普馆,北京,北京,北京,010,,亮马桥/三元桥,东三环北路16号,景点,科技馆,116.466187,39.937862
雁栖湖,北京,北京,怀柔区,010,69661696;69661194,雁栖湖,怀北镇雁水路3号,景点,自然风光,116.667138,40.392464
老北京传统商业博物馆,北京,北京,北京,010,63036830,前门/大栅栏,前门西大街正阳市场3号楼老舍茶馆2层,景点,博物馆,116.393394,39.899738
中国山水旅行社,北京,北京,北京,010,,西单,皮库胡同45号,景点,旅行社,116.371625,39.910665
新视野国际旅行社,北京,北京,北京,010,85117900,王府井/东单,东长安街10号g1-g2室,景点,旅行社,116.409042,39.907482
王府国旅,北京,北京,北京,010,58603988,亚运村,四区15号18层,景点,旅行社,116.412487,39.989327
龙潭书院,北京,北京,北京,010,67187077,左安门,左安门内大街20号,景点,景点/周边游,116.437927,39.877767
北京高碑店琦檀宇艺术博物馆,北京,北京,北京,010,139****2744,高碑店,高碑店古家具一条街161号,景点,博物馆,116.537671,39.902394
西藏文化博物馆,北京,北京,北京,010,64935128,亚运村,北四环东路131号,景点,博物馆,116.414658,39.989311
钧天坊古琴艺术中心,北京,北京,北京,010,89202891,庞各庄,前苑上村西刘路,景点,美术馆,116.421959,39.648705
亚运村全民健身园,北京,北京,北京,010,133****4863,亚运村,安慧里4区8号楼北侧（近北苑路）,景点,城市公园,116.412216,39.992287
游客服务中心,北京,北京,北京,010,,香山/植物园,卧佛寺路国家植物园北园内（东南角）,景点,公园/广场,116.215149,39.994709
延庆寺,北京,北京,北京,010,,魏公村,万寿寺路22号(万寿寺地铁站C东南口步行220米),景点,宗教,116.312202,39.945969
小天鹅公园,北京,北京,北京,010,,公主坟/万寿路,水利医院附近,景点,城市公园,116.309273,39.913166
温泉公园,北京,北京,北京,010,68824087,海淀区,温泉地区温泉镇政府东西两侧,景点,公园/广场,116.18276,40.049418
中贸国际商务旅行社,北京,北京,北京,010,4000170017,王府井/东单,东华门街道南河沿大街华龙街华龙写字间403室（近南湾子胡同）,景点,旅行社,116.4071,39.910745
香村浓家,北京,北京,平谷区,010,189****7399,石林峡,雕窝村石林峡北700米,景点,更多景点/周边游,117.253654,40.267162
北京易游假期旅行社有限公司,北京,北京,北京,010,56296615,左安门,长青园路长青园7号1号楼,景点,旅行社,116.424289,39.874189
北山公园,北京,北京,北京,010,,昌平镇,城北街道中山口路北山,景点,公园/广场,116.240234,40.236839
君知雨农业生态园,北京,北京,北京,010,61780544,昌平镇,南北庄路与南郝庄路交叉口北约180米,景点,更多景点/周边游,116.209869,40.21608
ccd300当代艺术与设计中心,北京,北京,北京,010,64329300,朝阳区,草场地艺术区300号,景点,美术馆,116.507759,39.998519
七棵树创意园,北京,北京,北京,010,84316213,东坝,东坝地区半截塔路55号,景点,创意园区,116.51931,39.967915
世纪崇光国际旅行社,北京,北京,北京,010,158****6182,公主坟/万寿路,复兴路63号,景点,旅行社,116.290207,39.909008
北京青旅,北京,北京,北京,010,82015953,牡丹园/北太平庄,新街口外大街北京师范大学东北侧约120米,景点,旅行社,116.369851,39.966163
中国民兵武器装备陈列馆,北京,北京,北京,010,89590788,通州区,焦王庄北口（近陈列馆路）,景点,陈列馆,116.670265,39.937592
FOUND MUSEUM,北京,北京,北京,010,,马泉营,崔各庄乡何各庄村1号地艺术区,景点,美术馆,116.494453,40.043655
众信旅游,北京,北京,北京,010,67791218,劲松/潘家园,劲松三区301号楼底商（劲松桥西南角）,景点,旅行社,116.460121,39.884171
众信旅游,北京,北京,北京,010,87599306,草桥/公益西桥,马家堡西路26号院2号楼,景点,旅行社,116.371483,39.841675
仰山栖隐禅寺,北京,北京,门头沟区,010,,门头沟区,南樱路樱桃沟村内,景点,宗教,116.050735,40.041805
白瀑寺,北京,北京,门头沟区,010,61837783;136****6017,昌平区,雁翅镇淤白村,景点,宗教,115.920898,40.117802
小辛庄樱桃园,北京,北京,北京,010,135****8998,回龙观,西集镇小辛庄村,景点,更多景点/周边游,116.374229,40.095272
礼贤聚贤庄生态园种植园,北京,北京,北京,010,89277035,大兴区,昕升村辛西路26号,景点,动植物园,116.341995,39.539135
新东安广场,北京,北京,北京,010,,王府井/东单,王府井大街138号,景点,广场,116.411522,39.915051
大德寺,北京,北京,北京,010,,昌平区,禾子涧路与老东路交叉口西北150米,景点,宗教,115.92924,40.172917
北京青年旅行社股份有限公司,北京,北京,怀柔区,010,69693270;69693271,斜街,迎宾中路甲27号,景点,旅行社,116.636887,40.320057
天鹅湖生态旅游风景区,北京,北京,北京,010,136****7174,房山区,张坊镇宋各庄村,景点,自然风光,115.708542,39.597557
club med,北京,北京,北京,010,64136565,东大桥,朝阳北路237号复星国际中心2905室（近燕莎桥）,景点,旅行社,116.455536,39.924164
明皇城东安门遗址,北京,北京,北京,010,,王府井/东单,东安门大街55号(王府世纪大厦斜对面),景点,古代遗迹,116.40696,39.91544
玄门堂康体俱乐部,北京,北京,北京,010,83505981,右安门,育新街47号清芷园会所（近陶然亭公园南门）,景点,更多景点/周边游,116.372948,39.87252
南苑农场,北京,北京,北京,010,67977008;67981866,西红门,南苑团河路北口车站南苑村绿化队,景点,更多景点/周边游,116.379143,39.795456
李遂生态园,北京,北京,北京,010,89481188,南彩镇,龙太路4号,景点,植物园,116.765068,40.100174
后海野鸭岛,北京,北京,北京,010,66162868,后海/什刹海,东明胡同2号,景点,自然风光,116.3806,39.944744
朝阳公园游乐园,北京,北京,北京,010,65383161;65065409,朝阳公园/团结湖,农展南路1号（朝阳公园内）,景点,游乐场,116.481468,39.939625
天通苑水上乐园,北京,北京,北京,010,59793581;188****4645,天通苑,天通苑北三区55号楼8单元202号,景点,水上乐园,116.42498,40.079765
元代谷风景区,北京,北京,延庆区,010,56235710,延庆区其他,新宝庄村东山,景点,自然风光,115.976755,40.405455
镇国寺,北京,北京,北京,010,,草桥/公益西桥,镇国寺,景点,宗教,116.352905,39.844205
紫溪庄园,北京,北京,北京,010,61416016,顺义区,高各庄（近木北路）,景点,更多景点/周边游,116.829781,40.093418
潮岭渔村,北京,北京,怀柔区,010,89617188,神堂峪,官地村村委会北1000米,景点,人文古迹,116.631189,40.431629
葡山公园,北京,北京,门头沟区,010,69841870,门头沟城区,滨河路葡山小区对面,景点,城市公园,116.113745,39.925408
中贸国际商务旅行社,北京,北京,北京,010,4000170017,建外大街,建外大街16号楼东方瑞景1号楼2307房间,景点,旅行社,116.443085,39.906654
新桥公园,北京,北京,门头沟区,010,,门头沟城区,新桥大街与大峪后街交叉口处,景点,城市公园,116.102386,39.938057
中医学院医史博物馆,北京,北京,北京,010,64286679;64286672,安贞,北三环东路11号北京中医药大学,景点,博物馆,116.426674,39.970535
中青旅遨游网,北京,北京,北京,010,89192102,方庄/蒲黄榆,南三环紫芳园六区3号楼1层1单元102室,景点,旅行社,116.439671,39.860821
花溪薰衣草庄园,北京,北京,怀柔区,010,,渤海镇/慕田峪长城,渤三路,景点,植物园,116.508252,40.403602
乐活游,北京,北京,北京,010,61136880,天通苑,立汤路186号龙德紫金2-916室,景点,旅行社,116.414561,40.061641
北京青年旅行社,北京,北京,北京,010,150****6978,东直门,东直门外大街42号宇飞大厦804室,景点,旅行社,116.437508,39.940189
玺园文化园,北京,北京,北京,010,62878863,颐和园,颐和园路三岔口33号,景点,公园/广场,116.277138,40.003029
仰山公园,北京,北京,北京,010,,亚运村,奥运村街道北五环仰山桥南侧,景点,城市公园,116.412498,40.018524
稻香湖景欢乐岛温泉城堡,北京,北京,北京,010,58718888;58718188,上庄,苏家坨稻香湖路28号,景点,温泉,116.184394,40.091438
小屯公园,北京,北京,北京,010,134****9258,青塔,卢沟桥街道小屯西路与兴源路交叉口东南角,景点,城市公园,116.250122,39.870289
环球易飞商旅,北京,北京,北京,010,64804966,亚运村,安立路慧中北里309号第五大道16楼,景点,旅行社,116.407346,40.003236
凤凰中心,北京,北京,北京,010,65207998;65207997,朝阳公园/团结湖,朝阳公园南路3号,景点,现代建筑,116.473733,39.934656
妫河森林公园,北京,北京,延庆区,010,,延庆区其他,环湖南路妫水河,景点,森林公园,115.944771,40.444481
清河营郊野公园,北京,北京,北京,010,,朝阳区,来广营乡北苑东路,景点,城市公园,116.444851,40.055259
中唐国际旅行社,北京,北京,北京,010,188****5666,公主坟/万寿路,羊坊店路18号光耀东方5561室,景点,旅行社,116.322417,39.898637
平房天主堂,北京,北京,北京,010,,朝阳区,平房街正街87号,景点,宗教,116.54115,39.93963
艾悠游信息技术有限公司,北京,北京,北京,010,56296615,天坛,长青园路长青园7号,景点,旅行社,116.42368,39.87487
北京青年旅行社,北京,北京,北京,010,156****1603,刘家窑/宋家庄,东铁匠营五间楼10号B座G26室,景点,旅行社,116.42466,39.848171
房山基督教堂,北京,北京,北京,010,81388077,良乡,太平庄南路太平庄社区菜市场南侧约30米,景点,宗教,116.118937,39.733257
王平湿地,北京,北京,门头沟区,010,,门头沟区,韭园村（色坟村附近）,景点,自然风光,115.993629,39.969696
中国政协文史馆,北京,北京,北京,010,66193254,复兴门,太平桥大街23号,景点,陈列馆,116.362465,39.918877
清源公园,北京,北京,北京,010,,黄村,黄村镇清源西路孙庄子村北口向西200米,景点,城市公园,116.305763,39.733971
东升清河培黎公园,北京,北京,北京,010,,清河,清河南大街,景点,城市公园,116.349068,40.022572
嘉河公园,北京,北京,北京,010,,马家堡/角门,300路公交车站对面,景点,城市公园,116.362625,39.853271
北京航空航天博物馆,北京,北京,北京,010,82339701,牡丹园/北太平庄,学院路37号北京航空航天大学校内（近北航东南门）,景点,博物馆,116.350685,39.981926
神舟国际旅行社,北京,北京,北京,010,64253937;64269986,安贞,安定门外大街80号甲楼1层,景点,旅行社,116.409015,39.959375
北京海德温泉酒店,北京,北京,北京,010,58395555;58395511,十里堡,青年路西里1号院,景点,温泉,116.516208,39.93549
圜丘坛,北京,北京,北京,010,67013036,天坛,天坛东里2号天坛公园,景点,自然风光,116.413155,39.876934
协和学术会堂,北京,北京,北京,010,,王府井/东单,帅府园1号,景点,景点/周边游,116.412834,39.91238
鑫桃源生态园,北京,北京,平谷区,010,186****7071;137****9231,平谷区,桃园大街11号,景点,动植物园,117.147726,40.362096
通惠国际文化创意大街,北京,北京,北京,010,158****5332,大望路,西大望路甲十二号北京国家广告产业园,景点,观光街区,116.475931,39.904073
北京逍遥假期旅行社,北京,北京,北京,010,56190709,建外大街,雅宝路12号华声国际大厦602室,景点,旅行社,116.436092,39.914069
东晨旅行社,北京,北京,北京,010,63469867;63262346,六里桥/丽泽桥,西站南路丽泽雅园小区9号楼1005室,景点,旅行社,116.322556,39.870529
朱炳仁艺术博物馆,北京,北京,北京,010,56049884,798/大山子,酒仙桥路4号北京798艺术区友谊大厦1层,景点,博物馆,116.491951,39.984074
后山艺术空间,北京,北京,北京,010,84004774,东直门,东直门外香河园路1号当代MOMA园区T8楼北,景点,创意园区,116.438118,39.9515
通州清真寺,北京,北京,北京,010,69543124,新华大街,回民胡同1号（近通州火车站）,景点,宗教,116.669868,39.907455
北杨洼观音寺,北京,北京,北京,010,,梨园,梨园北街北杨洼小区西门西侧,景点,宗教,116.668884,39.888706
乾鼎老酒博物馆,北京,北京,北京,010,64040299,地安门,赵府街69号(近张旺胡同),景点,博物馆,116.396606,39.944538
中视国际旅行社,北京,北京,北京,010,57112277,三里屯/工体,新中东街3号院1号楼701号,景点,旅行社,116.442757,39.936653
三里屯东五街银杏大道,北京,北京,北京,010,,三里屯/工体,三里屯东五街,景点,步行街,116.45742,39.943924
环境国旅,北京,北京,北京,010,67022357,天坛,金鱼池中街2号11号,景点,旅行社,116.407776,39.891525
凯撒旅游,北京,北京,北京,010,137****7604,亚运村,安慧北里逸园甲11号楼1层101-02室,景点,旅行社,116.414146,40.002518
众信旅游,北京,北京,北京,010,68636190,鲁谷,鲁谷街道银河大街6号院1号楼银河财智中心1层106室,景点,旅行社,116.22171,39.904305
众信旅游,北京,北京,北京,010,87680160,方庄/蒲黄榆,方庄街道蒲芳路22号楼22-2幢1层底商（方庄环岛 邮局）,景点,旅行社,116.430011,39.865541
中商国旅,北京,北京,北京,010,88385556,阜成门,车公庄大街2号院1楼9号商铺,景点,旅行社,116.353752,39.931831
和平国际旅行社,北京,北京,北京,010,56024063,魏公村,中关村南大街甲6号铸诚大厦B1104室,景点,旅行社,116.324905,39.964684
至活旅游,北京,北京,北京,010,57011669;56629950,朝阳门,南竹竿胡同2号朝阳门银河SOHOD座3层50332室（近朝阳门、悦荷酒家）,景点,旅行社,116.432983,39.920349
竹园国际旅行社,北京,北京,北京,010,85867676,十里堡,八里庄东里1号莱锦产业园a7,景点,旅行社,116.498135,39.914585
德易家生活艺术空间,北京,北京,北京,010,51303925,酒仙桥,东四环北路6号阳光上东2区1号,景点,美术馆,116.480949,39.966141
延庆清真寺,北京,北京,延庆区,010,,八达岭,岔道村（近八达岭长城）,景点,宗教,115.994644,40.364662
慧商蓝海旅行网,北京,北京,北京,010,4000185766,劲松/潘家园,东三环农光南里1号龙辉大厦4楼445室,景点,旅行社,116.4618,39.880707
奥特翔主题乐园,北京,北京,北京,010,,亚运村,北四环东路73号远洋·未来广场购物中心F3层F3-31-A,景点,主题乐园,116.433014,39.990425
雄腾展览室,北京,北京,北京,010,66186333;66180081,阜成门,阜成门内大街201号（阜成门地铁站B东北口步行480米）,景点,展览馆,116.362085,39.924005
容泰创艺展览展示,北京,北京,北京,010,66085231,阜成门,阜成门内大街乙346号,景点,展览馆,116.360481,39.923607
南豆芽清真寺,北京,北京,北京,010,,朝阳门,豆瓣胡同4号,景点,宗教,116.432549,39.928135
凯撒旅游,北京,北京,北京,010,58819980,苏州桥,长春桥路11号万柳亿城中心C1座底商（近万柳亿城大厦）,景点,旅行社,116.301559,39.960075
华汇紫薇公园,北京,北京,北京,010,136****3846,亚运村,小营北路8号(关庄地铁站C东南口步行430米),景点,城市公园,116.428841,39.997177
豫庐·王镛艺术研究馆,北京,北京,北京,010,133****6156,和平门,琉璃厂东街115-9号（和平门地铁站c1东南口步行500米）,景点,美术馆,116.384712,39.896126
前门清真寺,北京,北京,北京,010,,前门/大栅栏,大栅栏街道廊房二条扬威胡同（近大栅栏）,景点,宗教,116.391685,39.896561
鲁班祠,北京,北京,北京,010,,高碑店,古家具一条街270号附近,景点,宗教,116.540421,39.902924
老乡亲,北京,北京,北京,010,63013359,虎坊桥,琉璃厂东街31号附近,景点,景点/周边游,116.387936,39.895293
齐白石旧居纪念馆,北京,北京,北京,010,64040179,安定门,交道口街道雨儿胡同13号院（南锣鼓巷地铁站E西北口步行340米）,景点,纪念馆,116.40155,39.935799
红厂设计创意产业园,北京,北京,北京,010,133****6756,马泉营,何各庄村328号,景点,创意园区,116.493004,40.037598
红砖美术馆,北京,北京,北京,010,84576669,马泉营,何各庄村（顺白路与马泉营西路交叉口西北侧）,景点,美术馆,116.499962,40.042332
三教庙,北京,北京,北京,010,69550695,新华大街,大成街1号,景点,宗教,116.66597,39.915134
北京密云天门山风景区,北京,北京,密云区,010,69016673,密云区其他,石城镇琉辛路柳棵峪,景点,自然风光,116.780899,40.58004
四季大美国际旅行社,北京,北京,北京,010,69385088,良乡,西潞北大街73号青年餐厅,景点,旅行社,116.136395,39.736615
北京青年旅行社股份有限公司,北京,北京,北京,010,87789621,广渠门外,外冠城名敦道4号楼1604号,景点,旅行社,116.447784,39.893234
门城湖公园,北京,北京,北京,010,,门头沟城区,滨河路永定楼附近,景点,城市公园,116.120529,39.940639
欧菲堡酒庄,北京,北京,北京,010,60466369;138****9993,顺义区,龙湾屯镇柳庄户村,景点,更多景点/周边游,116.873581,40.196949
八里桥音乐主题公园,北京,北京,北京,010,85708077,管庄,瑞祥北街,景点,文化公园,116.61721,39.909935
要出发旅行网,北京,北京,北京,010,4001181166,中关村,中关村海淀大街3号鼎好电子大厦A座9-10层（九华山庄；益泉；御林汤泉；美神宫）,景点,旅行社,116.314766,39.984379
北航逸夫科学馆,北京,北京,北京,010,82316544,牡丹园/北太平庄,学院路37号,景点,科技馆,116.349915,39.981895
