名称,省份,真实城市,市县区,区号,电话,区域,地址,大分类,小分类,经度,纬度
凤凰假期旅游有限公司,江苏,南京,南京,025,84720228;84720398,新街口地区,汉中路112号金轮大厦汇贤楼2楼,景点,旅行社,118.778244,32.042811
大华国际旅行社,江苏,南京,南京,025,4001109966,山西路/湖南路,中山北路8号绿地广场云峰大厦,景点,旅行社,118.782608,32.06089
康辉南京国际旅行社,江苏,南京,南京,025,83304588,三牌楼,新模范马路17号宏景公寓02幢2楼,景点,旅行社,118.774103,32.077733
江苏海外旅游,江苏,南京,南京,025,83428999,新城市/虹桥中心,中山北路202号江苏工人大厦F1层,景点,旅行社,118.765759,32.075689
天地旅行社,江苏,南京,南京,025,,南京西站/阅江楼,戴家巷9号101室,景点,旅行社,118.749545,32.081486
中国旅行社,江苏,南京,南京,025,83366227,火车站/玄武湖,百子亭百新大厦3楼,景点,旅行社,118.78614,32.065186
江苏省中国旅行社,江苏,南京,南京,025,87768989,南京西站/阅江楼,中山北路313号,景点,旅行社,118.755516,32.083347
南京地质博物馆,江苏,南京,南京,025,51816587,珠江路沿线,珠江路700号,景点,博物馆,118.807343,32.044617
菊花台公园,江苏,南京,南京,025,52890685,安德门/小行,安德门大街6号（近花神大道）,景点,城市公园,118.757446,31.982098
龙泉禅寺,江苏,南京,南京,025,,开发区,龙泉寺1号（将军山风景区内）,景点,宗教,118.764847,31.926889
雨花台风景区,江苏,南京,南京,025,68783033;52411523,秦虹村/中华门,雨花路215号,景点,自然景观,118.781883,31.998032
明故宫遗址公园,江苏,南京,南京,025,84807135,珠江路沿线,中山东路311号,景点,古代遗迹,118.817909,32.041409
煦园,江苏,南京,南京,025,84578888,新街口地区,长江路292号（大行宫地铁站5号口步行320米）,景点,园林,118.797127,32.04351
南京中国近代史遗址博物馆,江苏,南京,南京,025,84578716;84578888,新街口地区,长江路292号,景点,博物馆,118.797417,32.044258
南京古林公园,江苏,南京,南京,025,83700646,南京艺术学院/龙江,虎踞北路21号,景点,纪念公园,118.753338,32.066893
伯乐园,江苏,南京,南京,025,,和燕路,和燕路439号新联二村,景点,城市公园,118.819725,32.128235
二桥公园,江苏,南京,南京,025,58028888,栖霞区,太新路101号,景点,城市公园,118.846626,32.15414
南京市红山森林动物园,江苏,南京,南京,025,4008510057,红山动物园/火车站,和燕路168号,景点,动物园,118.802986,32.0919
舍利塔,江苏,南京,南京,025,,摄山,栖霞街88号栖霞山风景名胜区内,景点,人文古迹,118.960037,32.151703
燕子矶公园,江苏,南京,南京,025,85311337,和燕路,临江街3号,景点,公园/广场,118.817137,32.146818
江浦公园,江苏,南京,南京,025,,江浦,码头街与新马路交叉口北,景点,公园/广场,118.622108,32.062267
龙王山风景区,江苏,南京,南京,025,58735094,南京信息工程大学,龙山北路,景点,自然风光,118.709145,32.191715
浦口公园,江苏,南京,南京,025,,浦口区,新马路2号,景点,城市公园,118.719688,32.102161
泰山寺,江苏,南京,南京,025,58841072,浦口区,泰西路24号,景点,宗教,118.709457,32.1437
南京珍珠泉风景区,江苏,南京,南京,025,58601545,浦口区,珍珠街182号,景点,自然风光,118.660801,32.127039
狮子山景区,江苏,南京,南京,025,58815369;58590298,建宁路,建宁路202号阅江楼景区内（东侧）,景点,自然风光,118.752647,32.092907
大钟亭公园,江苏,南京,南京,025,57713865,南大/南师大,大钟亭1号（鼓楼地铁站4B口步行110米）,景点,公园/广场,118.784569,32.060539
鼓楼公园,江苏,南京,南京,025,86634466,紫峰购物广场,北京西路1-2号,景点,城市公园,118.782021,32.058701
汉中门市民广场,江苏,南京,南京,025,,南大/南师大,虎踞南路汉中门地铁站3号口步行70米,景点,广场,118.767395,32.041702
南师大珍稀动物标本博物馆,江苏,南京,南京,025,,南大/南师大,宁海路南师大校内,景点,博物馆,118.767616,32.052761
赛珍珠故居,江苏,南京,南京,025,,南大/南师大,中山路249号南京大学鼓楼校区,景点,名人故居,118.778336,32.055126
乌龙潭公园,江苏,南京,南京,025,83714809,南大/南师大,广州路215号（省人民医院对面）,景点,城市公园,118.766151,32.045925
南湖公园,江苏,南京,南京,025,57566628,莫愁湖/水西门,莫愁湖街道南湖东路与彩虹苑路交叉口,景点,公园/广场,118.762657,32.028111
溧水区博物馆,江苏,南京,溧水区,025,57225258,溧水区,天生桥大道500号,景点,博物馆,118.987144,31.642887
无想寺森林公园,江苏,南京,溧水区,025,,溧水区,金牛北路,景点,森林公园,119.041748,31.584478
东山公园,江苏,南京,南京,025,,东山镇,文靖西路99号,景点,公园/广场,118.839104,31.95549
南唐二陵,江苏,南京,南京,025,52724579,江宁区,002县道南唐二陵,景点,古代遗迹,118.738266,31.88751
牛首山文化旅游区,江苏,南京,南京,025,4001656363,江宁区,宁丹大道18号,景点,自然风光,118.744124,31.903358
南京古猿人洞景区,江苏,南京,南京,025,52707365,汤山镇,环镇北路与汤泉西路交叉口西500米路南,景点,自然风光,119.04505,32.05695
汤山圣泉温泉,江苏,南京,南京,025,84100666,汤山镇,汤山街道汤泉东路228号（近城开汤山公馆）,景点,温泉,119.067207,32.049507
阳山碑材（明文化村）景区,江苏,南京,南京,025,84111108,江宁区,古泉社区阳山碑材景区,景点,古村古镇,119.00547,32.061707
杨柳村古建筑群,江苏,南京,南京,025,52695500,江宁区,杨柳湖社区前杨柳村459号,景点,历史建筑,118.927872,31.858292
夫子庙秦淮风光带,江苏,南京,南京,025,52209788,夫子庙地区,平江府路80-1号,景点,古代遗迹,118.782516,32.017212
南京中国科举博物馆,江苏,南京,南京,025,86626653,夫子庙地区,贡院街95号（夫子庙步行街内）,景点,博物馆,118.79068,32.020824
圣保罗教堂,江苏,南京,南京,025,86647225,常府街/长白街,太平南路396号（近白下路）,景点,宗教,118.790665,32.029511
乌衣巷,江苏,南京,南京,025,52231693,夫子庙地区,大石坝街81（夫子庙南）,景点,休闲街区,118.789642,32.018654
武定门公园,江苏,南京,南京,025,,夫子庙地区,长乐路236号（武定门地铁站3号口步行290米）,景点,城市公园,118.795464,32.010956
南京博物院,江苏,南京,南京,025,84807923,明故宫/后宰门,中山东路321号,景点,博物馆,118.825119,32.040771
宝船厂遗址公园,江苏,南京,南京,025,86227011,草场门/龙江,江东街道漓江路57号,景点,文化公园,118.733398,32.061035
南京白鹭洲公园,江苏,南京,南京,025,86908386;86908366,瑞金路沿线,白鹭村1号,景点,文化公园,118.795242,32.017883
白马公园,江苏,南京,南京,025,85408062,火车站/玄武湖,白马山庄1号,景点,城市公园,118.816696,32.060757
北极阁公园,江苏,南京,南京,025,83364171,珠江路沿线,鸡鸣寺路1号,景点,城市公园,118.79071,32.059708
南京海底世界,江苏,南京,南京,025,84441119;84345256,玄武区,中山陵四方城西路四方城8号,景点,海洋馆,118.845262,32.05382
鸡鸣寺,江苏,南京,南京,025,57715595,火车站/玄武湖,鸡鸣寺路1号,景点,宗教,118.795242,32.061047
净觉寺,江苏,南京,南京,025,52300015,升州路/集庆路,升州路28号,景点,宗教,118.78315,32.023731
《南京条约》史料陈列馆,江苏,南京,南京,025,58808703,建宁路,建宁路288号南京静海寺纪念馆内,景点,纪念馆,118.744141,32.092926
灵谷景区,江苏,南京,南京,025,84431174;84433582,玄武区,灵谷寺2号,景点,宗教,118.866407,32.056327
中共代表团梅园新村纪念馆,江苏,南京,南京,025,84540739,常府街/长白街,梅园新村街道汉府街18-1号,景点,纪念馆,118.801575,32.042381
明孝陵,江苏,南京,南京,025,84431174;84433582,玄武区,陵园路明孝陵,景点,古代遗迹,118.840559,32.052154
莫愁湖景区,江苏,南京,南京,025,86661790,莫愁湖/水西门,水西门大街132号,景点,城市公园,118.763117,32.031766
侵华日军南京大屠杀遇难同胞纪念馆,江苏,南京,南京,025,86612230;180****9265,集庆门大街,水西门大街418号,景点,纪念馆,118.741802,32.035512
秦淮河,江苏,南京,南京,025,52300870,夫子庙地区,夫馆所泮池码头,景点,自然景观,118.792076,32.021229
清凉山公园,江苏,南京,南京,025,83736861,南大/南师大,清凉山路83号(近广州路),景点,公园/广场,118.760818,32.050146
神策门公园,江苏,南京,南京,025,,火车站/玄武湖,龙蟠路2号,景点,城市公园,118.787331,32.088917
石头城遗址公园,江苏,南京,南京,025,83313180,南大/南师大,虎踞路87号（近虎踞南路）,景点,古代遗迹,118.756271,32.048138
绣球公园,江苏,南京,南京,025,58804324,南京西站/阅江楼,下关街道中山北路406号（近湖南路）,景点,城市公园,118.74604,32.088879
玄武湖公园,江苏,南京,南京,025,83614286;58869797,火车站/玄武湖,玄武巷1号,景点,园林,118.798908,32.072358
月牙湖公园,江苏,南京,南京,025,84852370,苜蓿园,后标营51号,景点,城市公园,118.828468,32.029518
阅江楼风景区,江苏,南京,南京,025,58590292,南京西站/阅江楼,建宁路202号,景点,自然风光,118.74781,32.094833
南京云锦博物馆,江苏,南京,南京,025,86630749;86528055,河西,茶亭东街240号（侵华日军南京大屠杀遇难同胞纪念馆北）,景点,博物馆,118.744865,32.036572
瞻园,江苏,南京,南京,025,52201849;52201843,夫子庙地区,瞻园路128号,景点,园林,118.785164,32.021038
郑和公园,江苏,南京,南京,025,84419742,常府街/长白街,太平巷35号,景点,公园/广场,118.794495,32.031467
南京城墙中华门景区,江苏,南京,南京,025,86625435;85775181,秦虹村/中华门,中华路中华门城堡内,景点,古代遗迹,118.7817,32.012815
中山陵景区,江苏,南京,南京,025,84431174,玄武区,陵园路,景点,古代遗迹,118.854151,32.054538
紫金山天文台,江苏,南京,南京,025,84347503,玄武区,孝陵卫街道钟山风景名胜区内,景点,天文馆,118.829584,32.065067
紫霞湖公园,江苏,南京,南京,025,84431174;84433582,玄武区,中山陵园风景区明孝陵东北,景点,城市公园,118.844154,32.060699
康辉南京国际旅行社,江苏,南京,南京,025,83300885;83303344,南大/南师大,北京西路13号,景点,旅行社,118.779053,32.060139
康辉南京国际旅行社,江苏,南京,南京,025,85111546,山西路/湖南路,山西路68号颐和商厦20层,景点,旅行社,118.771576,32.067783
南京国际展览中心,江苏,南京,南京,025,86891118,火车站/玄武湖,龙蟠路88号,景点,展览馆,118.809098,32.074566
小桃园,江苏,南京,南京,025,,南京西站/阅江楼,热河南路街道,景点,城市公园,118.746307,32.078667
南京美术馆,江苏,南京,南京,025,84512018;84578599,常府街/长白街,四条巷12号（近常府街）,景点,美术馆,118.798546,32.034424
南京市规划建设展览馆,江苏,南京,南京,025,57717114;57715555,山西路/湖南路,玄武门22号（玄武门地铁站3号口旁）,景点,陈列馆,118.785301,32.070789
南视觉美术馆,江苏,南京,南京,025,83739973,南大/南师大,中山北路30号城市名人酒店43层,景点,美术馆,118.780731,32.062611
下马坊遗址公园,江苏,南京,南京,025,84431174,卫岗/下马坊,孝陵卫街道下马坊地铁站2号口西,景点,古代遗迹,118.844193,32.042591
天生桥景区,江苏,南京,溧水区,025,57225656;57204511,溧水区,天生桥大道500号,景点,自然风光,118.989098,31.644318
江宁织造博物馆,江苏,南京,南京,025,83416802,珠江路沿线,长江路123号,景点,博物馆,118.794075,32.042133
春秋旅行社门市部,江苏,南京,南京,025,83220910;83209320,新街口地区,正洪街18号东宇大厦9A1室,景点,旅行社,118.786377,32.039078
青龙山,江苏,南京,南京,025,,江宁区,福瑞路与202县道交叉口东侧,景点,自然风光,118.959122,31.893912
中青旅（江苏）国际旅行社,江苏,南京,南京,025,83196666,南大/南师大,新街口街道中山路268号汇杰广场9楼(近地铁大厦),景点,旅行社,118.784714,32.053696
1912街区,江苏,南京,南京,025,84517710,珠江路沿线,长江后街,景点,休闲街区,118.796219,32.045097
南京长江大桥,江苏,南京,南京,025,85821918;85822475,浦口区,宝塔桥东街7号,景点,现代建筑,118.742524,32.114103
南京携程国际旅行社,江苏,南京,南京,025,189****8899,新街口地区,汉中路169号金丝利商务楼14楼,景点,旅行社,118.771362,32.042236
水泊云天温泉会所,江苏,南京,南京,025,130****9182,奥体中心,滨江公园万景园路9号,景点,温泉,118.708943,32.010658
秋湖山,江苏,南京,溧水区,025,,溧水区,溧水医元想山景区内（东侧）,景点,自然风光,119.079788,31.571213
浡泥国王墓,江苏,南京,南京,025,,安德门/小行,铁心桥街道纬九路9号,景点,古代遗迹,118.758018,31.975761
高淳老街,江苏,南京,高淳区,025,57330757;57330559,高淳老街,中山大街3号,景点,创意园区,118.869225,31.319035
四平路广场,江苏,南京,南京,025,58806516,建宁路,建宁路街道建宁路00号,景点,广场,118.755478,32.093815
南师大仙林室外水上游乐场,江苏,南京,南京,025,85891221,仙林大学城,文苑路1号南京师范大学仙林校区,景点,水上乐园,118.91355,32.102232
求雨山文化名人纪念馆,江苏,南京,南京,025,58882034,江浦,江浦街道雨山路48号,景点,纪念馆,118.618942,32.055813
河西中央公园,江苏,南京,南京,025,87787878,国际博览中心/元通,江东中路河西大街339号（元通地铁站5号口步行310米）,景点,城市公园,118.72438,31.995983
竹山公园,江苏,南京,南京,025,,竹山路沿线,金箔路与小龙湾路交叉口往东150米,景点,城市公园,118.84182,31.948236
东水关遗址,江苏,南京,南京,025,58821770,夫子庙地区,龙蟠中路七里街20号,景点,古代遗迹,118.79908,32.022499
南京科技馆,江苏,南京,南京,025,58076111;58076158,南京南站/明发,紫荆花路9号（近玉兰山庄）,景点,科技馆,118.783797,31.986109
美龄宫,江苏,南京,南京,025,84431600,玄武区,中山陵9号,景点,名人故居,118.846581,32.045448
南京台旅观光国际旅行社,江苏,南京,南京,025,86812345;85812345,火车站/玄武湖,中央路417号先锋广场16层13室（近中央门）,景点,旅行社,118.783211,32.087624
熙南里,江苏,南京,南京,025,52231660,升州路/集庆路,洪武路街道中山南路400号（三山街地铁站2出口）,景点,休闲街区,118.780807,32.025352
金陵刻经处,江苏,南京,南京,025,84542531,新街口地区,淮海路社区淮海路35号,景点,古代遗迹,118.79103,32.037061
蒋百万故居,江苏,南京,南京,025,,秦虹村/中华门,双塘园25号,景点,名人故居,118.789368,32.011356
王伯沆周法高纪念馆,江苏,南京,南京,025,,夫子庙地区,边营98-1号,景点,纪念馆,118.790787,32.009834
邓愈墓,江苏,南京,南京,025,,安德门/小行,雨花南路48号,景点,古代遗迹,118.767586,31.994431
永宁陵石刻,江苏,南京,南京,025,,栖霞街道,甘家巷狮子冲,景点,古代遗迹,118.931358,32.135326
拉贝纪念馆,江苏,南京,南京,025,83597227,南大/南师大,广州路小粉桥1号,景点,纪念馆,118.783257,32.050644
南京航空烈士墓,江苏,南京,南京,025,85477129,玄武区,东郊紫金山北麓王家湾的东侧（近玄武大道）,景点,烈士陵园,118.848083,32.089352
七桥瓮生态湿地公园,江苏,南京,南京,025,86373359,秦淮区,友谊河路,景点,自然风光,118.833916,32.00737
东渡旅行社,江苏,南京,南京,025,84583688;84583788,瑞金路沿线,解放路105号（近瑞金路）,景点,旅行社,118.810654,32.032271
和平公园,江苏,南京,南京,025,,珠江路沿线,北京东路43号（鸡鸣寺地铁站5号口旁）,景点,公园/广场,118.79715,32.057503
滨江公园,江苏,南京,南京,025,86467501,奥体中心,扬子江大道228号,景点,公园/广场,118.70668,31.998226
明东陵,江苏,南京,南京,025,,玄武区,石象路7号中山陵园风景区明孝陵风景区,景点,古代遗迹,118.841644,32.055367
宏觉寺,江苏,南京,南京,025,52714567,江宁区,小湖路与幽栖路交叉口西100米,景点,宗教,118.747002,31.886908
林散之纪念馆,江苏,南京,南京,025,58882034;58883337,江浦,雨山路48号,景点,纪念馆,118.618462,32.055763
幕燕滨江风貌区,江苏,南京,南京,025,83576343,栖霞区,永济大道9号,景点,自然风光,118.796397,32.128494
八字山公园,江苏,南京,南京,025,,南京西站/阅江楼,中山北路419号,景点,城市公园,118.748291,32.085045
太平山公园,江苏,南京,南京,025,,尧化门街区,尧化街道新城路,景点,公园/广场,118.873695,32.129669
九龙湖公园,江苏,南京,南京,025,,九龙湖滨天地,苏源大道与清水亭西路交叉口东,景点,城市公园,118.811567,31.916779
佛手湖郊野公园,江苏,南京,南京,025,58138884,浦口区,沿山大道与浦镇大街交叉口西南角,景点,城市公园,118.65983,32.10787
八卦洲生态公园,江苏,南京,南京,025,,栖霞区,八卦洲洲头,景点,公园/广场,118.803285,32.154075
宝塔山森林公园,江苏,南京,南京,025,,弘阳广场/印象汇,大桥北路山面上（泰山新村地铁站1号口步行390米）,景点,森林公园,118.719284,32.14423
春江新城郊野公园,江苏,南京,南京,025,,西善桥/油坊桥,油坊中心路,景点,城市公园,118.729797,31.96232
营盘山公园,江苏,南京,南京,025,,锁金村/南京林业大学,石象路7号中山陵园风景区明孝陵景区内,景点,公园/广场,118.822121,32.062813
草桥清真寺,江苏,南京,南京,025,52209482,升州路/集庆路,甘雨巷26-32号,景点,宗教,118.77803,32.029438
东干长巷公园,江苏,南京,南京,025,,秦虹村/中华门,夫子庙街道江宁路2-1号雨花门城墙,景点,城市公园,118.788567,32.009693
西干长巷公园,江苏,南京,南京,025,,秦虹村/中华门,"西干长巷与凤台路交叉口东南角（近上码头路与窑湾街交叉口,近水榭华庭）",景点,城市公园,118.769699,32.01376
明岐阳王陵园,江苏,南京,南京,025,,火车站/玄武湖,蒋王庙街6号（蒋王庙地铁站1号口步行100米）,景点,古代遗迹,118.828568,32.079041
武庙古闸,江苏,南京,南京,025,,火车站/玄武湖,玄武巷1号玄武湖公园内,景点,宗教,118.799309,32.062447
天后宫,江苏,南京,南京,025,,升州路/集庆路,升州路488号,景点,宗教,118.772003,32.029259
宋晟墓,江苏,南京,南京,025,,虹悦城,雨花西路113号,景点,古代遗迹,118.769348,32.000668
音乐台,江苏,南京,南京,025,84431174;84433582,玄武区,石象路7号钟山风景名胜区中山陵园风景区内,景点,历史建筑,118.855382,32.055096
人人旅行社,江苏,南京,南京,025,84433000,常府街/长白街,太平南路2号日月大厦23层,景点,旅行社,118.793991,32.040112
江南水师学堂遗址,江苏,南京,南京,025,,南京西站/阅江楼,中山北路346号(近大桥南路),景点,历史建筑,118.751274,32.086811
明孝陵博物馆,江苏,南京,南京,025,84430117,玄武区,四方城1号,景点,博物馆,118.843201,32.04493
廖仲恺何香凝墓,江苏,南京,南京,025,84446111,玄武区,石象路7号中山陵园风景区天堡城下,景点,烈士陵园,118.829544,32.056435
孙权墓,江苏,南京,南京,025,,玄武区,石象路中山陵园风景区内,景点,古代遗迹,118.839543,32.049793
夫子庙大成殿,江苏,南京,南京,025,52209788;86620852,夫子庙地区,夫子庙景区贡院街152号,景点,宗教,118.788963,32.020634
王导谢安纪念馆,江苏,南京,南京,025,52231693,夫子庙地区,大石坝街81号,景点,纪念馆,118.789558,32.018635
南京大学鼓楼校区礼堂,江苏,南京,南京,025,,南大/南师大,汉口路22号南京大学鼓楼校区(近广州路),景点,景点/周边游,118.780556,32.056068
秦状元府,江苏,南京,南京,025,,夫子庙地区,长乐路57-59号秦淮民居群秦大士故居内,景点,历史建筑,118.787949,32.017395
古瓦官寺,江苏,南京,南京,025,85427206,升州路/集庆路,双塘街道花露北岗12号,景点,宗教,118.772713,32.017879
南京市中国旅行社有限公司新街口店,江苏,南京,南京,025,84727107;84727105,新街口地区,中山东路18号国际贸易大厦12楼C4（近新街口地铁站）,景点,旅行社,118.785645,32.041225
赵村水库,江苏,南京,南京,025,,江宁区,横溪街道吴楚东路与横云北路交叉口东北50米,景点,现代建筑,118.807442,31.661011
六合凤凰山公园,江苏,南京,南京,025,57758978,雄州,延安路47号（凤凰山公园地铁站3号口步行230米）,景点,公园/广场,118.842628,32.348827
前湖公园,江苏,南京,南京,025,139****5400,玄武区,石象路7号中山陵园风景区,景点,文化公园,118.830467,32.048126
南京市江宁方山,江苏,南京,南京,025,52715355;52712282,江宁大学城,天印大道,景点,自然风光,118.87738,31.895805
钟山风景区,江苏,南京,南京,025,84437786,玄武区,石象路7号,景点,自然风光,118.853828,32.063461
大行宫市民广场,江苏,南京,南京,025,138****9297,新街口地区,中山东路298号,景点,广场,118.797043,32.041866
春在阁,江苏,南京,南京,025,,夫子庙地区,长乐路174号白鹭洲公园内,景点,人文古迹,118.795395,32.018112
江苏省美术馆,江苏,南京,南京,025,89610810,珠江路沿线,长江路333号,景点,美术馆,118.798765,32.041466
集庆门游园,江苏,南京,南京,025,,升州路/集庆路,集庆路,景点,城市公园,118.76886,32.019463
汤山一号温泉度假区,江苏,南京,南京,025,84102290,汤山镇,汤山街道温泉路5号,景点,温泉,119.059814,32.050571
六合国家地质公园,江苏,南京,南京,025,57577818,六合区,353省道与421省道交叉口东南角,景点,公园/广场,118.935471,32.459377
萧恢墓石刻,江苏,南京,南京,025,,栖霞街道,栖霞镇甘家巷西新合村,景点,古代遗迹,118.917786,32.139427
东山文化休闲广场,江苏,南京,南京,025,,东山镇,上元大街东山文化休闲广场,景点,广场,118.829178,31.951979
江宁体育公园,江苏,南京,南京,025,138****7788,东山镇,金箔路518号,景点,城市公园,118.850571,31.948275
明御河公园,江苏,南京,南京,025,,瑞金路沿线,明御河路,景点,城市公园,118.814972,32.028873
秣陵关公园,江苏,南京,南京,025,,江宁区,故治路,景点,城市公园,118.836532,31.838146
石羊公园,江苏,南京,南京,025,,东山镇,天印大道与通湖路交叉口西北100米,景点,城市公园,118.857071,31.964096
太白遗址公园,江苏,南京,南京,025,,夫子庙地区,贡院街80-1号南京夫子庙,景点,城市公园,118.792374,32.020412
天印广场,江苏,南京,南京,025,68205888,东山镇,上元大街336号,景点,广场,118.841698,31.95171
西安门遗址公园,江苏,南京,南京,025,,瑞金路沿线,龙蟠中路202号,景点,古代遗迹,118.805428,32.038986
西流湾公园,江苏,南京,南京,025,,山西路/湖南路,西流湾与中山北路交汇处东侧,景点,城市公园,118.772591,32.070442
曹雪芹纪念馆,江苏,南京,南京,025,83714973,南大/南师大,华侨路街道广州路217号（南大）,景点,纪念馆,118.766678,32.04644
陈裕光先生故居,江苏,南京,南京,025,,南大/南师大,汉口路71号,景点,名人故居,118.770157,32.066486
夫子庙大照壁,江苏,南京,南京,025,,夫子庙地区,文德桥旁内秦淮河河畔,景点,古代遗迹,118.789711,32.019112
东华门遗址广场,江苏,南京,南京,025,84591490,瑞金路沿线,中山东路532号,景点,文化公园,118.821762,32.038124
凤凰台遗址,江苏,南京,南京,025,,升州路/集庆路,平江府路80-1号南京夫子庙-秦淮风光带内（西侧）,景点,古代遗迹,118.770508,32.017044
傅抱石纪念馆,江苏,南京,南京,025,83720987,山西路/湖南路,宁海路街道汉口西路132号,景点,纪念馆,118.768272,32.055065
韩恢墓,江苏,南京,南京,025,,苜蓿园,宁杭公路卫岗西6号小区北门,景点,烈士陵园,118.83683,32.039814
交通银行南京分行旧址,江苏,南京,南京,025,,新街口地区,中山东路1号（新街口地铁站7号口步行70米）,景点,历史建筑,118.784683,32.042145
金粟庵,江苏,南京,南京,025,52255785,升州路/集庆路,五福街18号,景点,宗教,118.771366,32.020502
李鸿章祠堂,江苏,南京,南京,025,,常府街/长白街,常府街四条巷77号,景点,宗教,118.79837,32.037243
李文忠墓,江苏,南京,南京,025,,火车站/玄武湖,蒋王庙街6号（蒋王庙地铁站1号口步行270米）,景点,古代遗迹,118.828445,32.079021
李宗仁公馆旧址,江苏,南京,南京,025,,山西路/湖南路,傅厚岗30号后楼,景点,历史建筑,118.781685,32.065357
励志社旧址,江苏,南京,南京,025,84818888,珠江路沿线,中山东路307号钟山宾馆内,景点,古代遗迹,118.811813,32.040489
刘伯承广场,江苏,南京,南京,025,,建宁路,建宁路405号（长江大桥）,景点,广场,118.75444,32.094254
幕燕风景区,江苏,南京,南京,025,83576343,五塘村,永济大道,景点,自然风光,118.78215,32.115269
南山湖旅游度假区,江苏,南京,南京,025,86125565;86124666,江宁区,铜井镇南山湖旅游度假村,景点,自然景观,118.59505,31.767403
秦大士故居,江苏,南京,南京,025,86772965,夫子庙地区,长乐路57-61号,景点,名人故居,118.787949,32.017326
阮籍墓,江苏,南京,南京,025,,升州路/集庆路,花露北岗17号,景点,古代遗迹,118.77195,32.017628
天主堂,江苏,南京,南京,025,84706863,新街口地区,石鼓路112号（近愁莫街）,景点,宗教,118.778268,32.041038
宋墅石刻,江苏,南京,南京,025,,江宁大学城,望溪路（南京高速齿轮制造有限公司南侧）,景点,古代遗迹,118.909233,31.932884
天王府遗址,江苏,南京,南京,025,,新街口地区,梅园新村街道长江路292号（总统府内）,景点,古代遗迹,118.797798,32.043972
陶行知纪念馆,江苏,南京,南京,025,85331839,晓庄广场,和燕路晓庄村131号,景点,纪念馆,118.809929,32.121876
头陀岭景区,江苏,南京,南京,025,85412720,玄武区,石象路7号钟山风景名胜区内,景点,自然风光,118.851974,32.06741
文德桥,江苏,南京,南京,025,52209788,夫子庙地区,夫子庙风景区内,景点,历史建筑,118.789169,32.019341
窨子山遗址,江苏,南京,南京,025,,秦虹/大明路,大明路与窨子山路交叉口西北70米,景点,古代遗迹,118.802155,31.989349
南京银杏湖乐园,江苏,南京,南京,025,86139999;68132099,江宁区,银杏湖大道520号,景点,主题乐园,118.712037,31.798708
愚园,江苏,南京,南京,025,58361190,升州路/集庆路,鸣羊街胡家花园1号,景点,园林,118.773766,32.015939
原国民政府旧址,江苏,南京,南京,025,,瑞金路沿线,中山东路313号,景点,革命旧址,118.821632,32.040108
中国国货银行旧址,江苏,南京,南京,025,84702392,新街口地区,中山路19号（新街口地铁站6号口步行140米）,景点,历史建筑,118.783821,32.043037
中山陵博爱广场,江苏,南京,南京,025,84437786;84431174,玄武区,钟山风景区,景点,公园/广场,118.853813,32.05616
南京师范大学随园校区-皇家艺术馆,江苏,南京,南京,025,83728792,南大/南师大,宁海路122号,景点,美术馆,118.7701,32.053261
玄武湖管理处摄影服务部,江苏,南京,南京,025,83212148,火车站/玄武湖,玄武巷1号,景点,公园/广场,118.787308,32.070866
东方航空国际旅行社,江苏,南京,南京,025,68158658,新街口地区,洪武路334号,景点,旅行社,118.78622,32.030784
南京旅游集散中心,江苏,南京,南京,025,85683660,升州路/集庆路,中山南路400号熙南里街区内（升州路口）,景点,旅行社,118.780243,32.024895
百家湖博物馆,江苏,南京,南京,025,52103689,百家湖,利源中路33号百家湖美术馆4层,景点,博物馆,118.807799,31.939547
地球科学博物馆,江苏,南京,南京,025,83594858,南大/南师大,南京大学田家炳艺术书院4楼(汉口路22号),景点,博物馆,118.776337,32.058552
观江艺术馆,江苏,南京,南京,025,,草场门/龙江,北京西路72号,景点,美术馆,118.756783,32.061138
黄裳将军故居,江苏,南京,南京,025,,珠江路沿线,汉府街3号,景点,名人故居,118.801849,32.041927
建邺区历史展览馆,江苏,南京,南京,025,,莫愁湖/水西门,水西门大街58号建邺大厦2楼,景点,陈列馆,118.766352,32.031102
江苏科技馆,江苏,南京,南京,025,83759030;83759018,草场门/龙江,石头城路118号,景点,科技馆,118.749878,32.066067
江苏省国画院,江苏,南京,南京,025,83721939,草场门/龙江,虎踞路175-1号,景点,展览馆,118.755264,32.055855
金箔艺术馆,江苏,南京,南京,025,52197477,东山镇,金箔路58号金元宝大酒店,景点,美术馆,118.858574,31.952847
气象博物馆,江苏,南京,南京,025,83287058,珠江路沿线,北极阁2号,景点,博物馆,118.790207,32.060425
群众艺术馆,江苏,南京,南京,025,,火车站/玄武湖,峨嵋路12号,景点,美术馆,118.789284,32.061237
魏源故居,江苏,南京,南京,025,83714973,环宇城,龙蟠里20号,景点,名人故居,118.765343,32.046501
徐悲鸿纪念馆南京馆,江苏,南京,南京,025,,山西路/湖南路,傅厚岗4号,景点,纪念馆,118.785362,32.065025
颜鲁公祠,江苏,南京,南京,025,83733052,南大/南师大,华侨路街道广州路217号乌龙潭公园内,景点,宗教,118.766731,32.047301
杨廷宝故居,江苏,南京,南京,025,,珠江路沿线,成贤街104号（新街口）,景点,名人故居,118.795982,32.054173
艺兰斋美术馆,江苏,南京,南京,025,86454401,奥体中心,江苏大剧院南70米,景点,美术馆,118.71519,32.008695
逸夫科技馆,江苏,南京,南京,025,83795933,珠江路沿线,进香河路38号,景点,科技馆,118.791687,32.055496
长风堂博物馆,江苏,南京,南京,025,86882760,火车站/玄武湖,北京东路22号和平大厦16层（鸡鸣寺）,景点,博物馆,118.798599,32.057045
爱尚街区,江苏,南京,南京,025,139****7856,仙林大学城,文范路9号康桥圣菲旁（近地铁学则路站）,景点,休闲街区,118.915253,32.094929
垠坤创意中央科技文化园,江苏,南京,南京,025,83227688,火车站/玄武湖,中央路302号,景点,休闲街区,118.78537,32.087654
百家湖,江苏,南京,南京,025,52074033,百家湖,白龙桥路与佳湖东路交叉口,景点,自然风光,118.812927,31.936026
基督教莫愁路堂,江苏,南京,南京,025,,新街口地区,莫愁路390号（上海路地铁站1号口步行360米）,景点,宗教,118.77552,32.039275
紫峰大厦,江苏,南京,南京,025,,紫峰购物广场,中山北路2号,景点,高空观景,118.782906,32.060852
南京晨光1865创意产业园,江苏,南京,南京,025,83221865,秦虹村/中华门,应天大街388号,景点,创意园区,118.78814,32.00715
花神湖,江苏,南京,南京,025,,南京南站/明发,紫荆花路9号（近南京科技馆正门）,景点,自然风光,118.788773,31.986692
南京金牛湖风景区,江苏,南京,南京,025,57552888,六合区,金牛湖街道,景点,自然风光,118.982368,32.473354
华江商务旅行社,江苏,南京,南京,025,68535993;68535994,新城市/虹桥中心,中山北路281号虹桥新城市广场821A（近和会街）,景点,旅行社,118.762665,32.076649
康辉旅行社,江苏,南京,南京,025,84577771;84577772,新街口地区,洪武路267号洪武大厦1205室,景点,旅行社,118.787553,32.033101
太子山公园,江苏,南京,南京,025,57792410,大厂,大厂街道江北新区园东路280号,景点,城市公园,118.754608,32.218826
舜天海外旅游,江苏,南京,南京,025,4006666922,安德门/小行,软件大道119号丰盛商汇1号楼5楼,景点,旅行社,118.762563,31.976403
磨盘街,江苏,南京,南京,025,52271533,升州路/集庆路,双塘街道,景点,观光街区,118.777895,32.015909
光华门,江苏,南京,南京,025,,瑞金路沿线,中和桥路1号石林家居广场(中和桥店)F1层,景点,人文古迹,118.816978,32.023232
中圣南街,江苏,南京,南京,025,,凤凰大街,江浦街道,景点,观光街区,118.626152,32.055855
滨江广场,江苏,南京,南京,025,180****9789,草场门/龙江,江东北路301号（龙江地铁站4号口步行60米）,景点,公园/广场,118.738853,32.058586
老学堂创意园区,江苏,南京,南京,025,58592888,南京西站/阅江楼,中山北路350号,景点,休闲街区,118.748138,32.086857
金鹰旅行社,江苏,南京,南京,025,68515177;68517873,新街口地区,中山东路18号南京国际贸易中心11层,景点,旅行社,118.785652,32.041229
南京百事通旅游,江苏,南京,南京,025,58709216,夫子庙地区,健康路127号悦华大酒店内（近太平南路）,景点,旅行社,118.787117,32.023632
左山右水,江苏,南京,南京,025,86702311,苜蓿园,苜蓿园大街33号,景点,自然景观,118.829658,32.033698
弘阳·未来世界,江苏,南京,南京,025,58195656,弘阳广场/印象汇,大桥北路48号南京弘阳广场B2馆F1层,景点,游乐场,118.725357,32.138313
南师大植物园,江苏,南京,南京,025,,仙林大学城,文苑路1号,景点,植物园,118.91109,32.106398
康辉南京国际旅行社,江苏,南京,南京,025,86645575;86645577,新城市广场,龙江小区龙园西路23号,景点,旅行社,118.742065,32.055397
大市口广场,江苏,南京,南京,025,86183700,东山镇,上元大街与土山路,景点,广场,118.843201,31.95369
翠屏山公园,江苏,南京,南京,025,,开发区,将军大道翠屏山路帝景天成附近,景点,公园/广场,118.785835,31.928032
中天国际旅行社,江苏,南京,南京,025,83206458;137****2486,新街口地区,洪武路199号长发银座B座503室,景点,旅行社,118.787761,32.035184
南京十朝历史文化陈列馆,江苏,南京,南京,025,89601396;89601398,苜蓿园,陵园路钟山风景区四方城1号,景点,陈列馆,118.843033,32.044449
青年国际旅行社,江苏,南京,南京,025,83604980;83227129,南瑞路/新模范马路,中央路264号9号楼1楼,景点,旅行社,118.785622,32.080982
南京绿地御豪温泉,江苏,南京,南京,025,84109999,汤山镇,汤山街道汤泉东路288号近铜龙省道（汤山地铁站3号口旁）,景点,温泉,119.067238,32.048347
康辉南京国际旅行社总部,江苏,南京,南京,025,139****5687,建宁路,建宁路中央金地B座,景点,旅行社,118.770019,32.092029
夫子庙秦淮河画舫,江苏,南京,南京,025,52300870,夫子庙地区,夫子庙街道贡院街152号（近夫子庙地铁站2号口）,景点,河道观光,118.789932,32.020004
挹江门,江苏,南京,南京,025,58827597,南京西站/阅江楼,中山北路398号（绣球公园）,景点,人文古迹,118.746857,32.086693
古岸艺术中心,江苏,南京,南京,025,84536277,新街口地区,中山东路189号,景点,美术馆,118.795715,32.042015
大金山风景区,江苏,南京,溧水区,025,57492777,东屏镇,金山路99号（近东屏湖）,景点,自然风光,119.120857,31.692019
原野国际旅行社,江苏,南京,南京,025,52228741,三牌楼,三牌楼大街238号钟阜大厦5层,景点,旅行社,118.762299,32.081886
长江观音景区,江苏,南京,南京,025,83576343,栖霞区,永济大道9号,景点,宗教,118.79447,32.126744
银林生态园,江苏,南京,高淳区,025,57831777,高淳区,芜山路与东沛路交叉口北340米,景点,动物园,119.04321,31.307249
体育公园,江苏,南京,南京,025,,玄武区,孝陵卫灵谷寺8号,景点,公园/广场,118.870647,32.045433
六合龙池湖,江苏,南京,南京,025,,龙池/时代广场,环龙池路,景点,自然风光,118.816452,32.325138
鼓楼广场,江苏,南京,南京,025,,山西路/湖南路,中央路2号电信大厦南侧,景点,广场,118.783844,32.058823
正大国际旅行社,江苏,南京,南京,025,68991199,夫子庙地区,夫子庙街道瞻园路11号南京古玩城8022号(近夫子庙),景点,旅行社,118.786766,32.019123
畔池园,江苏,南京,高淳区,025,,高淳老街,宝塔路（近实验小学）,景点,城市公园,118.872131,31.321669
江苏广电石湫影视基地,江苏,南京,溧水区,025,56615222,溧水区,石湫街道影视大道1号,景点,影视基地,118.899742,31.658219
江苏夕阳红国际旅行社,江苏,南京,南京,025,84467501;133****3870,新街口地区,中山南路321号现代大厦503室,景点,旅行社,118.783414,32.025164
旅游百事通,江苏,南京,南京,025,189****1861;189****3002,新街口地区,石鼓路42号建华大厦6层B-1室,景点,旅行社,118.782127,32.039486
湖熟清真寺,江苏,南京,南京,025,,湖熟镇,水北大街15号,景点,宗教,118.98307,31.861883
天马旅行社,江苏,南京,南京,025,58362926,大厂,晓山路101号瑞凯国际5楼,景点,旅行社,118.738945,32.219868
石塘人家,江苏,南京,南京,025,52736886,江宁区,石塘村（近石塘竹海）,景点,特色乡村,118.712601,31.720358
康辉南京国际旅行社,江苏,南京,南京,025,138****5596,新街口地区,中山南路230号南京安瑞商务大厦5层508室,景点,旅行社,118.783623,32.034084
海外旅行社,江苏,南京,南京,025,52228757,三牌楼,三牌楼大街238号5楼506室,景点,旅行社,118.762297,32.081837
南京金棕榈旅行社有限公司,江苏,南京,南京,025,68157995;68157996,新街口地区,侯家桥16号1号楼,景点,旅行社,118.773705,32.038818
芥墨艺术馆,江苏,南京,南京,025,84699096;52655656,火车站/玄武湖,中央路302号创意中央产业园11栋,景点,美术馆,118.785881,32.08754
1865凡德文化艺术街区,江苏,南京,南京,025,,秦虹村/中华门,应天大街388号南京晨光1865创意产业园A1楼,景点,休闲街区,118.784843,32.006165
文华国际旅行社,江苏,南京,南京,025,68750304,莫愁湖/水西门,南湖东路35号,景点,旅行社,118.762421,32.026344
雨花台烈士纪念馆,江苏,南京,南京,025,52411523;68783044,雨花台区,雨花路215号,景点,纪念馆,118.780502,31.997244
东山香樟园,江苏,南京,南京,025,52715668,东山镇,共建路999号,景点,植物园,118.842438,31.97427
平顶山公园,江苏,南京,南京,025,,大厂,新华路33号,景点,城市公园,118.769157,32.236431
南京青春国际旅行社,江苏,南京,南京,025,68092811;68092822,三牌楼,光华路166号301室,景点,旅行社,118.768387,32.074005
托马斯国际旅行社,江苏,南京,南京,025,66929379,夫子庙地区,瞻园路19号铭楼631室,景点,旅行社,118.785805,32.019604
联创旅行社,江苏,南京,南京,025,189****3722,新街口地区,朝天宫街道俞家巷与南台巷交叉口东南50米,景点,旅行社,118.780746,32.036823
外秦淮河风光带,江苏,南京,南京,025,,夫子庙地区,钞库街,景点,人文古迹,118.78949,32.0201
同业国际旅行社,江苏,南京,南京,025,66064566,竹山路沿线,天元中路68号,景点,旅行社,118.839807,31.931237
门东历史文化街区,江苏,南京,南京,025,58776868,秦虹村/中华门,箍桶巷与剪子巷交汇处,景点,步行街,118.787619,32.011651
南京市中国旅行社有限公司中山南路第一营业部,江苏,南京,南京,025,,新城市/虹桥中心,中山北路202-1号,景点,旅行社,118.764654,32.076012
原野国际旅行社,江苏,南京,南京,025,52120778,胜太路沿线,胜太东路2号,景点,旅行社,118.82254,31.944601
澳青旅行社,江苏,南京,南京,025,68216084;68216090,万达广场,万达广场G座901室,景点,旅行社,118.737146,32.02987
云幽谷旅游区,江苏,南京,南京,025,52899999,浦口区,龙井社区（近宁合高速侯庄立交桥）,景点,更多景点/周边游,118.538509,32.024571
白苑,江苏,南京,南京,025,83370246,火车站/玄武湖,玄武巷1号玄武湖公园梁洲内,景点,更多景点/周边游,118.79483,32.076195
星空旅行社,江苏,南京,南京,025,187****5629,新街口地区,户部街33号天之都大厦1505室,景点,旅行社,118.788455,32.035255
傅家边农业科技园,江苏,南京,溧水区,025,68811728,傅家边草莓园,洪蓝镇,景点,动植物园,119.029787,31.564117
紫清湖森林温泉,江苏,南京,南京,025,87127777;84985933,汤山镇,汤山镇环镇北路8号,景点,温泉,119.031951,32.066171
舜天海外旅游,江苏,南京,南京,025,186****5535;186****9565,珠江路沿线,鱼市街57号,景点,旅行社,118.786743,32.05125
江苏缤纷假期国际旅行社,江苏,南京,南京,025,83172704,南大/南师大,广州路5号君临国际2栋2203室,景点,旅行社,118.782402,32.049747
玉屏国际旅行社,江苏,南京,南京,025,66030338,新街口地区,正洪街18号东宇大厦15楼,景点,旅行社,118.786377,32.039074
协和国际旅行社,江苏,南京,南京,025,68853826;68959126,珠江路沿线,珠江路88号3501室,景点,旅行社,118.788719,32.049376
中北友好旅行社,江苏,南京,南京,025,83285088,珠江路沿线,洪武北路红庙八号,景点,旅行社,118.789411,32.047921
中北友好旅行社,江苏,南京,南京,025,52856666;52856688,秦虹村/中华门,旭光西路与龙蟠南路辅路交叉口东20米,景点,旅行社,118.796722,32.006916
皇家国际旅行社,江苏,南京,南京,025,89605330,火车站/玄武湖,中央路302-8号,景点,旅行社,118.784477,32.087898
海外原野旅行社,江苏,南京,南京,025,83303477,南大/南师大,广州路140号随园大厦,景点,旅行社,118.781456,32.050266
北湖艺坊,江苏,南京,南京,025,58869020,火车站/玄武湖,玄武巷1号（玄武湖景区）,景点,更多景点/周边游,118.788567,32.067928
秦淮渔唱休闲水街,江苏,南京,南京,025,,夫子庙地区,白鹭洲公园东侧,景点,休闲街区,118.795837,32.014626
泰亿步行街,江苏,南京,南京,025,189****8018,南京信息工程大学,大厂街道草芳路1号,景点,步行街,118.734917,32.214676
太平天国建筑,江苏,南京,南京,025,,升州路/集庆路,平江府路80-1号南京夫子庙秦淮风光带内(北侧),景点,历史建筑,118.782539,32.022278
古秦淮夫子庙步行街,江苏,南京,南京,025,52209788,夫子庙地区,夫子庙街道贡院街80-1号,景点,休闲街区,118.789368,32.021519
中国旅行社,江苏,南京,南京,025,52225116;52215200,升州路/集庆路,双塘街道集庆路244号,景点,旅行社,118.770226,32.019406
六朝旅行社,江苏,南京,南京,025,52266502,夫子庙地区,中华路363号中华园商住楼313室,景点,旅行社,118.784012,32.019409
中国旅行社,江苏,南京,南京,025,52306129,秦虹/大明路,永乐路风光里28号,景点,旅行社,118.805061,31.995478
青奥国际风情街,江苏,南京,南京,025,,奥体中心,青奥北路5号,景点,步行街,118.705971,31.989906
基督教江心洲堂,江苏,南京,南京,025,,奥体中心,永定街悦江苑南门对面,景点,宗教,118.692456,32.022709
李白纪念塔,江苏,南京,南京,025,,奥体中心,石湿地风景区附近,景点,历史建筑,118.672023,31.988559
江心湖展览馆,江苏,南京,南京,025,,奥体中心,洲秦路江枫绿洲宾馆西北侧约40米,景点,陈列馆,118.701076,32.006366
凰凤楼,江苏,南京,南京,025,,奥体中心,江堤路,景点,历史建筑,118.671933,31.989253
第一会议室,江苏,南京,南京,025,,莫愁湖/水西门,人力资源市场2层,景点,景点/周边游,118.766332,32.030582
美军顾问团公寓旧址,江苏,南京,南京,025,,南大/南师大,北京西路67号华东饭店,景点,历史建筑,118.761627,32.059689
中英文化协会旧址,江苏,南京,南京,025,,南大/南师大,北京西路41号,景点,历史建筑,118.767593,32.059669
外办江苏国际交流中心,江苏,南京,南京,025,83306123,山西路/湖南路,云南路31-1号苏建大厦24层,景点,景点/周边游,118.775246,32.059986
房产档案馆,江苏,南京,南京,025,84714939,新街口地区,华侨路52号,景点,展览馆,118.779289,32.046791
熊斌旧居,江苏,南京,南京,025,,山西路/湖南路,江苏路29号,景点,名人故居,118.770208,32.064268
中山友好国旅,江苏,南京,南京,025,83601366;83601566,草场门/龙江,清凉门大街1号环宇城4号出入口,景点,旅行社,118.753765,32.044885
会议室,江苏,南京,南京,025,,山西路/湖南路,山西路67号世贸中心大厦A2座8层07室,景点,景点/周边游,118.770101,32.065471
中国国际旅行社有限公司,江苏,南京,南京,025,,南大/南师大,宁海路128号敬师楼大酒店一楼大堂,景点,旅行社,118.771193,32.05229
五环彩票博物馆,江苏,南京,南京,025,,南大/南师大,虎踞路69号金厦山庄1幢,景点,博物馆,118.758278,32.047211
王府名殿广场,江苏,南京,南京,025,83226208,山西路/湖南路,云南北路49号天星翠琅大厦,景点,广场,118.779037,32.065758
中国旅行社,江苏,南京,南京,025,83432939,南瑞路/新模范马路,南昌路19-5号,景点,旅行社,118.782033,32.081027
张闻天陈列馆,江苏,南京,南京,025,,南大/南师大,西康路1号,景点,陈列馆,118.758034,32.055717
正大园,江苏,南京,南京,025,,南大/南师大,虎踞南路2号（汉中门地铁站2号口步行180米）,景点,城市公园,118.764969,32.042297
法国驻中华民国大使馆旧址,江苏,南京,南京,025,,山西路/湖南路,湖南路街道高云岭56号西门（玄武门地铁站出入口步行270米）,景点,历史建筑,118.782379,32.068001
吴贻芳纪念馆,江苏,南京,南京,025,83720987,南大/南师大,宁海路122号南京师范大学随园校区,景点,纪念馆,118.769334,32.05208
薛岳旧居,江苏,南京,南京,025,,山西路/湖南路,江苏路23号,景点,名人故居,118.77076,32.063751
南京师范大学随园校区金陵女子学院校史金女院院史陈列室,江苏,南京,南京,025,,南大/南师大,宁海路122号,景点,陈列馆,118.769348,32.052071
湖南路管委会会议室,江苏,南京,南京,025,,山西路/湖南路,湖南路街道湖北路90号北侧,景点,景点/周边游,118.777206,32.068001
旅游百事通,江苏,南京,南京,025,84527108,南京西站/阅江楼,多伦路46-1号,景点,旅行社,118.753136,32.087963
首都饭店旧址,江苏,南京,南京,025,,山西路/湖南路,中山北路178号华江饭店内,景点,历史建筑,118.770401,32.071957
紫微星旅行社有限责任公司,江苏,南京,南京,025,83247118,南大/南师大,广州路188苏宁环球大厦2层-B,景点,旅行社,118.774864,32.051094
英国驻中华民国大使馆旧址,江苏,南京,南京,025,,三牌楼,挹江门街道虎踞北路185号南京友好大厦,景点,历史建筑,118.75351,32.083141
南京港龙旅行社,江苏,南京,南京,025,,山西路/湖南路,云南北路81号6楼,景点,旅行社,118.771439,32.067902
洋洋旅行社有限公司,江苏,南京,南京,025,,火车站/玄武湖,黑龙江路417号,景点,旅行社,118.782974,32.087536
邵力子旧居,江苏,南京,南京,025,,南大/南师大,剑阁路27号,景点,名人故居,118.769484,32.055604
安溪铁观音,江苏,南京,南京,025,58831880;139****6796,热河南路/三汊河,热河南路59号,景点,景点/周边游,118.739136,32.075016
京康辉国际旅行社,江苏,南京,南京,025,,山西路/湖南路,云南北路83号天鹤文云商务大厦6层,景点,旅行社,118.780823,32.06739
国民政府最高法院旧址,江苏,南京,南京,025,,南大/南师大,中山北路101号,景点,古代遗迹,118.774879,32.065807
兴宝美术馆,江苏,南京,南京,025,137****6618,和燕路,和燕路63号,景点,美术馆,118.79541,32.096104
金航假期旅行社,江苏,南京,南京,025,85033488;85624545,建宁路,建宁路18号中电熊猫贸易发展有限公司综合楼4层,景点,旅行社,118.774819,32.091589
热河路广场,江苏,南京,南京,025,,热河南路/三汊河,热河路8号,景点,广场,118.742432,32.086929
顾昊墓石刻,江苏,南京,南京,025,,浦口区,202县道,景点,古代遗迹,118.657774,32.108039
城南河广场,江苏,南京,南京,025,,江浦,河滨路55号,景点,广场,118.629593,32.05595
石佛寺,江苏,南京,南京,025,,浦口区,顶山街道浦珠中路357号,景点,宗教,118.667859,32.098189
地藏庵,江苏,南京,南京,025,,浦口区,老山林场沿山大道生态路附近,景点,宗教,118.559608,32.052319
珍珠泉名石艺术馆,江苏,南京,南京,025,58601515,浦口区,珍珠街157号,景点,美术馆,118.655303,32.120137
桥林基督教堂,江苏,南京,南京,025,,浦口区,西河沿街,景点,宗教,118.530945,31.939835
前街基督教堂,江苏,南京,南京,025,,金宁广场,前街24号,景点,宗教,118.840546,32.341408
古刹七佛寺,江苏,南京,南京,025,,浦口区,珍七路102号,景点,宗教,118.608238,32.095062
鹞子山风景区,江苏,南京,南京,025,,浦口区,张乐路与张圩路交叉口东南300米,景点,自然风光,118.480347,32.071159
佛手湖国际艺术会展中心,江苏,南京,南京,025,,浦口区,里黑路东50米,景点,展览馆,118.643938,32.111302
河沿基督教堂,江苏,南京,南京,025,,浦口区,601县道北50米,景点,宗教,118.430569,31.936109
明因寺,江苏,南京,南京,025,,浦口区,龙周线与桥百线交叉口东南方向80米,景点,宗教,118.528931,31.950537
德高旅游,江苏,南京,南京,025,58189569,江浦,文昌路雨山新村,景点,旅行社,118.620628,32.056927
梁小教堂,江苏,南京,南京,025,,浦口区,绕城公路龙山圆盘,景点,宗教,118.53009,32.005535
河滨公园,江苏,南京,南京,025,,江浦,南门上河街12-7号,景点,公园/广场,118.631134,32.054935
真相寺,江苏,南京,南京,025,,浦口区,玉兰路4号,景点,宗教,118.571975,32.126565
森林驿站,江苏,南京,南京,025,,浦口区,黄山岭路90号南京老山国家森林公园内,景点,更多景点/周边游,118.605377,32.098747
求雨山文化公园,江苏,南京,南京,025,,江浦,江浦街道雨山路18号,景点,文化公园,118.616364,32.057175
老山鹭鸟园,江苏,南京,南京,025,,浦口区,玉兰路4号,景点,动物园,118.582893,32.114735
林散之故居,江苏,南京,南京,025,58882034,浦口区,故居路与林驷路交叉口西北50米,景点,名人故居,118.478561,31.857409
康辉旅游,江苏,南京,南京,025,58885278;58885268,江浦,珠泉路3-52号,景点,旅行社,118.636322,32.058674
弘德寺,江苏,南京,南京,025,,江浦,31号,景点,宗教,118.615501,32.060539
江北龙旅游公司,江苏,南京,南京,025,58111711,凤凰大街,凤凰大街1号2楼,景点,旅行社,118.627167,32.056774
石东线基督教堂,江苏,南京,南京,025,,浦口区,星甸街道石石路,景点,宗教,118.377857,31.937204
国民政府旧址,江苏,南京,南京,025,,珠江路沿线,北京东路41号（鸡鸣寺地铁站5号口步行120米）,景点,历史建筑,118.796463,32.05835
书法碑廊,江苏,南京,南京,025,,火车站/玄武湖,西家大塘46号,景点,更多景点/周边游,118.793121,32.064697
斯霞纪念馆,江苏,南京,南京,025,,珠江路沿线,进香河路26号,景点,纪念馆,118.790962,32.054569
泰康旅行社,江苏,南京,南京,025,,南大/南师大,中山路248号四方商务5楼,景点,旅行社,118.784386,32.052433
梅庵,江苏,南京,南京,025,,珠江路沿线,四牌楼2号东南大学四牌楼校区内,景点,宗教,118.791328,32.057602
中国国旅CITS,江苏,南京,南京,025,68950001,珠江路沿线,太平北路51号太平商务大厦1楼,景点,旅行社,118.795375,32.047775
中央研究院旧址,江苏,南京,南京,025,,珠江路沿线,北京东路39号(鸡鸣寺地铁站5号口步行240米),景点,历史建筑,118.794693,32.058674
琵琶街,江苏,南京,南京,025,84437786,夫子庙地区,平江府路80-1号号铺,景点,休闲街区,118.790596,32.019096
南京抗日航空烈士纪念馆,江苏,南京,南京,025,85477129,樱驼花园/花园路,蒋王庙街289号国际抗日航空烈士公园内,景点,纪念公园,118.845901,32.08913
孙科公馆,江苏,南京,南京,025,80891600,玄武区,中山陵园风景区8号,景点,历史建筑,118.847115,32.055275
吴健雄纪念馆,江苏,南京,南京,025,83795569;83794738,珠江路沿线,四牌楼2号,景点,纪念馆,118.793388,32.055454
中大校友会堂,江苏,南京,南京,025,,珠江路沿线,四牌楼2号东南大学2楼,景点,景点/周边游,118.79277,32.053658
徐庄软件园狮子山公园,江苏,南京,南京,025,,徐庄软件园,环园东路南京徐庄高新技术产业园,景点,公园/广场,118.887489,32.092381
白鹭旅游集散中心,江苏,南京,南京,025,,珠江路沿线,珠江路191号希望商务中心4层403号,景点,旅行社,118.787902,32.050132
中山陵游客中心,江苏,南京,南京,025,85769047,玄武区,孝陵卫街道中山陵商业街6号楼,景点,公园/广场,118.851624,32.054916
桃李园,江苏,南京,南京,025,,珠江路沿线,中山北路105号,景点,城市公园,118.79509,32.056343
中国国际旅行社,江苏,南京,南京,025,83342600,珠江路沿线,丹凤街6号-1,景点,旅行社,118.787399,32.055218
周光裕塑像碑记,江苏,南京,南京,025,83614286;58869797,火车站/玄武湖,玄武巷1号玄武湖公园内,景点,人文古迹,118.793625,32.086052
圆觉宗诺那师佛纪念馆,江苏,南京,南京,025,,火车站/玄武湖,湖环洲东北角,景点,纪念馆,118.795135,32.073082
中国现代玉文化艺术苑,江苏,南京,南京,025,,玄武区,石象路7号中山陵园风景区陵派出所对面,景点,美术馆,118.840027,32.045929
莲花广场,江苏,南京,南京,025,,火车站/玄武湖,南京玄武湖公园,景点,公园/广场,118.794144,32.074211
东华湖,江苏,南京,南京,025,,瑞金路沿线,御道街29号,景点,自然风光,118.820457,32.03688
中山国际旅行社,江苏,南京,南京,025,135****8298,新街口地区,朝天宫街道三茅巷6-4,景点,旅行社,118.778249,32.038209
南京国旅,江苏,南京,南京,025,86646091,常府街/长白街,太平南路333号金陵御景园F座7层,景点,旅行社,118.791985,32.031216
中山国际旅行社,江苏,南京,南京,025,,瑞金路沿线,常府街福安里4-5号(常府街地铁站3号口步行300米),景点,旅行社,118.79615,32.033394
捷诚旅游公司,江苏,南京,南京,025,52993044,新街口地区,中山南路219号一7(张府园地铁站1号口步行270米),景点,旅行社,118.784363,32.033806
童寯住宅,江苏,南京,南京,025,,常府街/长白街,五老村街道,景点,历史建筑,118.795227,32.03677
江苏省艺术展览馆,江苏,南京,南京,025,,新街口地区,中山南路89号江苏文化大厦05层,景点,美术馆,118.784554,32.037132
南京市中国旅行社,江苏,南京,南京,025,84415983,常府街/长白街,户部街九莲塘12楼101室,景点,旅行社,118.794327,32.033607
中国国际旅行社,江苏,南京,南京,025,,瑞金路沿线,瑞金路50号—12临,景点,旅行社,118.815109,32.031647
中国洋河名家画院,江苏,南京,南京,025,,瑞金路沿线,大光路188号锦江丽舍315室,景点,展览馆,118.803299,32.027065
凤凰假期旅游有限公司,江苏,南京,南京,025,,新街口地区,中山南路315号22F2207-2209,景点,旅行社,118.783272,32.025803
时公祠,江苏,南京,高淳区,025,,高淳区,高淳县茶王路,景点,宗教,119.074684,31.341509
驼峰古社寺庙,江苏,南京,高淳区,025,,高淳区,高淳县驼头路,景点,宗教,118.944191,31.320631
红宝丽广场,江苏,南京,高淳区,025,,富克斯广场,宝塔路与小河路交叉路口往西北约50米,景点,广场,118.870201,31.322569
真如禅寺,江苏,南京,高淳区,025,57851427,高淳区,环山路游子山风景区,景点,宗教,119.018224,31.350523
懒云寺,江苏,南京,高淳区,025,,高淳区,高淳县双游线,景点,宗教,119.007751,31.352938
德祠,江苏,南京,高淳区,025,,高淳区,太平社区卫生服务站(河口湾)附近,景点,宗教,118.842133,31.327204
康辉南京国际旅行社,江苏,南京,高淳区,025,,高淳老街,宝塔路39号华天购物广场1栋3楼,景点,旅行社,118.875267,31.32366
东林禅寺,江苏,南京,高淳区,025,,高淳区,西上线与301县道交叉口东北200米,景点,宗教,118.914066,31.389874
桂阳寺,江苏,南京,高淳区,025,,高淳区,桠溪街道,景点,宗教,119.19133,31.331791
三星庙,江苏,南京,高淳区,025,,高淳区,高淳县202县道,景点,宗教,119.067741,31.33864
红太阳广场,江苏,南京,高淳区,025,,镇兴路沿线,固城湖北路与镇兴路交叉口东北100米,景点,广场,118.878029,31.329302
迎湖桃源,江苏,南京,高淳区,025,57808666,高淳区,迎湖路东段,景点,更多景点/周边游,118.891258,31.291538
永寿庵,江苏,南京,高淳区,025,,高淳区,红太阳大道高淳区桠溪尚义小学西北侧约110米,景点,宗教,119.158714,31.411627
柳氏宗祠,江苏,南京,高淳区,025,,高淳区,凤纬村柳家附近,景点,宗教,118.913383,31.393765
游子山石龙寺,江苏,南京,高淳区,025,,高淳区,游子山风景区内游子山祈福园,景点,宗教,119.01066,31.340758
开创旅行社,江苏,南京,高淳区,025,57852778,漆桥镇,双牌石新港东路32号,景点,旅行社,118.995178,31.386074
吴氏宗祠,江苏,南京,高淳区,025,,高淳区,狮树线玉香商店西南20米,景点,宗教,118.851345,31.290963
保圣寺塔园,江苏,南京,高淳区,025,,宝塔路沿线,宝塔路232号,景点,宗教,118.889717,31.322561
绿地广场,江苏,南京,高淳区,025,,北岭路沿线,丹阳湖北路与北岭路交叉口西北60米,景点,广场,118.896034,31.334185
神恩浩荡寺庙,江苏,南京,高淳区,025,,高淳区,新港路古柏镇丁檀村幼儿班南侧约240米,景点,宗教,118.973663,31.364037
地藏殿,江苏,南京,南京,025,,南京西站/阅江楼,建宁路202号阅江楼风景区地藏古寺内,景点,人文古迹,118.746658,32.092209
原野国际旅行社,江苏,南京,高淳区,025,,固城湖路沿线,湖南路7号,景点,旅行社,118.876984,31.322651
南城遗址,江苏,南京,高淳区,025,,国际慢城,高淳县301县道,景点,古代遗迹,119.100266,31.376108
江张牌楼,江苏,南京,高淳区,025,,高淳区,古江路湖滨高级中学东南侧约170米,景点,历史建筑,118.942596,31.365864
吴楚旅行社,江苏,南京,高淳区,025,57332822;57313779,镇兴路沿线,镇兴路175号,景点,旅行社,118.878342,31.328609
腾龙源森林度假区,江苏,南京,高淳区,025,,国际慢城,301县道北50米,景点,森林公园,119.075386,31.376963
东坝戏楼,江苏,南京,高淳区,025,,东坝镇,河滨西路,景点,历史建筑,119.061806,31.296068
秀墩庵,江苏,南京,高淳区,025,,高淳区,荣卫路与翔凤路交叉路口往北约270米,景点,宗教,118.909935,31.374216
仙太庙,江苏,南京,高淳区,025,,高淳区,兴旺路南150米,景点,宗教,119.107677,31.33188
戴氏宗祠,江苏,南京,高淳区,025,,高淳区,韩戴路33号附近,景点,宗教,118.946623,31.393963
都府寺,江苏,南京,高淳区,025,,高淳区,红旗路北张巡纪念馆,景点,宗教,119.11013,31.412596
飞来寺,江苏,南京,高淳区,025,,高淳区,914县道附近,景点,宗教,118.8452,31.328911
帝大山祠,江苏,南京,高淳区,025,,高淳区,312乡道与刑丰线交叉口北360米,景点,宗教,118.886986,31.365013
武家嘴法治文化公园,江苏,南京,高淳区,025,,高淳区中心城区,淳溪街道丹阳湖北路40号,景点,文化公园,118.898132,31.337137
王泉寺,江苏,南京,高淳区,025,,高淳区,游子山环山路6号,景点,宗教,118.966179,31.269285
封神古庙,江苏,南京,高淳区,025,,高淳区,月南线,景点,宗教,118.773186,31.363441
圆通禅寺,江苏,南京,高淳区,025,,高淳区,古柏街道古江路,景点,宗教,118.937302,31.363337
螃蟹文化园,江苏,南京,高淳区,025,,高淳区,204县道,景点,文化公园,118.90873,31.413153
宝塔公园,江苏,南京,高淳区,025,,宝塔路沿线,宝塔路153号,景点,公园/广场,118.888878,31.320982
张巡纪念馆,江苏,南京,高淳区,025,,高淳区,都府寺,景点,纪念馆,119.110252,31.412771
神山湖风景区,江苏,南京,溧水区,025,,傅家边草莓园,溧水县105县道,景点,自然风光,119.03075,31.561768
萃福庵,江苏,南京,溧水区,025,,溧水区,溧水县张家路,景点,宗教,118.93338,31.423586
通济街商业广场步行街,江苏,南京,溧水区,025,,通济街商业广场,通济广场9幢11号,景点,步行街,119.028275,31.656609
陈笪庵,江苏,南京,溧水区,025,,白马镇,白马镇大树下线附近,景点,宗教,119.161704,31.569624
白马广场,江苏,南京,溧水区,025,,白马镇,白马桥东街与美玉街交叉路口往西南约50米,景点,广场,119.176811,31.579266
戴家城村财神庙,江苏,南京,高淳区,025,,高淳区,古柏街道韩戴路,景点,宗教,118.947311,31.39377
溧水旅行社,江苏,南京,溧水区,025,56222270,广成/荣昌,天生桥大道与珍珠南路交叉口东40米,景点,旅行社,119.032867,31.636774
昆仑国际旅行社,江苏,南京,溧水区,025,57203838,弯子口,中山路5号,景点,旅行社,119.028999,31.648886
明觉寺森林公园,江苏,南京,溧水区,025,,溧水区,石湫街道左山线与341省道交叉口东100米,景点,森林公园,118.897844,31.580961
双庙庵,江苏,南京,溧水区,025,,溧水区,沙河路东50米,景点,宗教,119.015663,31.664532
金桥国际旅行社,江苏,南京,溧水区,025,57210949,弯子口,县新龙佳苑41497号,景点,旅行社,119.027313,31.647589
永寿寺塔,江苏,南京,溧水区,025,,宝塔路/万辰苏果,宝塔路21号,景点,历史建筑,119.022624,31.660399
东庐山观音寺,江苏,南京,溧水区,025,,溧水区,东山线潥白鹿禅国寺西北750米,景点,宗教,119.114594,31.640265
晶桥镇神恩基督教堂,江苏,南京,溧水区,025,,晶桥镇,晶盈路与振兴路交叉口东200米,景点,宗教,119.070244,31.530937
谢氏宗祠,江苏,南京,溧水区,025,,柘塘镇,柘塘镇梅山村艾园,景点,宗教,118.927023,31.769643
无想禅寺,江苏,南京,溧水区,025,,溧水区,逐水径南端东50米,景点,宗教,119.020701,31.600189
红叶谷,江苏,南京,南京,025,,摄山,栖霞街88号(近栖霞大道)栖霞山风景名胜区内（西北角）,景点,自然风光,118.964226,32.157524
尧化门广场,江苏,南京,南京,025,,尧化门街区,太龙路与尧新大道交叉口西100米,景点,公园/广场,118.872375,32.109951
栖霞山风景区,江苏,南京,南京,025,85766979;85761831,摄山,栖霞街88号,景点,自然风光,118.967766,32.155441
基督教迈皋桥堂,江苏,南京,南京,025,,和燕路,和燕路366号,景点,宗教,118.813896,32.110931
中山烈士陵园,江苏,南京,溧水区,025,57211255,溧水区,老明公路,景点,烈士陵园,119.070396,31.630856
乾隆御花园,江苏,南京,南京,025,,摄山,栖霞街88号(近栖霞大道)栖霞山风景名胜区内,景点,自然风光,118.964294,32.156406
行知园,江苏,南京,南京,025,,栖霞区,江苏省南京市栖霞区燕子矶街道,景点,公园/广场,118.810517,32.121561
银杏奇根展览馆,江苏,南京,南京,025,,栖霞区,菜地路与新闸村路交叉路口往南约130米,景点,陈列馆,118.827278,32.177621
八卦洲街道旅游接待问询处,江苏,南京,南京,025,,栖霞区,鹂岛路与G36宁洛高速出口交叉口西南100米,景点,旅行社,118.831976,32.169906
天地旅行社,江苏,南京,南京,025,68662299;68662288,和燕路,迈皋桥街道富家村43号百通公寓1004室,景点,旅行社,118.809388,32.101068
桃花坞,江苏,南京,南京,025,,摄山,栖霞街88号(近栖霞大道)栖霞山风景名胜区内,景点,自然风光,118.961334,32.154366
南炼公园,江苏,南京,南京,025,,栖霞街道,南炼7号路5号,景点,城市公园,118.92762,32.15118
忆君禅画展览,江苏,南京,南京,025,,栖霞街道,摄山栖霞寺内,景点,展览馆,118.957115,32.152256
十月广场,江苏,南京,南京,025,,尧化门街区,新港开发区恒业路6-3号,景点,广场,118.897667,32.132446
中国金陵廉政文化教育馆,江苏,南京,南京,025,85664208,东城汇,文枢东路1号,景点,展览馆,118.909569,32.095921
汤山镇基督教堂,江苏,南京,南京,025,,汤山镇,G42沪蓉高速出口与G42沪蓉高速交叉口北200米,景点,宗教,119.071739,32.06274
基督教甘家巷堂,江苏,南京,南京,025,,栖霞街道,甘东路与炼西路交叉路口往东南约60米,景点,宗教,118.915268,32.142078
徐绍桢墓,江苏,南京,南京,025,,江宁区,G42沪蓉高速,景点,古代遗迹,118.920776,32.074005
上国安寺,江苏,南京,南京,025,52739086,江宁区,红星大道,景点,宗教,118.724625,31.771757
朝阳教堂,江苏,南京,南京,025,,江宁区,724乡道东50米,景点,宗教,118.671847,31.800067
军宇生态园,江苏,南京,南京,025,,江宁区,龙眠大道西150米,景点,动植物园,118.934236,31.868109
七仙山玫瑰园,江苏,南京,南京,025,,江宁区,002县道与205县道交叉口西北50米,景点,植物园,118.753059,31.690456
基督教土桥堂,江苏,南京,南京,025,,江宁区,戎岗头路与桂园东路交叉口东50米,景点,宗教,119.071227,31.937659
滨江新城公园,江苏,南京,南京,025,,江宁滨江开发区,宁芜大道与盛安大道交叉口东南100米,景点,城市公园,118.590012,31.825377
龙都烈士陵园,江苏,南京,南京,025,,江宁区,龙都中学对面）,景点,烈士陵园,118.931343,31.833306
基督教江宁堂,江苏,南京,南京,025,,江宁滨江开发区,地秀路与长兴大街交叉口东100米,景点,宗教,118.604858,31.860575
汤山历史文化展示中心,江苏,南京,南京,025,86198555,汤山镇,美泉路8号,景点,展览馆,119.048096,32.040554
汤山地质公园温泉馆,江苏,南京,南京,025,,汤山镇,美泉路北50米,景点,温泉,119.032463,32.038116
昝庙古文化遗址,江苏,南京,南京,025,,江宁区,禄口街道陶东路,景点,古代遗迹,118.784961,31.778441
开发区科技展览馆,江苏,南京,南京,025,,百家湖,双龙大道1528号（近展示中心）,景点,科技馆,118.820366,31.938534
陶吴基督教堂,江苏,南京,南京,025,,江宁区,狮山路,景点,宗教,118.781229,31.772043
横山抗日民主政府旧址,江苏,南京,南京,025,,江宁区,许呈社区呈村路北,景点,历史建筑,118.819034,31.685477
殷华街广场,江苏,南京,南京,025,,殷巷,殷华街347号（诚信大道地铁站2号口步行480米）,景点,广场,118.832573,31.907988
横山风景区,江苏,南京,南京,025,,江宁区,横溪街道横山路,景点,自然风光,118.805195,31.644493
汤泉湖,江苏,南京,南京,025,,汤山镇,圣汤大道,景点,自然风光,119.072197,32.054047
初宁陵石刻,江苏,南京,南京,025,,麒麟门,龙其线与宝山路交汇处西,景点,古代遗迹,118.927261,32.061916
云居寺旧址,江苏,南京,南京,025,,江宁区,青山社区云徐路,景点,宗教,118.967672,31.949272
大焦基督教堂,江苏,南京,南京,025,,南京南站/喜马拉雅,双麒路天心座西北侧,景点,宗教,118.822052,31.976917
清修教堂,江苏,南京,南京,025,,江宁滨江开发区,江横路106号附近,景点,宗教,118.617519,31.818478
南山风景区,江苏,南京,南京,025,,江宁区,南山镇,景点,自然风光,118.771912,31.688302
龙尚湖,江苏,南京,南京,025,,江宁区,龙尚路,景点,自然风光,118.963051,32.017326
首艺文化艺术馆,江苏,南京,南京,025,,江宁区,省道337号,景点,美术馆,118.762856,31.761562
珍华园,江苏,南京,南京,025,,江宁区,麒麟门大道锁石村,景点,展览馆,118.982841,32.057739
甘泉湖旅游度假区,江苏,南京,南京,025,85098777,江宁区,横溪街道甘泉湖路1号,景点,自然景观,118.724487,31.760679
盈家小街,江苏,南京,南京,025,,岔路口,鞭鞍街与金盛路交叉口西北侧,景点,休闲街区,118.822006,31.968708
永鸣基督教堂,江苏,南京,南京,025,,江宁滨江开发区,江横路174号附近,景点,宗教,118.621378,31.807008
潘氏住宅,江苏,南京,南京,025,,江宁区,上佘路潘氏宗祠(佘村社区卫生服务站西北)附近,景点,历史建筑,118.92878,31.981562
铜井小区基督教堂,江苏,南京,南京,025,,江宁区,G205商业街A5-4东南方向50米,景点,宗教,118.558958,31.794262
华庭广场,江苏,南京,南京,025,,殷巷,诚信大道990号,景点,广场,118.835182,31.90889
陆郎村基督教堂,江苏,南京,南京,025,,江宁区,古寺街48号,景点,宗教,118.64454,31.79323
龙泉寺旅游开发有限公司,江苏,南京,南京,025,,将军山,将军山风景区内（西侧）,景点,旅行社,118.759899,31.928539
狮子山公园,江苏,南京,南京,025,58590297,江宁区,狮山路,景点,公园/广场,118.778206,31.770025
水利公园,江苏,南京,南京,025,,雨花台区,东,景点,文化公园,118.649903,31.953301
大华国旅,江苏,南京,南京,025,68517803,虹悦城,雨花西路128号大东菜市场,景点,旅行社,118.769397,32.003345
江苏省森林公园,江苏,南京,南京,025,,开发区,铁心桥高家库,景点,森林公园,118.765373,31.920471
古城旅行社有限公司,江苏,南京,南京,025,52444820;52444800,秦虹村/中华门,雨花西路16-8号,景点,旅行社,118.77729,32.005131
梅山厂史馆,江苏,南京,南京,025,,江宁滨江开发区,中国软件谷中兴北路,景点,展览馆,118.634613,31.903603
莲花湖公园,江苏,南京,南京,025,,板桥,城小区对面,景点,公园/广场,118.655167,31.908098
大石湖生态旅游度假区,江苏,南京,南京,025,,将军山,宁丹路,景点,自然景观,118.748428,31.926893
民间抗日战争博物馆,江苏,南京,南京,025,52896160;52892739,铁心桥/楚翘城,安德门大街48号,景点,博物馆,118.762047,31.973473
半山寺,江苏,南京,南京,025,,六合区,玛瑙涧路灵岩山风景区-灵岩禅寺附近,景点,宗教,118.887906,32.299439
天后市民广场,江苏,南京,南京,025,,雨花台区,保双路天后村,景点,广场,118.671432,31.959479
路易行国际旅行社,江苏,南京,南京,025,66918998,大厂,新华路59号,景点,旅行社,118.744392,32.220917
古火山口,江苏,南京,南京,025,,六合区,方山林场路,景点,自然风光,118.993709,32.310729
太平禅寺,江苏,南京,南京,025,,六合区,117县道附近,景点,宗教,118.893341,32.24482
南京国际旅行社,江苏,南京,南京,025,58377238,大厂,葛关路387号,景点,旅行社,118.759529,32.231674
灵岩山市级森林公园,江苏,南京,南京,025,,六合区,邹庄路东150米,景点,森林公园,118.883713,32.293304
长丰河路基督教堂,江苏,南京,南京,025,,六合区,长丰河路西150米,景点,宗教,118.832115,32.247742
范旭东广场,江苏,南京,南京,025,,大厂,葛中路629号9栋,景点,广场,118.744453,32.232407
竹镇市抗日民主政府旧址,江苏,南京,南京,025,57680057,六合区,145乡道西150米,景点,历史建筑,118.671967,32.532658
桂子山烈士陵园,江苏,南京,南京,025,57563647,六合区,南京石柱林风景区,景点,烈士陵园,118.934502,32.458538
御史路基督教堂,江苏,南京,南京,025,,六合区,203县道马集中心卫生院第六卫生室西南御史路,景点,宗教,118.808418,32.535004
唐国寺,江苏,南京,南京,025,,大厂,G36宁洛高速,景点,宗教,118.781805,32.240035
灵岩禅寺,江苏,南京,南京,025,86259999,六合区,雄州街道玛瑙涧路,景点,宗教,118.888199,32.299553
圣竹线基督教堂,江苏,南京,南京,025,,六合区,马玉线与冶竹线交叉路口往西北约150米,景点,宗教,118.790741,32.57711
中国旅行社有限公司,江苏,南京,南京,025,138****1806,雄州,延安路74-1号（凤凰山公园地铁站4号口步行160米）,景点,旅行社,118.846205,32.348745
六合文庙,江苏,南京,南京,025,,雄州,县府街136号,景点,宗教,118.833313,32.343704
石柱林,江苏,南京,南京,025,57577818,六合区,421省道与353省道交叉口东南角,景点,自然风光,118.935598,32.457868
舜天海外旅游,江苏,南京,南京,025,66654311,雄州,朝天街聚福隆旁,景点,旅行社,118.834555,32.338475
华乐宫旅游有限公司,江苏,南京,南京,025,57100108,雄州,雄州街道教育南路,景点,旅行社,118.84462,32.351944
商周文化遗址,江苏,南京,南京,025,,六合区,204县道,景点,古代遗迹,118.705696,32.381493
九龙公园,江苏,南京,南京,025,,南钢/凤南创业街,凤滨路与宁钢路交叉口,景点,公园/广场,118.748154,32.203331
竹程福音堂,江苏,南京,南京,025,,六合区,204县道,景点,宗教,118.726349,32.444817
古长芦寺遗址,江苏,南京,南京,025,,六合区,化工大道,景点,古代遗迹,118.826691,32.26358
大士禅林,江苏,南京,南京,025,158****2940,雄州,滁河路与文春路路口,景点,宗教,118.843437,32.322842
新集基督教堂,江苏,南京,南京,025,,六合区,仪新线,景点,宗教,118.714607,32.316828
启明旅行社,江苏,南京,高淳区,025,56856788;57330387,高淳老街,官溪路63-3号,景点,旅行社,118.863884,31.320732
黄龙岘金陵茶文化旅游村,江苏,南京,南京,025,81030820,江宁区,江宁街道牌坊社区龙坊路1号,景点,文化村落,118.696264,31.779624
舜天旅游,江苏,南京,南京,025,85489080,河西,云锦路58号万达东坊7栋704-705室,景点,旅行社,118.743591,32.032702
奇缘旅游,江苏,南京,南京,025,84100018,汤山镇,汤山街道汤泉东路15-1号,景点,旅行社,119.06179,32.057224
百事通国际旅行社,江苏,南京,南京,025,83319313,莫愁湖/水西门,茶亭东街79号西祠创业园区17栋313,景点,旅行社,118.753017,32.027953
苏宁国际旅游公司,江苏,南京,南京,025,68206618,瑞金路沿线,光华东街6号,景点,旅行社,118.82254,32.024097
华特国际旅行社,江苏,南京,南京,025,,瑞金路沿线,御道街29号南京航空航天大学科技园E楼010室,景点,旅行社,118.817543,32.034753
明缘旅行社,江苏,南京,南京,025,137****5122,澳林广场,津浦新村371号,景点,旅行社,118.712883,32.104954
旅游百事通国际旅行社公司,江苏,南京,南京,025,52643877,秦虹村/中华门,乔虹苑1幢南侧2-1号,景点,旅行社,118.805805,32.013845
德高国际旅游公司,江苏,南京,南京,025,138****5222,雄州,泰山路184-4号附近,景点,旅行社,118.852929,32.339589
中旅营业部,江苏,南京,南京,025,57100033,雄州,文昌街彤华小区,景点,旅行社,118.835686,32.339607
百事通旅行社,江苏,南京,南京,025,83315530,山西路/湖南路,云南路15-1号（云南路地铁站4号口步行350米）,景点,旅行社,118.775235,32.062565
周村生态园,江苏,南京,南京,025,,江宁区,郑和文化园盛家路内,景点,动植物园,118.73171,31.91072
中国国旅国际旅行社公司,江苏,南京,南京,025,83538578,新城市/虹桥中心,中山北路2021号,景点,旅行社,118.764716,32.07608
百事通国际旅行社公司,江苏,南京,南京,025,86151587,江宁区,秦城街与明清街交叉口西20米,景点,旅行社,118.721425,31.630134
中国旅行社公司,江苏,南京,南京,025,83235331,三牌楼,三牌楼大街199号车站旁边,景点,旅行社,118.763016,32.080856
冶山国家矿山公园,江苏,南京,南京,025,57570310,六合区,冶竹线（金牛湖风景区西北）,景点,文化公园,118.962982,32.506119
百事通国际旅行社,江苏,南京,南京,025,180****0192,秦虹村/中华门,大明西路41号,景点,旅行社,118.803856,31.999195
长青国旅,江苏,南京,南京,025,,大桥南路,大桥南路24-1号,景点,旅行社,118.755201,32.090986
德高国旅,江苏,南京,南京,025,,珠江路沿线,双龙巷5号双龙大厦B座208室,景点,旅行社,118.78524,32.056461
华特国际旅行社,江苏,南京,南京,025,83733181,草场门/龙江,石头城路118号,景点,旅行社,118.749826,32.065046
康辉旅游,江苏,南京,南京,025,151****6553,升州路/集庆路,集庆路69号,景点,旅行社,118.776977,32.01838
中国旅行社,江苏,南京,南京,025,,三牌楼,中山北路255号二楼203室,景点,旅行社,118.76474,32.076015
中国旅行社,江苏,南京,南京,025,159****7177,珠江路沿线,洪武北路138号,景点,旅行社,118.789431,32.047581
南京国家广告产业园,江苏,南京,南京,025,89635868,雨润大街,新城科技园新城科技园国家产业园嘉陵江东街18号,景点,创意园区,118.735236,31.982308
中国国旅（江苏）国际旅行社,江苏,南京,南京,025,83530418,南瑞路/新模范马路,中央路与马家街交叉口北140米,景点,旅行社,118.783856,32.075016
观朴明式家具艺术馆,江苏,南京,南京,025,84437991,玄武区,四方城1号3号楼,景点,博物馆,118.843117,32.044868
比利时公使馆旧址,江苏,南京,南京,025,,火车站/玄武湖,高楼门42号,景点,历史建筑,118.787315,32.062965
美大纸行旧址,江苏,南京,南京,025,,升州路/集庆路,升州路118号,景点,历史建筑,118.781036,32.024502
上海商业储蓄银行旧址,江苏,南京,南京,025,,夫子庙地区,建康路145号,景点,历史建筑,118.78933,32.023514
特别市第六区区公所旧址,江苏,南京,南京,025,,山西路/湖南路,江苏路39号,景点,历史建筑,118.769218,32.065277
天目路18号民国建筑,江苏,南京,南京,025,,南大/南师大,天目路18号,景点,历史建筑,118.767982,32.059189
雍园1号民国建筑,江苏,南京,南京,025,,珠江路沿线,雍园1号,景点,历史建筑,118.80249,32.0443
育群中学旧址,江苏,南京,南京,025,52865712,夫子庙地区,中华路369号,景点,历史建筑,118.783844,32.018826
中国地质学会旧址,江苏,南京,南京,025,,火车站/玄武湖,峨嵋路12号,景点,历史建筑,118.789131,32.061253
中华书局,江苏,南京,南京,025,86646824,新街口地区,太平南路220号（常府街地铁站4号口步行140米）,景点,历史建筑,118.792671,32.035324
中南银行,江苏,南京,南京,025,,常府街/长白街,白下路155号(常府街地铁站1号口步行490米),景点,人文古迹,118.790634,32.028763
当代创业博物馆,江苏,南京,南京,025,,新街口地区,丰富路203号,景点,博物馆,118.781982,32.038116
东水艺苑民间艺术馆,江苏,南京,南京,025,,夫子庙地区,平江府路80-1号南京夫子庙-秦淮风光带(东北角),景点,美术馆,118.787888,32.021568
六朝博物馆,江苏,南京,南京,025,52326039;52326032,珠江路沿线,长江路302号（距大行宫地铁站5号口450米）,景点,博物馆,118.799179,32.042859
六合博物馆,江苏,南京,南京,025,57121978,雄州,长江路116-1号,景点,博物馆,118.83431,32.345221
文学艺术界联合会书画研究院展览馆,江苏,南京,南京,025,,夫子庙地区,长乐路57号,景点,美术馆,118.787961,32.017321
东风河游园,江苏,南京,南京,025,,秦虹村/中华门,大明西路16号附近,景点,城市公园,118.799667,31.999273
康业里游园,江苏,南京,南京,025,,秦虹村/中华门,应天大街119号,景点,城市公园,118.805382,32.005669
南苑兴达广场,江苏,南京,南京,025,,应天大街/文体路,云锦路186号,景点,广场,118.740547,32.018134
王府东苑文化广场,江苏,南京,南京,025,,夫子庙地区,慧园街13号,景点,广场,118.788017,32.024685
光华门堡垒遗址,江苏,南京,南京,025,,瑞金路沿线,南京邮政医院旁,景点,古代遗迹,118.811295,32.021847
基督教道胜堂,江苏,南京,南京,025,58810216,热河南路/三汊河,高鼓村路民佳园东南侧约40米,景点,宗教,118.734375,32.073589
马林医院旧址,江苏,南京,南京,025,,南大/南师大,中山路321-1号(鼓楼地铁站1号口步行200米),景点,历史建筑,118.783348,32.05695
茉莉江苏茶叶文化博览园,江苏,南京,南京,025,189****3920,六合区,龙池街道雄州南路399号,景点,文化公园,118.801224,32.300877
金陵竹刻艺术博物馆,江苏,南京,南京,025,84829526;84815926,众彩市场,润发路9号南方时代广场五楼,景点,博物馆,118.879112,31.998056
南京市白下区文物陈列馆,江苏,南京,南京,025,,夫子庙地区,锦绣坊21号,景点,陈列馆,118.786369,32.025002
逸夫管理科学楼,江苏,南京,南京,025,,南大/南师大,汉口路9号,景点,科技馆,118.777725,32.057838
中青旅江苏国际旅行社有限公司,江苏,南京,南京,025,83196777,河西,江东中路102号万达广场a座16楼,景点,旅行社,118.738434,32.030342
中青旅（江苏)国际旅行社,江苏,南京,南京,025,89637502,奥体中心,江东中路102号万达广场a座16层,景点,旅行社,118.730642,32.003242
中青旅（江苏）国际旅行社,江苏,南京,南京,025,89660806;89660807,安德门/小行,花神大道1号山水时尚酒店,景点,旅行社,118.775177,31.992542
奥体东广场,江苏,南京,南京,025,,奥体中心,梦都大街,景点,广场,118.728172,32.00671
八路军驻京办事处旧址,江苏,南京,南京,025,83210553,山西路/湖南路,傅厚岗66号,景点,革命旧址,118.781288,32.065498
南京白鹭旅游集散中心,江苏,南京,南京,025,85533999;84580000,建宁路,建宁路七家湾牛肉锅贴店旁（长途汽车总站附近）,景点,旅行社,118.782143,32.089554
碧云亭,江苏,南京,南京,025,,摄山,栖霞街88号(近栖霞大道)栖霞山风景名胜区内（西侧）,景点,自然风光,118.958755,32.156731
波兰大使馆旧址星汉别墅,江苏,南京,南京,025,,三牌楼,水佐岗39号,景点,历史建筑,118.763481,32.06955
凤凰台饭店会议中心,江苏,南京,南京,025,86838208,山西路/湖南路,湖南路47号,景点,景点/周边游,118.780754,32.068619
凤岭公园,江苏,南京,高淳区,025,,镇兴路沿线,大丰路与镇兴路交叉路口往西北约90米,景点,公园/广场,118.874504,31.329445
夫子庙游船码头,江苏,南京,南京,025,52300870,夫子庙地区,西市与贡院街交叉口东南50米,景点,城市观光,118.789558,32.019844
高淳宾馆会议中心,江苏,南京,高淳区,025,68617666,宝塔路沿线,南漪路2-8号,景点,景点/周边游,118.880592,31.322426
高岗里古建筑,江苏,南京,南京,025,,秦虹村/中华门,鸣羊街与饮马巷交叉口东南方向151米,景点,历史建筑,118.775826,32.014568
高座寺,江苏,南京,南京,025,52411523,虹悦城,雨花路215号雨花台风景名胜区名胜古迹区内,景点,宗教,118.781876,32.001118
固城湖国家城市湿地公园,江苏,南京,高淳区,025,180****2306,高淳区,淳溪街道史家路与慢城绿道交叉口东北150米,景点,城市公园,118.90934,31.326111
国家水利风景区,江苏,南京,南京,025,,升州路/集庆路,平江府路80-1号南京夫子庙-秦淮风光带内（西侧）,景点,自然风光,118.769707,32.013676
国民革命军兵工专门学校旧址,江苏,南京,南京,025,,秦虹村/中华门,应天大街390号,景点,历史建筑,118.784401,32.006592
黄埔旅行社,江苏,南京,南京,025,84804337,珠江路沿线,黄埔路2-2号黄浦大酒店1楼,景点,旅行社,118.811127,32.042686
江宁会展中心,江苏,南京,南京,025,,江宁百家湖,双龙大道1528号,景点,展览馆,118.820305,31.938044
江苏油画雕塑院,江苏,南京,南京,025,,新街口地区,长江路266-1号,景点,美术馆,118.794228,32.043842
井亭遗址,江苏,南京,南京,025,,玄武区,中山门外石象路7号中山陵园风景区,景点,古代遗迹,118.839329,32.055059
拉贝旧居,江苏,南京,南京,025,,南大/南师大,广州路小粉桥1号,景点,纪念馆,118.783257,32.050632
溧水体育公园,江苏,南京,溧水区,025,,溧水区,永阳街道体育公园路71号附近,景点,城市公园,119.038658,31.63472
刘智墓,江苏,南京,南京,025,,南京南站/明发,郁金香路58号,景点,古代遗迹,118.776421,31.980902
六合城墙,江苏,南京,南京,025,,雄州,复兴桥北,景点,历史建筑,118.830818,32.345356
旅游百事通,江苏,南京,南京,025,86469079;137****8228,应天大街/文体路,南湖路97号（靠近集庆门大街和南湖路交接处）,景点,旅行社,118.752821,32.021044
东晋梅岗,江苏,南京,南京,025,52411523,秦虹村/中华门,雨花东路附近,景点,植物园,118.782364,32.002975
秦淮民居群钞库街河房,江苏,南京,南京,025,52248894,夫子庙地区,大石坝街150号李香君故居内,景点,历史建筑,118.788818,32.018448
南京大学拉贝与国际安全区纪念馆,江苏,南京,南京,025,,南大/南师大,汉口路22号,景点,纪念馆,118.783333,32.050426
南京太湖世家美术馆,江苏,南京,南京,025,,雄州,永宁路1号,景点,美术馆,118.84166,32.339939
南京邮电大学三维通信楼,江苏,南京,南京,025,,仙林大学城,文苑路9号,景点,展览馆,118.931462,32.107052
南京平山森林公园,江苏,南京,南京,025,57737719,六合区,马鞍街道,景点,森林公园,118.844695,32.459992
浦发银行时尚广场,江苏,南京,南京,025,,珠江路沿线,太平北路74号,景点,公园/广场,118.795959,32.046234
启后祠,江苏,南京,高淳区,025,,高淳区,桠阳线与高团线交叉路口往南约100米,景点,宗教,118.860921,31.361816
千佛岩,江苏,南京,南京,025,85761831,摄山,栖霞街88号(近栖霞大道)栖霞山风景名胜区栖霞古寺内,景点,人文古迹,118.960159,32.151676
李香君故居陈列馆,江苏,南京,南京,025,52249600,夫子庙地区,大石坝街150号,景点,陈列馆,118.789001,32.018337
神山头古文化遗址,江苏,南京,南京,025,,江宁区,神山头公园,景点,古代遗迹,118.633918,31.78754
沈万三故居,江苏,南京,南京,025,52377008,秦虹村/中华门,夫子庙街道马道街5、7、9号,景点,纪念馆,118.781898,32.012913
卫巷15号国民建筑,江苏,南京,南京,025,,南大/南师大,卫巷15号,景点,历史建筑,118.789024,32.051983
文苑英华,江苏,南京,南京,025,83651501,苜蓿园,四方城1号4号楼2-3层南京十朝历史文化园内,景点,更多景点/周边游,118.843376,32.043488
武家嘴会议中心,江苏,南京,高淳区,025,56828888,北岭路沿线,北岭路287号武家嘴国际大酒店,景点,景点/周边游,118.894997,31.333708
亚明纪念馆,江苏,南京,南京,025,,三牌楼,珞珈路15号,景点,纪念馆,118.766747,32.0644
颐和路民国时期公馆风貌区,江苏,南京,南京,025,,山西路/湖南路,江苏路5-1号,景点,步行街,118.769971,32.063563
周金墓石刻,江苏,南京,南京,025,,铁心桥/三江学院,升景坊西北门斜对面,景点,古代遗迹,118.746994,31.961164
周氏宗祠,江苏,南京,高淳区,025,,砖墙镇,砖墙幼儿园旁,景点,宗教,118.825386,31.26053
民国邮政博物馆,江苏,南京,南京,025,83582170,玄武区,中山陵风景区邮局路1号,景点,博物馆,118.856478,32.042256
中国旅行社,江苏,南京,南京,025,52159321,岔路口,双龙大道627号,景点,旅行社,118.817738,31.963728
中国旅行社,江苏,南京,南京,025,139****7580,麒麟门,麒麟街道悦民路21-2号,景点,旅行社,118.923621,32.051231
富德国际旅行社,江苏,南京,南京,025,66098302,九龙湖滨天地,庄排路路179号瑞鸿名邸门面房,景点,旅行社,118.827644,31.928701
要出发旅行网,江苏,南京,南京,025,4001181166,河定桥,双龙大道965号水岸明珠3-1栋1307,景点,旅行社,118.817952,31.956562
杨柳湖风景区,江苏,南京,南京,025,52695500;52716463,江宁区,湖熟街道龙眠大道九龙路31号,景点,自然风光,118.930702,31.852171
环亚国际旅行社,江苏,南京,南京,025,52184928,东山镇,东新南路15号瓯江大厦b座7层,景点,旅行社,118.85302,31.953911
范蠡像,江苏,南京,南京,025,83651501,苜蓿园,四方城1号4号楼2-3层南京十朝历史文化园内,景点,古村古镇,118.843725,32.042715
国家安全教育馆,江苏,南京,南京,025,52421523,雨花台区,雨花路215号雨花台风景名胜区内,景点,展览馆,118.781166,32.00016
弘光植物园,江苏,南京,南京,025,,卫岗/下马坊,后标营路理工大学7号门外,景点,植物园,118.849274,32.028847
老行当博物馆,江苏,南京,南京,025,,奥体中心,洲泰路假日花园东北侧约60米,景点,博物馆,118.693115,32.001017
里佳山烈士墓,江苏,南京,溧水区,025,,溧水区,枫香岭线,景点,烈士陵园,119.105904,31.507839
旅游百事通,江苏,南京,南京,025,86132663,谷里,庆缘路132号,景点,旅行社,118.692116,31.865355
晏公庙52号院,江苏,南京,南京,025,,孝陵卫/森林摩尔,双拜岗路与双拜巷交叉口正北方向139米,景点,景点/周边游,118.864932,32.033961
虹桥国际旅游,江苏,南京,南京,025,,新街口地区,洪武北路166号（近羊皮巷）,景点,旅行社,118.789374,32.047914
陆越子画展,江苏,南京,南京,025,86691868,河西,江东中路108号万达广场商务区C座12层九三学社江苏画院展馆,景点,展览馆,118.738525,32.029346
南京书画院金陵美术馆,江苏,南京,南京,025,84628766;84628791,夫子庙地区,剪子巷50号,景点,美术馆,118.786836,32.012651
托马斯国际旅行社,江苏,南京,南京,025,66600362,新街口地区,汉中路108号金轮大厦10楼,景点,旅行社,118.778256,32.042619
海棠艺术馆,江苏,南京,南京,025,177****0072,南京艺术学院/龙江,水木秦淮,景点,美术馆,118.750595,32.062041
民国生活馆,江苏,南京,南京,025,,苜蓿园,中山东路321号博物院内,景点,博物馆,118.82476,32.040462
博爱馆,江苏,南京,南京,025,,苜蓿园,中山东路321号南京博物院艺术馆内,景点,展览馆,118.824905,32.040493
中北友好国际旅行社,江苏,南京,南京,025,52191968,东山镇,东新北路5号,景点,旅行社,118.851242,31.956446
旅游百事通和燕路第三营业部,江苏,南京,南京,025,85552657,和燕路,和燕路7号燕语华庭商务楼216室,景点,旅行社,118.788582,32.095707
南京五合旅行社,江苏,南京,南京,025,,和燕路,和燕路,景点,旅行社,118.813326,32.110566
中央陆军军官学校旧址,江苏,南京,南京,025,,珠江路沿线,黄埔路3号,景点,历史建筑,118.809601,32.053661
羊山湖公园,江苏,南京,南京,025,,仙林大学城,仙境路18号,景点,公园/广场,118.941809,32.110423
九乡河生态公园,江苏,南京,南京,025,,仙林大学城,仙林大道,景点,公园/广场,118.948143,32.121117
金鹰国际旅行社,江苏,南京,南京,025,84700066,山西路/湖南路,中山北路188号蜂巢生活馆912室,景点,旅行社,118.768944,32.072723
止马岭风景区,江苏,南京,南京,025,,六合区,竹镇镇止马岭风景区（桃花岛风景区）,景点,自然风光,118.577621,32.563744
大泉湖,江苏,南京,南京,025,,六合区,竹镇止马岭桃花岛风景区,景点,自然风光,118.634514,32.559647
德基国旅,江苏,南京,南京,025,,南瑞路/新模范马路,中央路323号利奥大厦20楼2006室,景点,旅行社,118.783157,32.072257
南京市博物馆,江苏,南京,南京,025,84466460,新街口地区,王府大街朝天宫4号,景点,博物馆,118.775462,32.034551
世友国际旅行社,江苏,南京,南京,025,82224858,新街口地区,中山东路天时商贸9号,景点,旅行社,118.785469,32.042011
大塘金香草谷,江苏,南京,南京,025,52076599,江宁区,谷里街道正方中路520号,景点,自然风光,118.728546,31.852613
中国国旅（江苏）国际旅行社,江苏,南京,南京,025,83538728,大厂,新华路421号（新华书店旁）,景点,旅行社,118.758545,32.229485
中国国旅江苏国际旅行社,江苏,南京,南京,025,86649530,奥体中心,庐山路158号嘉业国际城2号楼2层,景点,旅行社,118.728752,31.999523
中国国旅,江苏,南京,南京,025,52136756,东山镇,上元大街253号,景点,旅行社,118.833191,31.952188
中国国旅（江苏）国际旅行社,江苏,南京,南京,025,58780387,瑞金路沿线,大光路118号金陵尚府73号,景点,旅行社,118.804731,32.026221
中国国旅（江苏）国际旅行社,江苏,南京,南京,025,85862960,莫愁湖/水西门,云锦路58号万达东坊壹街区福园街100号,景点,旅行社,118.742311,32.032083
中国国旅（江苏）国际旅行社,江苏,南京,南京,025,84430096;83229586,东城汇,文苑路8号东城汇F1层,景点,旅行社,118.908928,32.097919
中国国旅江苏国际旅行社,江苏,南京,南京,025,83718938,莫愁湖/水西门,"集庆门大街53号（81,83路彩虹苑站对面）",景点,旅行社,118.759757,32.022067
中国国旅江苏国际旅行社,江苏,南京,南京,025,83611099,君临紫金商业街,小卫街20号,景点,旅行社,118.851402,32.036961
中国国旅江苏国际旅行社,江苏,南京,南京,025,85730256,常府街/长白街,文昌巷16号(大行宫地铁站出入口步行410米),景点,旅行社,118.794426,32.037457
中北国际旅游,江苏,南京,南京,025,52137379,东山镇,新亭路与竹山路交叉口东40米,景点,旅行社,118.846306,31.942839
尚家艺术馆,江苏,南京,南京,025,,草场门/龙江,石头城路97号C区1001号,景点,美术馆,118.750038,32.063683
惠淘惠买旅游直通车,江苏,南京,南京,025,133****1845;133****1844,草场门/龙江,湛江路59号,景点,旅行社,118.743713,32.045502
中瑞旅行社,江苏,南京,南京,025,58581359,建宁路,建宁路300号大观天地mall2楼,景点,旅行社,118.743576,32.092491
悠悠行旅游网,江苏,南京,南京,025,68569766;68517873,火车站/玄武湖,玄武门22号江苏展览馆门口,景点,旅行社,118.785507,32.070412
悠悠行旅行网,江苏,南京,南京,025,66654320,东山镇,金箔路999号黄金海岸第二街区106号舜天海外旅行社,景点,旅行社,118.836922,31.950134
凯撒旅行社,江苏,南京,南京,025,69811943,新街口地区,石鼓路42号建华大厦6楼C-06室(新街口天安大厦),景点,旅行社,118.782211,32.039551
天行健户外俱乐部,江苏,南京,南京,025,135****8864,江宁区,石狮路6号,景点,旅行社,118.712296,31.724386
要出发旅行网,江苏,南京,南京,025,4001181166,大厂,新华东路289号东,景点,旅行社,118.786835,32.247898
牡丹书画院,江苏,南京,南京,025,,山西路/湖南路,四卫头56-2号附近,景点,美术馆,118.768911,32.067831
千盛农庄,江苏,南京,南京,025,182****8668,江宁区,牛首大道119号,景点,更多景点/周边游,118.711601,31.882002
新街口步行街,江苏,南京,南京,025,,新街口地区,老村街道正洪街（新街口地铁站12号口步行160米）,景点,休闲街区,118.786469,32.037876
中国旅行社,江苏,南京,南京,025,135****6262,铁心桥/楚翘城,软件大道118号,景点,旅行社,118.766847,31.97488
青奥体育公园,江苏,南京,南京,025,,浦口区,江浦街道城南河路99号,景点,城市公园,118.66428,32.046235
江苏江宁汤山方山国家地质公园博物馆,江苏,南京,南京,025,68720777,汤山镇,汤山街道汤泉西路169号（汤山国家地质公园内）,景点,博物馆,119.040429,32.055571
鱼嘴湿地公园,江苏,南京,南京,025,,奥体中心,江心洲街道扬子江大道888号,景点,自然景观,118.665903,31.974216
南京国际青年文化公园,江苏,南京,南京,025,86467557,国际博览中心/元通,双闸街道扬子江大道与江山大街交叉口西北200米,景点,城市公园,118.707314,31.996115
钱仓葵花园,江苏,南京,南京,025,57520042,六合区,钱仓村祝夏组,景点,动植物园,118.895416,32.34753
巴布洛生态谷,江苏,南京,南京,025,57097268,六合区,竹镇竹金路现代农业产业生态园内,景点,动植物园,118.60672,32.490082
江苏省现代美术馆,江苏,南京,南京,025,83572082,奥体中心,梦都大街50号,景点,美术馆,118.740206,32.006246
三国村,江苏,南京,南京,025,52295888,江宁区,淳化街道滨淮社区马场山村,景点,特色乡村,119.099995,31.907074
南京眼步行桥,江苏,南京,南京,025,,奥体中心,河西新城青奥轴线中轴,景点,现代建筑,118.704958,31.992942
南京奥林匹克博物馆,江苏,南京,南京,025,87750589;87766777,奥体中心,金沙江西街9号（保利大剧院旁）,景点,博物馆,118.705559,31.992278
南京雨花石珍品陈列馆,江苏,南京,南京,025,189****3453,夫子庙地区,夫子庙东市4号,景点,博物馆,118.788879,32.021038
南化公司原厂史陈列馆,江苏,南京,南京,025,,大厂,葛关路196号(近南化宾馆),景点,陈列馆,118.765541,32.227673
桠溪慢城文峰塔,江苏,南京,高淳区,025,56856777,大山风景区,生态路6号桠溪国际慢城内,景点,历史建筑,119.083237,31.418518
漆桥古村落,江苏,南京,高淳区,025,57850037,漆桥镇,漆桥街道漆桥村523号,景点,古村古镇,118.992493,31.375921
薛城遗址公园,江苏,南京,高淳区,025,57388868,高淳区,淳溪镇薛城村薛四村,景点,公园/广场,118.854286,31.362058
游子山休闲旅游区,江苏,南京,高淳区,025,57398586,高淳区,游子山环山路6号,景点,森林公园,119.014404,31.349566
德高国际旅游,江苏,南京,南京,025,68229201;68229200,草场门/龙江,江东北路319号华彩荟南京店1层,景点,旅行社,118.738403,32.06142
滨江风光带,江苏,南京,南京,025,58590833,浦口区,滨江大道浦口滨江湿地公园西南300米,景点,河道观光,118.687737,32.065258
将军大道汉府宫,江苏,南京,南京,025,,将军山,将军大道6号,景点,人文古迹,118.779447,31.952037
长江路历史文化街区,江苏,南京,南京,025,,新街口地区,长江路333号正东方向120米,景点,步行街,118.800178,32.041283
旅游百事通迈皋桥门市,江苏,南京,南京,025,137****1244,长营村,长营村36号门面,景点,旅行社,118.812721,32.104171
集庆门城墙,江苏,南京,南京,025,,升州路/集庆路,集庆路267-4号附近（集庆门大街）,景点,历史建筑,118.76559,32.018312
翠佛堂艺术馆,江苏,南京,南京,025,,新街口地区,上海路3号(江苏省水利厅),景点,美术馆,118.776176,32.04409
南京大吉温泉度假村,江苏,南京,南京,025,58166666;58166369,浦口区,凤凰路88号,景点,温泉,118.491821,32.072998
午朝门公园,江苏,南京,南京,025,,瑞金路沿线,御道街27号（明故宫遗址）,景点,纪念公园,118.817551,32.038162
大仙寺,江苏,南京,南京,025,,钟学北路/南湾营,永丰大道与紫霞路交叉口北150米,景点,宗教,118.872765,32.020538
高淳非遗展示馆,江苏,南京,高淳区,025,57330757;57325558,高淳老街,中山大街4号,景点,陈列馆,118.871368,31.318975
民国首都电厂旧址公园,江苏,南京,南京,025,86668888,南京西站/阅江楼,江边路6号,景点,城市公园,118.733795,32.088825
同程旅游,江苏,南京,南京,025,4007777777;186****6376,山西路/湖南路,中山北路168号23栋,景点,旅行社,118.770264,32.070698
梅花山,江苏,南京,南京,025,84431174;84433582,玄武区,陵园路明孝陵景区内,景点,自然景观,118.840594,32.050548
迎熏,江苏,南京,高淳区,025,,高淳老街,老街中山大街88号,景点,人文古迹,118.868889,31.319441
红山会议中心,江苏,南京,南京,025,85601166,火车站/玄武湖,黄家圩路41-1号,景点,景点/周边游,118.795044,32.090939
中北友好国际旅行社,江苏,南京,南京,025,52312229,南京南站/明发,汇景家园汇景路154号,景点,旅行社,118.808863,31.982323
德清堂,江苏,南京,南京,025,135****8558,奥体中心,河西大街198号同进大厦108号-3,景点,宗教,118.715874,32.000774
金鸡文化园,江苏,南京,南京,025,58188929;186****7218,浦口区,龙井社区,景点,文化公园,118.530777,32.035229
秣陵杏花村,江苏,南京,南京,025,52796988,九龙湖滨天地,东南大学路1号4号楼(东南大学,景点,特色乡村,118.821938,31.877762
数字馆,江苏,南京,南京,025,,苜蓿园,中山东路321号南京博物院,景点,博物馆,118.825233,32.041264
南京旅游集散中心,江苏,南京,南京,025,83236300,火车站/玄武湖,花园路17号（南京长途汽车客运东站),景点,旅行社,118.822296,32.085495
东屏白鹭自然保护区,江苏,南京,溧水区,025,131****8563,溧水区,王肖线东屏镇和平村小厦家边,景点,自然风光,119.080293,31.757813
水一方生态休闲旅游区,江苏,南京,南京,025,85710326,栖霞区,龙潭街道陈店村,景点,动植物园,119.134102,32.196598
紫荆广场,江苏,南京,南京,025,,紫荆广场/宜家,雨花东路158号1幢,景点,公园/广场,118.793991,31.99209
南京艺术学院-美术馆,江苏,南京,南京,025,83498761,草场门/龙江,虎踞北路15号,景点,美术馆,118.754051,32.064972
北京途牛国际旅行社有限公司,江苏,南京,南京,025,4007973050,徐庄软件园,苏宁大道徐庄软件园途牛大厦内,景点,旅行社,118.887755,32.084495
杨家圩文化公园,江苏,南京,南京,025,,东山镇,东山街道小龙湾路与谭园路交汇处西50米,景点,文化公园,118.833832,31.940786
萧宏石刻公园,江苏,南京,南京,025,,仙林大学城,学则路与灵山北路交叉口西北角（近学则路地铁站）,景点,文化公园,118.921509,32.086109
国际商品博览中心,江苏,南京,南京,025,,九龙湖滨天地,苏源大道681号,景点,展览馆,118.809365,31.885442
文昌宫平房,江苏,南京,南京,025,,常府街/长白街,三条巷21号,景点,历史建筑,118.799515,32.034397
禄口铜山步行街,江苏,南京,南京,025,,江宁滨江开发区,如练路盛江花苑-海棠园,景点,步行街,118.596344,31.8617
桑树园,江苏,南京,南京,025,,夫子庙地区,剪子巷18号,景点,植物园,118.785233,32.013443
绿地广场,江苏,南京,南京,025,83280777,南大/南师大,湖南路街道中山北路,景点,公园/广场,118.783045,32.059081
龙江白云园,江苏,南京,南京,025,,草场门/龙江,龙园西路与龙云路交汇处,景点,更多景点/周边游,118.742882,32.054081
城市假日广场,江苏,南京,南京,025,,草场门/龙江,龙园西路9号,景点,公园/广场,118.741348,32.053024
铁路南街,江苏,南京,南京,025,,三牌楼,铁路南街,景点,休闲街区,118.771194,32.075565
水西门大街,江苏,南京,南京,025,,莫愁湖/水西门,(建邺南湖)水西门大街20号到157号,景点,观光街区,118.754951,32.032734
朱状元巷清代住宅,江苏,南京,南京,025,,升州路/集庆路,莫愁路98号附近西南方向60米,景点,历史建筑,118.772682,32.031464
江苏春秋旅行社有限公司,江苏,南京,南京,025,84517405;84517605,新街口地区,户部街33号天之都大厦1526室,景点,旅行社,118.788523,32.035063
珍珠泉野生动物生态园,江苏,南京,南京,025,58601545;58408810,浦口区,珍珠街182号珍珠泉旅游度假区,景点,野生动物园,118.660719,32.123475
中北国际旅游麒麟门,江苏,南京,南京,025,51835022;153****9003,麒麟门,麒麟门步行街东1幢（麒麟门新政府大楼后面广场对面欣E网吧楼下）,景点,旅行社,118.926003,32.051853
南京巴士旅行社,江苏,南京,南京,025,156****0766,新街口地区,淮海路50号扬子大厦1楼,景点,旅行社,118.785484,32.037292
深圳市海外国际旅行社,江苏,南京,南京,025,66027285,常府街/长白街,太平南路2号日月大厦1204室,景点,旅行社,118.793091,32.040314
越界梦幻城,江苏,南京,南京,025,83300698,新街口地区,莫愁路329号,景点,休闲街区,118.772842,32.037304
振功夫健身红山动物园,江苏,南京,南京,025,,火车站/玄武湖,和燕路148号万科红郡花园11栋2楼,景点,动物园,118.797821,32.095081
姚徐老街,江苏,南京,南京,025,,浦口区,永宁街道侯冲村姚徐湾,景点,步行街,118.566406,32.139557
双桥门公园,江苏,南京,南京,025,,秦虹村/中华门,双桥门30号,景点,城市公园,118.794357,32.006859
恋山坝上草原,江苏,南京,南京,025,57188177;186****6928,六合区,程桥街道唐楼社区倪庄组33号,景点,自然风光,118.769077,32.464541
河西城市生态公园,江苏,南京,南京,025,,奥体中心,吴侯街与江东南路交叉口东南100米,景点,公园/广场,118.700272,31.974972
金陵商务国际旅行社,江苏,南京,南京,025,51860939,南大/南师大,广州路5号君临国际2幢501室,景点,旅行社,118.782356,32.04985
竹山路电子一条街,江苏,南京,南京,025,,江宁科学园,竹山路竹山大厦,景点,观光街区,118.845359,31.947247
明发滨江新城二期商业街,江苏,南京,南京,025,,明发滨江,江山路明发滨江新城三期-南区西北侧,景点,步行街,118.74565,32.13607
糖坊廊,江苏,南京,南京,025,180****4810,秦虹村/中华门,长乐街65号（大众服装对面）,景点,步行街,118.780504,32.015192
仁寿里,江苏,南京,南京,025,,常府街/长白街,常府街四条巷28号,景点,人文古迹,118.798759,32.036182
汤山国家级旅游度假区,江苏,南京,南京,025,81032796;151****2656,汤山镇,汤山镇汤山风景区内,景点,温泉,119.030228,32.06995
银城广场,江苏,南京,南京,025,86507777,草场门/龙江,江东北路289号,景点,公园/广场,118.739006,32.055023
麒麟山庄公园境,江苏,南京,南京,025,,麒麟门,麒东路588号（麒东路与轿子山交汇处）,景点,公园/广场,118.938669,32.051971
南祖师庵,江苏,南京,南京,025,,大桥南路,盐仓桥广厂西,景点,宗教,118.75322,32.084934
五塘广场,江苏,南京,南京,025,,幕府西路,中央北路193号,景点,公园/广场,118.776733,32.110828
夫子庙金街,江苏,南京,南京,025,,夫子庙地区,(秦淮夫子庙)来燕路1号,景点,休闲街区,118.788406,32.018063
疯狂球迷,江苏,南京,南京,025,130****3699,新街口地区,上海路12号,景点,游乐场,118.776962,32.045334
世友国旅,江苏,南京,南京,025,57029678,大厂,新华路309号,景点,旅行社,118.753822,32.226784
得月台小吃,江苏,南京,南京,025,138****3863,夫子庙地区,夫管办丹罗蜡像艺术馆夫子庙步行街瞻园路1号,景点,自然风光,118.788902,32.01952
达摩殿,江苏,南京,南京,025,,火车站/玄武湖,鸡鸣寺路1号,景点,人文古迹,118.79554,32.061302
中北国际旅游,江苏,南京,南京,025,4000259400,大厂,新华路与健民路交叉口北京华联对面,景点,旅行社,118.744965,32.221542
中国国旅欢乐行旅游俱乐部,江苏,南京,南京,025,57101113,六合区,新集南路紫金农商银行(新集支行)南侧约90米,景点,旅行社,118.719877,32.304157
荣之旅国际旅行社,江苏,南京,南京,025,,雄州,延安路68号,景点,旅行社,118.847089,32.347119
般若堂,江苏,南京,南京,025,,火车站/玄武湖,鸡鸣寺路1号北门售票处对面2楼,景点,更多景点/周边游,118.795235,32.061111
旅游百事通,江苏,南京,南京,025,57150622,龙池/时代广场,龙池花园西北门西50米,景点,旅行社,118.809136,32.322246
南京德高国际旅游有限公司,江苏,南京,南京,025,57108200,雄州,聚龙花园门面房19号,景点,旅行社,118.838738,32.347826
郑和墓,江苏,南京,南京,025,86138528,江宁区,谷里街道牛首山郑和文化园内,景点,古代遗迹,118.733017,31.907413
云南旅游,江苏,南京,南京,025,66661616,新街口地区,石鼓路42号建华大厦1506室,景点,旅行社,118.78259,32.03936
江苏万达原野国际旅行社,江苏,南京,南京,025,66030888,浦口区,大桥北路83号浦阳大厦1楼,景点,旅行社,118.715752,32.143772
镇兴路旅游,江苏,南京,高淳区,025,57331699,宝塔路沿线,镇兴路288-2号4楼,景点,旅行社,118.89492,31.326704
铜佛殿,江苏,南京,南京,025,,火车站/玄武湖,鸡鸣寺路1号,景点,宗教,118.795349,32.061237
德高旅游,江苏,南京,南京,025,153****7192,瓜埠,环山南路太平北苑东侧约210米,景点,旅行社,118.890434,32.247215
海南天天游旅行社,江苏,南京,南京,025,83650130,火车站/玄武湖,新立基大厦2505室,景点,旅行社,118.784683,32.078041
大悲殿,江苏,南京,南京,025,,火车站/玄武湖,鸡鸣寺路1号,景点,宗教,118.795471,32.060959
箭石展示厅,江苏,南京,南京,025,159****1067,江宁科学园,天印大道1299号2-6号,景点,展览馆,118.865974,31.944635
宗诚老师太纪念堂,江苏,南京,南京,025,,火车站/玄武湖,鸡鸣寺路1号,景点,展览馆,118.795479,32.060905
南京亚南假期旅行社有限公司,江苏,南京,南京,025,58881198,汤泉社区,银泉东路得山水情温泉酒店东南侧约30米,景点,旅行社,118.515729,32.092029
观音宝殿,江苏,南京,南京,025,,火车站/玄武湖,鸡鸣寺路1号古鸡鸣寺内（北侧）,景点,宗教,118.795341,32.061481
途乐旅游咨询有限公司,江苏,南京,南京,025,138****8639,新街口地区,新街口街道洪武北路115号西北,景点,旅行社,118.788849,32.045271
南京金辉国际旅行社,江苏,南京,溧水区,025,189****6181,溧水区,中山路66号19-1室,景点,旅行社,119.035973,31.64702
李元龙先进事迹陈列馆,江苏,南京,南京,025,,六合区,大泉路大泉驾校,景点,陈列馆,118.678581,32.52166
阎锡山旧居,江苏,南京,南京,025,,南大/南师大,颐和路8号,景点,更多景点/周边游,118.768005,32.064575
石臼湖,江苏,南京,高淳区,025,,高淳区,宁高新通达道与团固线交口,景点,自然风光,118.892851,31.419666
有润美术馆,江苏,南京,南京,025,58802769,幕府西路,中央北路185号赛城国际大厦4层,景点,美术馆,118.777649,32.109978
菱洲,江苏,南京,南京,025,,火车站/玄武湖,玄武巷1号玄武湖景区,景点,自然景观,118.798836,32.069151
军体冒险乐园,江苏,南京,南京,025,52411523,雨花台区,雨花路215号雨花台风景名胜区游乐活动区内,景点,游乐场,118.777229,32.00016
共青广场,江苏,南京,南京,025,,铁心桥/楚翘城,软件大道地铁站2号口南150米,景点,观光街区,118.774671,31.976541
大荆山森林公园,江苏,南京,溧水区,025,,傅家边草莓园,东北部的丘陵山区,景点,森林公园,119.026126,31.570446
鸡笼山,江苏,南京,南京,025,,濮塘风景区,玉泉寺与山径口之间,景点,自然景观,118.694038,31.698801
钟山国际体育公园,江苏,南京,南京,025,,玄武区,石象路7号中山陵园风景区内,景点,城市公园,118.87194,32.04661
临时政府参议院旧址,江苏,南京,南京,025,,山西路/湖南路,湖南路街道湖南路10号,景点,历史建筑,118.780441,32.070019
北象山风景区,江苏,南京,南京,025,,栖霞街道,城东北22公里,景点,自然景观,118.942024,32.150627
1914商业街,江苏,南京,南京,025,58867979,明发滨江,沿江街道江山路19号,景点,步行街,118.74221,32.1371
涌泉广场,江苏,南京,南京,025,52411523,雨花台区,雨花路215号雨花台风景名胜区雨花石文化区内,景点,广场,118.783363,31.998419
方山,江苏,南京,南京,025,,六合区,横梁街道,景点,自然景观,118.990761,32.306007
竹镇森林公园,江苏,南京,南京,025,,六合区,西北部,景点,公园/广场,118.632416,32.552052
明墓石刻,江苏,南京,南京,025,,西善桥/油坊桥,西善桥乡姚南村,景点,古代遗迹,118.712158,31.957081
海景国际旅行社有限公司,江苏,南京,南京,025,52332909;153****1714,夫子庙地区,瞻园路21号瞻园铭楼527室,景点,旅行社,118.785858,32.019428
德高国际旅游有限公司,江苏,南京,南京,025,84101988,汤山镇,汤泉东路27号,景点,旅行社,119.062218,32.056998
舜天海外旅游,江苏,南京,南京,025,138****8668,东山镇,文靖路347附近,景点,旅行社,118.848545,31.960624
旅游百事通,江苏,南京,南京,025,85578336,火车站/玄武湖,锁金三村1-105号,景点,旅行社,118.816689,32.074356
天翔旅行社,江苏,南京,南京,025,,山西路/湖南路,山西路68号颐和大厦25层,景点,旅行社,118.771355,32.067932
同业国际旅行社,江苏,南京,南京,025,133****2279,胜太路沿线,同曦公寓4幢107A,景点,旅行社,118.822968,31.941837
江苏省中山国际旅行社,江苏,南京,南京,025,136****7137,火车站/玄武湖,中央路417号先锋广场17层1702,景点,旅行社,118.783218,32.087566
南京大众旅行社,江苏,南京,南京,025,85651939,栖霞区,龙锦路18号江畔人家锦江苑41幢102室,景点,旅行社,119.066857,32.179647
众鑫之星旅行社有限公司,江苏,南京,南京,025,,新街口地区,中山路81号南京华夏大厦9层905室,景点,旅行社,118.783722,32.046471
舜天海外旅游,江苏,南京,南京,025,52170390,江宁科学园,莱茵达路96-16号,景点,旅行社,118.856331,31.93976
江苏冶金旅游公司餐饮部客房部,江苏,南京,南京,025,,常府街/长白街,中山东路412号江苏冶金大厦4-7层,景点,旅行社,118.800048,32.040328
智德商业旅游公司,江苏,南京,南京,025,,明故宫/后宰门,黄埔路2号黄埔大厦24层,景点,旅行社,118.811226,32.041889
舜天海外旅游,江苏,南京,南京,025,,莫愁湖/水西门,水西门大街139号,景点,旅行社,118.760377,32.031537
旅游百事通,江苏,南京,南京,025,52199261,东山镇,金箔路999号黄金海岸2楼,景点,旅行社,118.837212,31.94976
中国国旅,江苏,南京,南京,025,57750614,金宁广场,专诸巷30-18号,景点,旅行社,118.843437,32.339268
海洋国防教育馆,江苏,南京,南京,025,83320988,南大/南师大,宁海路54号（云南路地铁站1号口步行440米）,景点,科技馆,118.76971,32.060256
飞凯旅行社公司,江苏,南京,高淳区,025,57335966,北岭路沿线,丹阳湖北路28号,景点,旅行社,118.896866,31.333101
民族国际旅行社公司,江苏,南京,南京,025,,火车站/玄武湖,中央路417号先锋广场17层1728号,景点,旅行社,118.782967,32.087528
颐和路公馆区第十二片区,江苏,南京,南京,025,,山西路/湖南路,江苏路3号,景点,历史建筑,118.770571,32.06348
紫东国际创意园,江苏,南京,南京,025,84355555,仙林大学城,紫东路1号,景点,创意园区,118.912775,32.079178
舜天海外旅游·长青国旅nj033,江苏,南京,南京,025,,大桥南路,建宁路街道文德西路12-16,景点,旅行社,118.755165,32.090881
中山友好国旅,江苏,南京,南京,025,83201100,火车站/玄武湖,中央路61-2号2层,景点,旅行社,118.783829,32.063885
旅游百事通国际旅行社,江苏,南京,南京,025,83617705,南大/南师大,双龙巷5号-b座-102室,景点,旅行社,118.785301,32.056461
旅游百事通,江苏,南京,南京,025,189****7766,清凉门大街,清凉门大街296号（苏宁馨瑰园门面）,景点,旅行社,118.732002,32.047089
德高旅游,江苏,南京,南京,025,,九龙湖滨天地,诚信大道殷巷农贸市场二期02幢,景点,旅行社,118.834709,31.910431
游吧旅行网,江苏,南京,南京,025,,珠江路沿线,珠江路88号新世界中心A座43层4313室,景点,旅行社,118.788711,32.049371
中国国旅国际旅行社有限公司,江苏,南京,南京,025,,新街口地区,汉中路202-1号金陵风尚负1层,景点,旅行社,118.783936,32.043575
秦源国际旅行社,江苏,南京,溧水区,025,56222269,广成/荣昌,永阳街道珍珠南路111,景点,旅行社,119.033012,31.636946
原野国际旅行社no.068,江苏,南京,南京,025,189****0086,雄州,白果路17-3号,景点,旅行社,118.851476,32.340756
神龙旅行社,江苏,南京,南京,025,,山西路/湖南路,中山北路49江苏机械大厦32层,景点,旅行社,118.778949,32.062469
夕阳红国际旅游,江苏,南京,溧水区,025,189****5851,大西门,红花巷22号,景点,旅行社,119.025335,31.653016
德高国际旅游,江苏,南京,南京,025,86942601,秦虹村/中华门,秦虹南路158号,景点,旅行社,118.806824,32.008423
大华国旅墨香山庄,江苏,南京,南京,025,,营苑北路/墨香路,墨香路30号,景点,旅行社,118.836632,32.101086
德高旅游,江苏,南京,南京,025,85506318,马群街道,马群街道南湾营创业一条街039-1号,景点,旅行社,118.899857,32.039886
中山陵旅行社,江苏,南京,南京,025,84435290,玄武区,石象路7号四方城3号,景点,旅行社,118.84053,32.04618
味他行旅行社,江苏,南京,高淳区,025,57313678,固城湖路沿线,固城湖北路4-3号（老中医院旁）,景点,旅行社,118.879288,31.324406
辉煌·旅行社,江苏,南京,南京,025,84058188,江宁科学园,科学园科苑路128号兴民工业园内,景点,旅行社,118.854706,31.928938
南京利济巷慰安所旧址陈列馆,江苏,南京,南京,025,58598353,常府街/长白街,利济巷2号（大行宫地铁站出入口步行360米）,景点,陈列馆,118.797762,32.038996
菩提林,江苏,南京,高淳区,025,181****1186,高淳区中心城区,淳溪镇学山路43号,景点,自然景观,118.869843,31.324486
与你同行国际旅行社,江苏,南京,南京,025,68569774,新街口地区,中山南路89号江苏文化大厦13层A,景点,旅行社,118.784554,32.037128
假山瀑布,江苏,南京,南京,025,,火车站/玄武湖,玄武湖公园内,景点,自然景观,118.7907,32.071277
祥源国际旅行社,江苏,南京,南京,025,86666199,新城市/虹桥中心,中山北路南京饭店锦南商务楼8101,景点,旅行社,118.764376,32.075516
君子游原野国旅,江苏,南京,南京,025,,茶南美食/万达金街,水西门大街229号,景点,旅行社,118.749481,32.034341
沈春霞油画艺术创作中心,江苏,南京,南京,025,,江宁区,红星大道158号,景点,美术馆,118.746071,31.77943
五台德基旅行社有限公司,江苏,南京,南京,025,58493570,浦口区,金汤街点将台旅社附近,景点,旅行社,118.697899,32.126019
南京金鹰旅行社欢乐谷1日游,江苏,南京,南京,025,68517871;68517873,新街口地区,新街口沃尔玛超市门口,景点,旅行社,118.785645,32.041229
中北国际旅游,江苏,南京,南京,025,66020330,横梁镇商圈,梵天路240号,景点,旅行社,118.937241,32.320671
游乐国际旅游,江苏,南京,南京,025,86625992,升州路/集庆路,升州路宝记小吃旁,景点,旅行社,118.783295,32.023304
会购-爱旅游俱乐部,江苏,南京,南京,025,4006065114,总统府/1912商圈,长江路292号总统府,景点,旅行社,118.797322,32.044248
夫子庙水上游览,江苏,南京,南京,025,,夫子庙地区,贡院街80-1号南京夫子庙,景点,旅游项目/观光项目,118.789444,32.02018
中国康辉南京国际旅行社,江苏,南京,南京,025,68663300,大厂,杨村路5栋101室,景点,旅行社,118.761635,32.238319
雨花台烈士陵园,江苏,南京,南京,025,68783096,雨花台区,雨花路215号雨花台风景名胜区名胜古迹区内,景点,烈士陵园,118.780098,31.998491
神州国际旅行社,江苏,南京,南京,025,86597747;68663721,大华家乐福,浦珠北路59号大华锦绣华城榴美颂02幢112室,景点,旅行社,118.722361,32.116681
红山创意产业园A2区,江苏,南京,南京,025,,火车站/玄武湖,黄家圩41-1号（南京站地铁站13号口步行500米）,景点,创意园区,118.797234,32.092186
南京东方国旅,江苏,南京,南京,025,,浦口区,万寿路10号B栋5楼,景点,旅行社,118.663535,32.08245
螃蟹一条街,江苏,南京,南京,025,,新街口地区,洪武路168-2附近,景点,休闲街区,118.786285,32.035206
越强国际旅行社,江苏,南京,高淳区,025,,高淳区,经济开发区松园南路9号,景点,旅行社,118.930459,31.343369
世友国际旅行社,江苏,南京,溧水区,025,189****2059,溧水区,龙山小区1-3号,景点,旅行社,119.041656,31.655663
宝篆斋艺术馆,江苏,南京,南京,025,86522066,莫愁湖/水西门,西止马营48号,景点,美术馆,118.770792,32.033992
百事通国际旅行社公司,江苏,南京,南京,025,52121808,胜太路沿线,胜太东路8号同曦鸣城A8栋4楼,景点,旅行社,118.82383,31.944599
申腾旅游公司,江苏,南京,南京,025,86364553;86717251,江宁滨江开发区,梅山生活区69号楼一楼,景点,旅行社,118.632595,31.901805
中北旅游咨询,江苏,南京,南京,025,159****3812,横梁镇商圈,山东路与富石路交叉路口北侧,景点,旅行社,118.932808,32.324135
腾辉旅游,江苏,南京,高淳区,025,189****0302,宝塔路沿线,镇兴路177-39号,景点,旅行社,118.879883,31.328884
饰品公园,江苏,南京,南京,025,,夫子庙地区,平江府路80-1号南京夫子庙-秦淮风光带内（东侧）,景点,公园/广场,118.792587,32.015881
翠屏山服务区中北国际旅游,江苏,南京,南京,025,,将军大道沿线,天元西路168号翠屏山宾馆1层,景点,旅行社,118.796196,31.928249
江苏金桥国际旅行社有限公司,江苏,南京,南京,025,83206999,山西路/湖南路,中山北路219号宏图大厦9楼901室,景点,旅行社,118.766975,32.071037
德高旅游,江苏,南京,南京,025,52189491,东山镇,芙阁路229号,景点,旅行社,118.848071,31.958345
佛缘堂微雕艺术馆,江苏,南京,南京,025,,夫子庙地区,贡院西街37号,景点,美术馆,118.788986,32.021137
原野国际旅游,江苏,南京,南京,025,85333878,苜蓿园,苜蓿园大街46号,景点,旅行社,118.831668,32.034238
德高旅游,江苏,南京,南京,025,,禄口机场,国际机场T2航站楼1层,景点,旅行社,118.875671,31.730425
江苏金色假日旅行社,江苏,南京,南京,025,,大厂,新华路87号,景点,旅行社,118.745178,32.221779
浦口凤凰山公园,江苏,南京,南京,025,57758978,江浦,江浦大道公园北路99号,景点,城市公园,118.622162,32.06216
舜天海外旅游,江苏,南京,南京,025,,东山镇,金箔路999号黄金海岸第二街区106号,景点,旅行社,118.835892,31.949741
2012年度南京市旅游园林游园年卡,江苏,南京,南京,025,85318901,进香河/老虎桥,新街口地铁2号线21号出口旁,景点,旅行社,118.791534,32.057747
戴安娜湖,江苏,南京,南京,025,,东山镇,中水路58号（三江学院东山校区内）,景点,自然风光,118.824116,31.972096
扬州三人行旅行社,江苏,南京,南京,025,66099226,山西路/湖南路,中山北路215-1号中山万豪大厦2008室,景点,旅行社,118.770164,32.070023
金陵兵工厂,江苏,南京,南京,025,,秦虹村/中华门,应天大街388号南京晨光1865创意产业园b-1楼厂史陈列馆附近,景点,人文古迹,118.786106,32.006034
南京汤嘉御品温泉,江苏,南京,南京,025,58165999,汤泉社区,银泉路12号,景点,温泉,118.516006,32.092503
兴隆洲湿地公园,江苏,南京,南京,025,,龙袍镇,龙袍街道东南25公里,景点,公园/广场,119.016251,32.210255
江苏百事通国际旅行社有限公司,江苏,南京,南京,025,68229098,新街口地区,中山东路18号国际贸易中心8楼C3号,景点,旅行社,118.785713,32.041321
辛亥革命雨花台之役阵亡将士人马合冢,江苏,南京,南京,025,68783096,雨花台区,雨花路215号南京雨花台风景区名胜古迹区,景点,烈士陵园,118.780556,32.003101
王安石故居半山园,江苏,南京,南京,025,,珠江路沿线,前半园21号,景点,名人故居,118.82476,32.046455
大明孝陵神功圣德碑,江苏,南京,南京,025,,玄武区,四方城1号（近卫岗）,景点,人文古迹,118.843355,32.046665
南京市中国旅行社有限公司,江苏,南京,南京,025,66066196,升州路/集庆路,升州路桃园人家东北侧约120米,景点,旅行社,118.774929,32.026705
德高旅游,江苏,南京,南京,025,189****7462,大厂,新华路199号,景点,旅行社,118.749825,32.224659
龙山上庄园度假村,江苏,南京,南京,025,52739802,江宁区,"西阳社区龙山上庄园（旅游大道,银杏湖高尔夫球场）",景点,景点/周边游,118.720551,31.778173
康辉旅游,江苏,南京,南京,025,,建宁路,建宁路137-2号附近,景点,旅行社,118.759056,32.093307
中国国际旅行社,江苏,南京,南京,025,58786610,升州路/集庆路,中山南路371号-3投资大厦正对面（近地铁一号线三山街站）,景点,旅行社,118.781708,32.022427
天乐国际旅行社（总部））,江苏,南京,南京,025,83204557,常府街/长白街,太平南路83号光明饭店2楼,景点,旅行社,118.79438,32.038712
环亚大通国际旅行社,江苏,南京,南京,025,68666666,新街口地区,汉中路1号国际金融中心23A层,景点,旅行社,118.782623,32.041512
明城垣史博物馆,江苏,南京,南京,025,83370272,火车站/玄武湖,玄武门街道环湖路解放门8号（近古鸡鸣寺）,景点,博物馆,118.796837,32.062069
不老村,江苏,南京,南京,025,58154909,浦口区,江浦街道,景点,特色乡村,118.611959,32.092526
桃叶渡文化艺术馆,江苏,南京,南京,025,159****5454,夫子庙地区,夫子庙贡院街19号,景点,美术馆,118.793449,32.022476
南京高淳国际慢城,江苏,南京,高淳区,025,56861235,国际慢城,桠溪镇生态路6号,景点,自然风光,119.100022,31.41208
天空美术馆,江苏,南京,南京,025,86460999,江东中路/河西大街,江东中路329号南京金奥美学生活馆F4层,景点,美术馆,118.72554,31.998846
大报恩寺遗址景区,江苏,南京,南京,025,52009999;52823388,秦虹村/中华门,中华门外雨花路1号,景点,古代遗迹,118.78298,32.009218
永安旅游,江苏,南京,南京,025,83478887,火车站/玄武湖,中央路417号先锋广场11层1143号,景点,旅行社,118.782967,32.087528
华侨招待所旧址,江苏,南京,南京,025,,山西路/湖南路,中山北路81号,景点,历史建筑,118.776353,32.064988
南京国防园,江苏,南京,南京,025,83728950;83313180,草场门/龙江,华侨路街道虎踞路87号（近虎踞南路）,景点,文化公园,118.754792,32.051361
夫子庙民间艺术大观园,江苏,南京,南京,025,,夫子庙地区,贡院街152号,景点,园林,118.788284,32.021286
茉莉花园银牛度假酒店,江苏,南京,南京,025,57565888;57569999,六合区,金牛湖风景区茉莉花园（金牛湖地铁站1号口步行450米）,景点,更多景点/周边游,118.967204,32.468693
点尚互动,江苏,南京,南京,025,68738759;186****9180,仙林大学城,仙林大道羊山公园,景点,旅行社,118.94323,32.112434
中北国际旅行社,江苏,南京,南京,025,138****8515,南京南站/明发,玉兰路99号,景点,旅行社,118.796387,31.975786
中国国旅（江苏）国际旅行社,江苏,南京,南京,025,83532578,莫愁湖/水西门,汉中门大街1号金鹰汉中新城16、28层,景点,旅行社,118.763931,32.040543
天妃宫,江苏,南京,南京,025,58801266,南京西站/阅江楼,建宁路284号,景点,宗教,118.746254,32.092289
汤泉宾馆,江苏,南京,南京,025,58248888,汤泉社区,汤泉街道惠济南路9号,景点,温泉,118.516273,32.089802
石佛寺天燃气,江苏,南京,南京,025,57078622,浦口区,浦珠中路359号石佛驾校内,景点,景点/周边游,118.671385,32.091668
舜天海外旅游,江苏,南京,南京,025,138****4357,铁心桥/三江学院,宁丹路18-16号,景点,旅行社,118.759621,31.953791
茉莉江苏文化旅游城,江苏,南京,南京,025,189****3920,六合区,龙池街道雄州南路399号,景点,创意园区,118.805747,32.297629
周园,江苏,南京,溧水区,025,57452666;57451999,周园,白袁路88号,景点,历史建筑,119.192467,31.627014
东门台阶遗址,江苏,南京,南京,025,84395522,玄武区,国会大道与石象路交叉口东南150米,景点,古代遗迹,118.843549,32.04666
江苏石城会议中心,江苏,南京,南京,025,83730671,南京艺术学院/龙江,石头城路68号,景点,景点/周边游,118.750999,32.055038
达摩古洞景区,江苏,南京,南京,025,83576343,栖霞区,永济大道达摩古洞景区,景点,宗教,118.797175,32.13173
要出发旅行网,江苏,南京,南京,025,4001181166,百家湖,菲尼克斯路70号总部基地43栋212室,景点,旅行社,118.833862,31.930704
南京微游国旅,江苏,南京,南京,025,87754300,集庆门大街,福园街133-1号附近,景点,旅行社,118.737272,32.030002
七仙大福村旅游度假村,江苏,南京,南京,025,85098585;189****7132,江宁区,七仙大福村（靠近小丹阳）,景点,更多景点/周边游,118.695389,31.643303
爱家青旅,江苏,南京,南京,025,159****3224,丹凤街,珠江路199号406室,景点,旅行社,118.788643,32.050018
南京古生物博物馆,江苏,南京,南京,025,83282255,火车站/玄武湖,北京东路39号（鸡鸣寺地铁站5号口步行200米）,景点,博物馆,118.795204,32.059586
南京国际博览中心,江苏,南京,南京,025,86753315,国际博览中心/元通,江东中路300号,景点,现代建筑,118.715888,31.993001
江苏禁毒展览馆,江苏,南京,南京,025,84578710,新街口/德基广场,长江路390号总统府出口,景点,陈列馆,118.796722,32.042942
林公堤民国风情美食休闲街,江苏,南京,南京,025,58557199,江浦,上河街珠江小学旁边,景点,休闲街区,118.628258,32.054157
江宁博物馆,江苏,南京,南京,025,52167730;84912029,江宁科学园,竹山路80号,景点,博物馆,118.843697,31.948099
南京茉莉花旅行社,江苏,南京,南京,025,136****5616,雄州,延安路59号六合图书馆2层,景点,旅行社,118.846097,32.349834
王安石故居,江苏,南京,南京,025,,明故宫/后宰门,后宰门街与清溪路交叉口东北220米,景点,名人故居,118.82476,32.046474
时代国粹文化博物馆,江苏,南京,南京,025,,莫愁湖/水西门,汉中门大街31号华园26、27号,景点,陈列馆,118.760368,32.038403
南京市中国旅行社有限公司,江苏,南京,南京,025,68134886,东山镇,金箔路518号全民健身中心大厦F1层,景点,旅行社,118.850433,31.949615
青和当代美术馆,江苏,南京,南京,025,85559961,鼓楼区,幕府东路205号,景点,美术馆,118.802635,32.11533
诸子艺术馆,江苏,南京,南京,025,86474929,南京艺术学院/龙江,江东北路111号东宝大厦（东宝花园外侧）,景点,美术馆,118.738541,32.043434
茶南商业街,江苏,南京,南京,025,183****0491,茶南美食/万达金街,茶南大街（云锦路地铁站1号口步行100米）,景点,休闲街区,118.747757,32.034611
吴敬梓纪念馆,江苏,南京,南京,025,86772965,夫子庙地区,东关头路25号,景点,纪念馆,118.795959,32.022755
太平天国历史博物馆,江苏,南京,南京,025,52201849,夫子庙地区,夫子庙街道瞻园路128号（近中华路）,景点,博物馆,118.785301,32.020443
苏南反顽战役纪念馆,江苏,南京,溧水区,025,,溧水区,永兴大道36号溧阳曹山旅游度假区,景点,纪念馆,119.173991,31.545477
外秦淮河网红游船水木秦淮码头,江苏,南京,南京,025,173****8111,南京艺术学院/龙江,石头城路97号水木秦淮街区码头D栋,景点,城市观光,118.749342,32.063513
恽代英烈士殉难处,江苏,南京,南京,025,,河西,茶亭东街与云锦路交叉口西120米,景点,烈士陵园,118.743172,32.036053
梅园中共代表团办公原址,江苏,南京,南京,025,84540739,总统府/1912商圈,梅园新村17号,景点,历史建筑,118.802126,32.042615
白马湖,江苏,南京,南京,025,,江浦,象山路与孝祥路交叉口西约180米,景点,更多景点/周边游,118.619514,32.07056
南京中山植物园,江苏,南京,南京,025,84347062;84347188,玄武区,孝陵卫街道前湖后村1号中山陵园风景区,景点,植物园,118.831337,32.054443
六合国家地质公园瓜埠山景区,江苏,南京,南京,025,57199279,瓜埠,瓜埠地质公园,景点,自然风光,118.896095,32.250065
江苏工美艺术精品馆,江苏,南京,南京,025,86612191,南京艺术学院/龙江,北京西路72号东2楼,景点,陈列馆,118.757128,32.061178
养墨堂美术馆,江苏,南京,南京,025,86630399,奥体中心,华山路136号,景点,美术馆,118.726825,32.019232
郑和纪念馆,江苏,南京,南京,025,,常府街/长白街,太平巷郑和公园里,景点,纪念馆,118.795021,32.030903
广厦美术馆,江苏,南京,南京,025,83313180,山西路/湖南路,平安里78号,景点,美术馆,118.773773,32.074032
南京地震科学馆,江苏,南京,南京,025,84432772,玄武区,中山陵东新村7号,景点,科技馆,118.860382,32.049686
小红山,江苏,南京,南京,025,,红山动物园/火车站,锁金村街道,景点,自然景观,118.798477,32.092182
光华门,江苏,南京,南京,025,,苜蓿园,光华东街8号,景点,旅行社,118.821884,32.024406
老匾联艺术馆,江苏,南京,南京,025,58600823,浦口区,玉带路侯冲风景区,景点,美术馆,118.566635,32.139359
汪精卫旧居,江苏,南京,南京,025,,南大/南师大,西康路46号,景点,名人故居,118.764549,32.062069
老电影海报馆,江苏,南京,南京,025,,浦口区,永宁街道侯冲风景区,景点,陈列馆,118.566925,32.130985
乐平旅社,江苏,南京,南京,025,159****3822,大厂,长冲街131-2号,景点,旅行社,118.765068,32.231934
老山国家森林公园,江苏,南京,南京,025,58112708,浦口区,黄山岭路90号,景点,森林公园,118.573723,32.085331
傅家边,江苏,南京,溧水区,025,132****5678,傅家边草莓园,洪蓝镇傅家边,景点,游乐场,119.028295,31.561965
雕刻展示馆,江苏,南京,高淳区,025,57330757,高淳老街,淳溪镇中山大街114号,景点,博物馆,118.868172,31.319849
杨厅,江苏,南京,高淳区,025,57330757,高淳老街,高淳老街内中山大街106号,景点,名人故居,118.868469,31.319778
新四军驻高淳办事处旧址,江苏,南京,高淳区,025,57330757;57325558,高淳老街,高淳老街内仓巷,景点,革命根据地,118.870636,31.319204
南京长江大桥公园,江苏,南京,南京,025,85821918;85822475,金陵小区,宝塔桥东街7号大桥南堡公园（近大桥公园游泳池）,景点,城市公园,118.75242,32.109698
大华国际旅行社,江苏,南京,南京,025,4001109966,火车站/玄武湖,北京东路22号和平大厦15楼,景点,旅行社,118.79847,32.057037
渡江胜利纪念馆,江苏,南京,南京,025,84649423,热河南路/三汊河,渡江路1号,景点,纪念馆,118.731445,32.073753
黄天荡湿地公园,江苏,南京,南京,025,,栖霞区,龙潭街道136乡道西50米,景点,城市公园,119.124589,32.236399
南京颐尚温泉,江苏,南京,南京,025,51190666,汤山镇,汤山街道温泉路8号,景点,温泉,119.050484,32.047272
水车房,江苏,南京,南京,025,,奥体中心,扬子江大道228号滨江公园南京中国绿化博览园荷兰园内,景点,更多景点/周边游,118.706918,32.018728
绿色建筑·材料展示中心,江苏,南京,南京,025,,莫愁湖/水西门,虎踞南路28-30号金墙大厦A座2层,景点,展览馆,118.767082,32.039383
莫干山,江苏,南京,高淳区,025,,北岭路沿线,和顺路高淳大市场9幢,景点,自然景观,118.866211,31.334528
南京国际博览中心3馆,江苏,南京,南京,025,4000371197,国际博览中心/元通,江东中路300号（元通地铁站1号口步行410米）,景点,展览馆,118.716736,31.995401
直升机空中游览俱乐部,江苏,南京,南京,025,58280000,浦口区,中心路与生态路交叉口东南200米,景点,高空观景,118.577034,32.056374
金宝美食街,江苏,南京,南京,025,,东山镇,上元大街862号4-105号,景点,休闲街区,118.856514,31.954651
南京城墙景区,江苏,南京,南京,025,83608359,火车站/玄武湖,解放门8号,景点,历史建筑,118.796622,32.062423
晏湖雅园,江苏,南京,南京,025,,江宁区,龙坊路185号,景点,城市公园,118.701599,31.775471
毗卢寺,江苏,南京,南京,025,84405431,珠江路沿线,梅园新村街道汉府街4号（西安门地铁站2号口步行370米）,景点,宗教,118.803345,32.042873
新濠温泉,江苏,南京,南京,025,83318881,奥体中心,奥体大街177号环宇美食广场3层,景点,温泉,118.723919,32.003799
陆郎人家,江苏,南京,南京,025,138****1997,江宁区,六塘街童欢托幼中心(神山路)东北侧约60米,景点,宗教,118.63205,31.787893
新街口,江苏,南京,南京,025,,新街口地区,中山东路49号,景点,休闲街区,118.784576,32.04137
蒲仙岛游乐场,江苏,南京,南京,025,83615961,火车站/玄武湖,玄武巷1号玄武湖公园内,景点,游乐场,118.792931,32.076263
水墨大埝旅游区,江苏,南京,南京,025,58656666,浦口区,岔琥路29号,景点,美丽乡村,118.594406,32.123055
通达旅游,江苏,南京,南京,025,58500026,新街口地区,中山东路90号华泰证券大厦10楼w3室,景点,旅行社,118.78849,32.040981
金陵大学旧址,江苏,南京,南京,025,,南大/南师大,汉口路22号,景点,历史建筑,118.781319,32.054676
谷德体育公园,江苏,南京,南京,025,69612137;180****6987,江宁区,东善桥工业园隆盛路66号西门,景点,公园/广场,118.790537,31.870907
大卫绘画艺术空间,江苏,南京,南京,025,134****6809,江宁万达,黄金海岸广场二街区2楼235号、237号,景点,美术馆,118.835823,31.949524
西埂莲乡,江苏,南京,南京,025,58105088;58102998,浦口区,永宁街道虹余路与浦合线交叉口东北侧,景点,更多景点/周边游,118.591133,32.154232
南京中华虎凤蝶自然博物馆,江苏,南京,南京,025,58225320;181****5320,浦口区,岔琥路水墨大埝旅游区,景点,博物馆,118.597816,32.121105
德高国际旅游有限公司,江苏,南京,南京,025,139****2718,岔路口,宏运大道595号顾家百货1楼,景点,旅行社,118.81778,31.966183
侯冲景区,江苏,南京,南京,025,58600823;58600821,浦口区,汤盘公路侯冲风景区,景点,自然风光,118.566589,32.139599
黄大圩湿地,江苏,南京,南京,025,,六合区,商周文化遗址,景点,自然风光,118.70565,32.381561
老鸦坝水库,江苏,南京,溧水区,025,,溧水区,白马镇,景点,现代建筑,119.195854,31.60165
幸庄湿地公园,江苏,南京,溧水区,025,,溧水区,草鞋山路与随园路交界处,景点,城市公园,119.034773,31.616488
玉屏旅游,江苏,南京,南京,025,66036538,大厂,新华路213号,景点,旅行社,118.750076,32.224812
固城湖水慢城,江苏,南京,高淳区,025,68765036;68765016,高淳区,迎湖路9号,景点,自然风光,118.89547,31.290556
