名称,省份,真实城市,市县区,区号,电话,区域,地址,大分类,小分类,经度,纬度
北阁,广东,广州,广州,020,,石牌/龙口,黄埔大道西广州珠江新城希尔顿欢朋酒店,景点,人文古迹,113.342728,23.126736
陈树人纪念馆,广东,广州,广州,020,87782436,中山二三路/东山口,署前路10号（东山口地铁站E口步行110米）,景点,纪念馆,113.295403,23.12314
高剑父纪念馆,广东,广州,广州,020,81364905;138****1108,火车站/人民北路,盘福路朱紫街87号（距越秀公园地铁站E出口240米）,景点,纪念馆,113.261467,23.136407
广东美术馆,广东,广州,广州,020,87351468,沿江路/二沙岛,二沙岛烟雨路38号,景点,美术馆,113.307107,23.108075
蒂豪女人街,广东,广州,广州,020,81399932,上下九商业区,下九路24-28号光雅里小区旁,景点,步行街,113.246623,23.113853
东方国际旅行社,广东,广州,广州,020,86663591,火车站/人民北路,流花路120号东方商场2楼（地铁越秀公园D出口）,景点,旅行社,113.258606,23.139383
广之旅,广东,广州,广州,020,86338888,机场路沿线,乐嘉路1号四层客服中心,景点,旅行社,113.259584,23.167652
华夏国际旅行社,广东,广州,从化区,020,87926248,街口/新世纪广场,河滨南路34号,景点,旅行社,113.592022,23.542475
开元国际旅行社,广东,广州,广州,020,83851189,小北/淘金,环市东路348号市政大厦1001-1008室,景点,旅行社,113.283697,23.137127
广东铁青,广东,广州,广州,020,61251278;61281888,东风东/杨箕,中山一路98号（东山口地铁站D口步行150米）,景点,旅行社,113.297968,23.124978
中国国际旅行社,广东,广州,广州,020,86666271,东风中路/越秀公园,小北路49号华宇大厦17楼,景点,旅行社,113.27139,23.13211
西汉南越王博物馆,广东,广州,广州,020,36182920,火车站/人民北路,解放北路867号,景点,博物馆,113.261019,23.137814
仁威祖庙,广东,广州,广州,020,81705462,中山七八路,昌华街道泮塘路荔湾中学南20米,景点,宗教,113.235756,23.12336
陈家祠广场,广东,广州,广州,020,81819653,中山七八路,中山七路恩龙里34号,景点,广场,113.245262,23.126085
广东科学馆,广东,广州,广州,020,28328300,北京路商业区,连新路171号（纪念堂地铁站C口步行130米）,景点,陈列馆,113.262928,23.133522
广东省工艺美术珍品馆,广东,广州,广州,020,31952937,琶洲,新港东路2519号,景点,美术馆,113.40097,23.093704
广州博物馆,广东,广州,广州,020,83545253,东风中路/越秀公园,解放北路988号越秀公园内镇海楼,景点,博物馆,113.266953,23.137617
广州动物园,广东,广州,广州,020,38377572,环市东路/区庄,先烈中路120号,景点,动物园,113.305331,23.140869
番禺大夫山森林公园,广东,广州,广州,020,84801183,钟村,禺山西路668号,景点,森林公园,113.308936,22.950419
东山湖公园,广东,广州,广州,020,87775672;87609086,沿江路/二沙岛,东湖路123号（近二沙岛）,景点,城市公园,113.292021,23.115203
荔湾湖公园,广东,广州,广州,020,81290862;81968601,中山七八路,昌华街道龙津西路155号,景点,城市公园,113.233587,23.121222
广州市流溪河国家森林公园,广东,广州,从化区,020,87844691;87843288,良口镇,良口镇105国道旁边,景点,森林公园,113.782531,23.748214
人民公园,广东,广州,广州,020,,北京路商业区,府前路（公园前地铁站K口步行60米）,景点,城市公园,113.264352,23.12721
石门国家森林公园,广东,广州,从化区,020,87850738,白水寨/派潭,934县道温泉镇,景点,森林公园,113.788833,23.627346
广州市越秀公园,广东,广州,广州,020,86661950;83604271,东风中路/越秀公园,解放北路988号,景点,城市公园,113.265506,23.140136
珠江公园,广东,广州,广州,020,38858081,兴盛路/跑马场,石牌街道金穗路900号,景点,城市公园,113.339172,23.120123
怀圣寺,广东,广州,广州,020,83333593,中山六路,光塔路56号,景点,宗教,113.259039,23.122864
光孝寺,广东,广州,广州,020,81088867,中山六路,光孝路109号,景点,宗教,113.256598,23.129365
六榕寺,广东,广州,广州,020,83392843,中山六路,六榕路87号,景点,宗教,113.260117,23.127879
眉山圣地,广东,广州,广州,020,,市桥,市桥街道黄编村大北路雅马哈电动车东100米,景点,宗教,113.371094,22.9492
南海神庙,广东,广州,广州,020,82210927,生活区/南岗,穗东街电厂西路,景点,宗教,113.497904,23.080393
大元帅府纪念馆,广东,广州,广州,020,89012366;89012802,滨江路沿线,纺织路东沙街18号,景点,纪念馆,113.279173,23.110058
黄埔军校旧址纪念馆,广东,广州,广州,020,82201082;82201583,长洲岛,长洲街道军校路170号大院,景点,纪念馆,113.424749,23.08606
聚龙古村,广东,广州,广州,020,185****4033,芳村,芳村大冲口杏花大街,景点,古村古镇,113.240695,23.088135
农讲所旧址,广东,广州,广州,020,83333936,北京路商业区,中山四路42号（近地铁农讲所站西出口）,景点,革命旧址,113.276695,23.127101
宝墨园景区,广东,广州,广州,020,84746666,沙湾镇,沙湾镇紫坭村村南路与辅仁大街交叉口东侧,景点,园林,113.294101,22.894898
北回归线标志,广东,广州,从化区,020,,太平镇/太平商业街,广从南路440号,景点,现代建筑,113.487682,23.43932
圣心大教堂,广东,广州,广州,020,83396860,海珠广场,人民街道一德路旧部前56号,景点,宗教,113.260327,23.114502
天河飘绢,广东,广州,广州,020,81309810,天河北/广州东站,火车东站广场（近地铁广州东站站）,景点,地标建筑,113.324883,23.146622
五仙观,广东,广州,广州,020,83323508,中山六路,惠福西路233号,景点,博物馆,113.25996,23.120606
余荫山房,广东,广州,广州,020,34822187,长隆/南村,南村镇北大街,景点,园林,113.39575,23.011484
中山纪念堂,广东,广州,广州,020,83567966,东风中路/越秀公园,东风中路299号,景点,纪念公园,113.264679,23.132866
广州长隆野生动物世界,广东,广州,广州,020,4008830083,长隆/南村,汉溪大道东299号,景点,野生动物园,113.31527,23.002153
洪秀全故居,广东,广州,广州,020,36966779;36861225,花都区,如意街1号,景点,名人故居,113.172887,23.417059
白云山风景名胜区,广东,广州,广州,020,37222222,白云区,广园中路801号,景点,自然风光,113.299767,23.184265
芙蓉嶂风景区,广东,广州,广州,020,34354303,花都区,狮岭镇芙滨路,景点,自然风光,113.224525,23.50865
航天奇观,广东,广州,广州,020,,车陂/东圃,大观公园路广州思源学校(小学部)东北侧约40米,景点,科技观光,113.408748,23.149428
珠江夜游蓝海豚游船,广东,广州,广州,020,83812208;83850850,沿江路/二沙岛,沿江东路466号大沙头码头（地铁6号线东湖站B2出口，海印桥底）,景点,城市观光,113.284849,23.112524
广州莲花山旅游区,广东,广州,广州,020,84865282,石楼,西门路123号,景点,自然风光,113.503651,22.98568
帽峰山景区,广东,广州,广州,020,87464696,太和镇,高屋村和富路帽峰山景区,景点,自然风光,113.462678,23.302617
盘古王公园,广东,广州,广州,020,86846134,狮岭,狮岭镇振兴村盘古北路,景点,文化公园,113.155995,23.483674
沙面人才休闲岛,广东,广州,广州,020,81217990,沙面,沙面大街与沙面三街交叉口西南角,景点,步行街,113.244599,23.106746
云台花园,广东,广州,广州,020,37222222,麓湖公园,广园中路白云索道侧,景点,植物园,113.294429,23.159194
中国科学院华南国家植物园,广东,广州,广州,020,85232037,龙洞/岑村,天源路1190号,景点,植物园,113.36715,23.181902
广州长隆欢乐世界,广东,广州,广州,020,4008830083,长隆/南村,汉溪大道东299号,景点,主题乐园,113.32991,22.998932
海珠博物馆,广东,广州,广州,020,34384021,江南大道沿线,宝岗大道龙涎里2号邓世昌纪念馆内（南侧）,景点,博物馆,113.260406,23.101048
中华全国总工会旧址纪念馆,广东,广州,广州,020,83832587,北京路商业区,越秀南路89号（团一大广场地铁站A口步行120米）,景点,纪念馆,113.277796,23.119154
杨桃公园,广东,广州,广州,020,82564052,车陂/东圃,桃园中路7号,景点,公园/广场,113.414047,23.112406
花都人民公园,广东,广州,广州,020,36981728,花都广场/区政府,紫薇路23号,景点,城市公园,113.220375,23.408121
晓港公园,广东,广州,广州,020,84474574,江南大道沿线,江南中街道前进路146号（晓港地铁站A口步行490米）,景点,城市公园,113.280691,23.096511
花都芙蓉旅游度假村,广东,广州,广州,020,31357226,花都区,狮岭镇,景点,更多景点/周边游,113.224541,23.508768
天河公园,广东,广州,广州,020,85525020,天河公园/上社,黄埔大道员村段（天河公园地铁站E1口步行310米）,景点,城市公园,113.366241,23.128296
凤凰山森林公园,广东,广州,广州,020,88528440,龙洞/岑村,凤凰街道渔东路渔沙坦村（近柯木塱村）,景点,森林公园,113.389206,23.218838
百万葵园,广东,广州,南沙区,020,84956821;84956863,百万葵园/十九涌,万顷沙镇新港大道与渔港大道交叉口南5米,景点,植物园,113.620078,22.628172
广州长隆国际大马戏,广东,广州,广州,020,4008830083,长隆/南村,汉溪大道299号,景点,旅游项目/观光项目,113.33143,23.003439
东风公园,广东,广州,广州,020,37597320,越秀区,广州大道北199号,景点,公园/广场,113.31324,23.142689
中山大学北门广场,广东,广州,广州,020,,滨江路沿线,滨江东路,景点,广场,113.299667,23.103111
洲头咀公园,广东,广州,广州,020,,滨江路沿线,滨江西路26号,景点,城市公园,113.245845,23.101811
庄头公园,广东,广州,广州,020,,工业大道沿线,南石头街道工业大道中（珠江医院对面）,景点,城市公园,113.26455,23.07982
琶洲塔,广东,广州,广州,020,34310734,琶洲,琶洲街道新港东路新窖镇琶洲村,景点,历史建筑,113.375526,23.10129
曹崇恩雕塑园,广东,广州,广州,020,,海珠区,小洲东路203号,景点,公园/广场,113.36363,23.059407
赤岗塔,广东,广州,广州,020,,客村/赤岗,友邻东街18号（广州塔地铁站B口步行430米）,景点,历史建筑,113.32256,23.101589
纯阳观,广东,广州,广州,020,84189071,新港西路沿线,瑞康路268号,景点,宗教,113.294769,23.085306
邓世昌纪念馆,广东,广州,广州,020,84391036;34384021,江南大道沿线,宝岗大道龙涎里2号,景点,纪念馆,113.260425,23.101136
南越王宫博物馆,广东,广州,广州,020,83896501,北京路商业区,中山四路316号,景点,博物馆,113.269859,23.126965
滴水岩森林公园,广东,广州,广州,020,84733636,沙湾镇,新新大道北广州供电局充电站西200米,景点,森林公园,113.315471,22.90728
广州兰圃,广东,广州,广州,020,86677255;86684179,火车站/人民北路,解放北路901号,景点,植物园,113.260396,23.143741
广州文化公园,广东,广州,广州,020,81290585,康王路,西堤二马路37号,景点,文化公园,113.251215,23.109628
青年公园,广东,广州,广州,020,81729177;81819021,西村/西场,南岸路5号,景点,公园/广场,113.228477,23.126574
南沙天后宫,广东,广州,南沙区,020,84981223,南沙区,天后路88号,景点,历史建筑,113.619136,22.757251
海印公园,广东,广州,广州,020,34298885;34298885,滨江路沿线,滨江东路498号（近海印大桥）,景点,城市公园,113.28801,23.106291
二沙岛,广东,广州,广州,020,,沿江路/二沙岛,大通路263号,景点,自然风光,113.305539,23.109965
碧水湾温泉,广东,广州,从化区,020,87842888,良口镇,良口镇105国道旁御泉大道353号,景点,温泉,113.716537,23.699707
南湖国旅,广东,广州,广州,020,83171734,东晓南路沿线,东晓南路晓港湾商业区惠侨苑高层E座首层17号铺,景点,旅行社,113.295659,23.070241
天鹿湖森林公园,广东,广州,广州,020,32033860;87265691,黄埔区,116省道与明珠街交叉口东南30米,景点,森林公园,113.42834,23.222414
岭南会展览馆,广东,广州,广州,020,87353209;87351210,沿江路/二沙岛,二沙岛晴波路15号,景点,展览馆,113.302963,23.107849
七星岗公园,广东,广州,广州,020,,长隆/南村,南村镇市新公路与南村东线路交汇处西南角,景点,公园/广场,113.39443,22.994758
醉观公园,广东,广州,广州,020,81589510,芳村,东漖北路4号,景点,城市公园,113.231221,23.099343
广州三元宫,广东,广州,广州,020,83551548,东风中路/越秀公园,应元路11号（纪念堂地铁站C口步行140米）,景点,宗教,113.263233,23.134927
无着庵,广东,广州,广州,020,3245103,北京路商业区,德政中路丽水坊50号,景点,宗教,113.276171,23.121641
海幢寺,广东,广州,广州,020,84399172;34376882,滨江路沿线,南华中路188号,景点,宗教,113.259025,23.105261
药洲遗址,广东,广州,广州,020,83352871,北京路商业区,教育路86号,景点,古代遗迹,113.2659,23.12355
城隍庙,广东,广州,广州,020,83378036,北京路商业区,中山四路忠佑大街48号（文德路口）,景点,宗教,113.27108,23.12653
西来初地,广东,广州,广州,020,,上下九商业区,毓桂头巷与牛角街交叉口东约140米,景点,步行街,113.247198,23.115467
西城门瓮城遗址,广东,广州,广州,020,158****2123,中山七八路,中山七路与人民中路的交汇处,景点,古代遗迹,113.254114,23.124856
清真先贤古墓,广东,广州,广州,020,86692743,火车站/人民北路,解放北路901号（近桂花岗）,景点,古代遗迹,113.25955,23.14228
东征阵亡烈士墓,广东,广州,广州,020,,长洲岛,万松岭（黄埔军校旧址西）,景点,烈士陵园,113.41703,23.083815
十九路军淞沪抗日阵亡将士陵园,广东,广州,广州,020,87047408,沙河/天平架/梅花园,水荫路113号,景点,烈士陵园,113.309753,23.145014
回教三忠墓,广东,广州,广州,020,,火车站/人民北路,解放北路清真先贤古墓东侧,景点,古代遗迹,113.26022,23.142318
南越国水闸遗址,广东,广州,广州,020,83323818,北京路商业区,西湖路63号光明广场负1楼（近北京路）,景点,古代遗迹,113.267326,23.12224
三·廿九起义指挥部旧址纪念馆,广东,广州,广州,020,83337700,北京路商业区,越华路小东营15号,景点,纪念馆,113.26992,23.129345
邮政博览馆,广东,广州,广州,020,81291853,沙面,沿江西路43号,景点,陈列馆,113.25214,23.107593
留耕堂,广东,广州,广州,020,84736168,市桥南,平安巷5号,景点,宗教,113.333767,22.904605
中共三大会址纪念馆,广东,广州,广州,020,87606531,中山二三路/东山口,恤孤院路3号,景点,纪念馆,113.295997,23.119019
长隆欢乐世界+长隆野生动物园（解放北路店）,广东,广州,广州,020,4008830083,长隆/南村,大石镇长隆旅游度假村内,景点,动物园,113.334363,23.005701
广东中旅,广东,广州,广州,020,4008840011,沿江路/二沙岛,回龙路2号7楼电子资讯中心（近地铁海珠广场站）,景点,旅行社,113.267504,23.115244
大佛古寺,广东,广州,广州,020,83393455;83335678,北京路商业区,惠新中街21号,景点,宗教,113.26796,23.122332
华南农业大学-树木园,广东,广州,广州,020,,燕岭/五山,五山街五山路483号华南农业大学内（近经济管理学院）,景点,植物园,113.359917,23.153568
芳村黄大仙祠,广东,广州,广州,020,81561855,芳村,古祠路1号,景点,宗教,113.227064,23.095604
广之旅,广东,广州,广州,020,34268676,江南大道沿线,宝岗大道110号铺首层四铺（海珠区委对面）,景点,旅行社,113.261286,23.102782
广之旅,广东,广州,广州,020,81336833,中山七八路,康王中路600号新光城市广场首层127、128号铺,景点,旅行社,113.248033,23.123942
广之旅,广东,广州,广州,020,38203468,燕岭/五山,五山瘦狗岭路551-563号广之旅大厦首层西南边商铺,景点,旅行社,113.343903,23.145935
广之旅,广东,广州,广州,020,82322363,车陂/东圃,中山大道268天河广场,景点,旅行社,113.403267,23.122004
广之旅国际旅行社,广东,广州,广州,020,38910688,天河北/广州东站,天河北路28号106C号,景点,旅行社,113.317513,23.140001
广之旅,广东,广州,广州,020,84592228,洛溪,洛浦路27号铺广之旅国际旅行社洛溪新城门市部华进明苑,景点,旅行社,113.305435,23.042033
广之旅,广东,广州,广州,020,84697776,番禺广场,德兴路127、129号,景点,旅行社,113.376991,22.935468
广之旅国际旅行社,广东,广州,广州,020,34821133,长隆/南村,金江大道132号,景点,旅行社,113.386241,23.005361
广之旅,广东,广州,南沙区,020,34999618,大岗,大岗镇豪岗大道1号豪晖大厦102商铺,景点,旅行社,113.405037,22.800585
广之旅,广东,广州,广州,020,84777988,钟村,市广路祈福商业街11号,景点,旅行社,113.320333,22.976489
广之旅,广东,广州,广州,020,84827778,市桥南,桥南镇南效村桥南街南华路45号,景点,旅行社,113.366725,22.925025
广之旅,广东,广州,广州,020,82396636,大沙地,丰乐中路117号,景点,旅行社,113.453942,23.105582
广之旅国际旅行社,广东,广州,广州,020,36836150,新世纪广场,花城路34号,景点,旅行社,113.213815,23.380385
南湖国旅,广东,广州,广州,020,61129918,江高镇,江高镇江同路161号,景点,旅行社,113.230123,23.274783
南湖国旅,广东,广州,广州,020,87373776;87373775,五羊新城,广州大道中227号04铺,景点,旅行社,113.314354,23.120134
南湖国旅,广东,广州,广州,020,81030088,中山七八路,荔湾路133号102号房（新大新百货斜对面）,景点,旅行社,113.2444,23.13228
南湖国旅,广东,广州,广州,020,81588379,芳村,东漖北路560号茶窖湾商业大厦首层（地一居斜对面）,景点,旅行社,113.228457,23.089615
南湖国旅,广东,广州,广州,020,38910311,天河城/体育中心,天河北路28号时代广场F1层,景点,旅行社,113.317261,23.140059
南湖国旅,广东,广州,广州,020,82325411,车陂/东圃,中山大道268号天河广场1楼G079铺（东圃广场斜对面）,景点,旅行社,113.40296,23.122291
南湖国旅,广东,广州,广州,020,34025724;34025774,客村/赤岗,新港中路489号A1-A2铺之一,景点,旅行社,113.329379,23.096639
南湖国旅,广东,广州,广州,020,36834331;36834334,新世纪广场,新华街花城路36号,景点,旅行社,113.211322,23.379195
英雄广场,广东,广州,广州,020,,中山二三路/东山口,中山三路25-27号（近中华广场）,景点,广场,113.284072,23.126206
千年古道遗址,广东,广州,广州,020,,北京路商业区,中山四路与北京路交叉口南100米,景点,古代遗迹,113.268845,23.124874
荔湾区博物馆,广东,广州,广州,020,81939917,中山七八路,逢源北街84号,景点,博物馆,113.237327,23.120367
广东省博物馆,广东,广州,广州,020,38046886;38046877,花城汇/高德置地,珠江东路2号,景点,博物馆,113.326508,23.114659
黄埔古港,广东,广州,广州,020,84135758,琶洲,琶洲街石基河边的黄埔经济联社（原黄埔村）,景点,历史建筑,113.394179,23.088993
高第街,广东,广州,广州,020,,北京路商业区,北京路（海珠广场地铁站E口步行240米）,景点,人文古迹,113.266061,23.118332
江南商业街,广东,广州,广州,020,84232736,江南大道沿线,江南大道中302-304号（昌岗地铁站C2口旁）,景点,观光街区,113.276131,23.091821
岭南印象园,广东,广州,广州,020,84508106;84502903,大学城,小谷围街道大学城外环西路1号,景点,更多景点/周边游,113.40757,23.03617
白云仙馆,广东,广州,广州,020,37222222,麓湖公园,麓湖路11号麓湖,景点,宗教,113.290536,23.151167
黄埔区中山公园,广东,广州,广州,020,132****2050,长洲岛,金洲北路与中山公园前路交口东150米（辛亥革命馆旁）,景点,城市公园,113.417624,23.0727
番禺广场,广东,广州,广州,020,,市桥,清河东路338号,景点,广场,113.384319,22.933119
花都广场,广东,广州,广州,020,180****0867,花都广场/区政府,新华街道公益路22号,景点,广场,113.219845,23.401088
小洲村,广东,广州,广州,020,134****9010,海珠区,小洲人民礼堂,景点,古村古镇,113.355994,23.061024
詹天佑故居,广东,广州,广州,020,81377281,上下九商业区,恩宁路十二甫西街芽菜巷42号,景点,名人故居,113.239624,23.113171
广东科学中心,广东,广州,广州,020,39348080,大学城,大学城科普路168号,景点,科技馆,113.362506,23.039398
羊城之旅国际旅行社,广东,广州,广州,020,81309333,中山六路,德政北路36-38号,景点,旅行社,113.255372,23.120552
广州塔,广东,广州,广州,020,89338222;89338225,客村/赤岗,阅江西路222号,景点,现代建筑,113.324552,23.106412
北京路步行街,广东,广州,广州,020,83195442,北京路商业区,北京街道北京路（公园前地铁站出入口步行170米）,景点,步行街,113.26897,23.121657
增埗公园,广东,广州,广州,020,26286579,西村/西场,福州路8号（岭南湾畔隔壁）,景点,城市公园,113.238707,23.148729
均和墟历史街区,广东,广州,广州,020,,嘉禾/人和,新石路与石马均和一街交叉路口东北侧,景点,步行街,113.263907,23.260793
黄埔荔枝公园,广东,广州,广州,020,82295608,大沙地,大沙北路301号黄埔图书馆对面,景点,城市公园,113.460304,23.108238
十九涌,广东,广州,南沙区,020,,百万葵园/十九涌,海翔路,景点,自然保护区,113.649234,22.602814
广东铁青,广东,广州,广州,020,,沙河/天平架/梅花园,禺东西路55号,景点,旅行社,113.318893,23.154055
星海公园,广东,广州,广州,020,84833980,市桥,市桥环城中路120号,景点,公园/广场,113.370452,22.942738
基督教堂沙面堂,广东,广州,广州,020,81217950,沙面,沙面南街60号,景点,宗教,113.241532,23.106951
西焦生态公园,广东,广州,广州,020,,西村/西场,富力路42号（西场地铁站C口步行180米）,景点,城市公园,113.239043,23.134952
金马国旅,广东,广州,广州,020,83192777;83192777,北京路商业区,教育路113号汇力商务楼首层（近公园前地铁D出口）,景点,旅行社,113.265511,23.124483
温泉苏东坡纪念馆,广东,广州,从化区,020,,温泉镇,星德政街,景点,纪念馆,113.632596,23.616327
广州长隆飞鸟乐园,广东,广州,广州,020,84796100;4008830083,番禺区,洛浦街道大边村边街183号,景点,动物园,113.277874,23.02568
基督教光孝堂,广东,广州,广州,020,81087837,中山六路,光孝路29号（近西门口地铁站）,景点,宗教,113.255725,23.126187
基督教东山堂,广东,广州,广州,020,87776305,中山二三路/东山口,寺贝通津9号,景点,宗教,113.297285,23.12266
东山少爷公园,广东,广州,广州,020,,中山二三路/东山口,龟岗大马路与东华东路交口,景点,城市公园,113.294233,23.119693
汇豪社艺术馆,广东,广州,广州,020,38858699,兴盛路/跑马场,珠江新城马场路519号汇豪大厦3层(近马场西门),景点,美术馆,113.342567,23.12237
珠江走廊,广东,广州,广州,020,,滨江路沿线,滨江东路中大北门广场沿线,景点,河道观光,113.300539,23.103601
越秀南粤先贤公园,广东,广州,广州,020,,沿江路/二沙岛,白云街道晴澜路72号,景点,城市公园,113.316742,23.10972
金马国旅,广东,广州,广州,020,83179762,天河城/体育中心,天河南街道体育东路13号,景点,旅行社,113.327888,23.128838
鲁迅纪念馆国民党一大旧址,广东,广州,广州,020,83838432,北京路商业区,文明路215号,景点,历史建筑,113.27695,23.123889
基督教锡安堂,广东,广州,广州,020,81889054;81092403,中山六路,人民中路392号（西门口地铁站A口步行360米）,景点,宗教,113.25412,23.122778
番禺玉虚宫,广东,广州,广州,020,,沙湾镇,大巷涌64号沙湾古镇内（北侧）,景点,宗教,113.334009,22.904758
文塔,广东,广州,广州,020,81968601,中山七八路,龙津西路104号,景点,历史建筑,113.236771,23.120941
易发商业街,广东,广州,广州,020,84812388,市桥,华发路新大新（番禺店）,景点,步行街,113.365934,22.941114
广百美食广场,广东,广州,广州,020,,北京路商业区,大马站东侧（公园前地铁站出入口步行280米）,景点,广场,113.267975,23.123419
万木草堂,广东,广州,广州,020,83396087,北京路商业区,中山四路长兴里3号,景点,历史建筑,113.271851,23.125582
金马国旅,广东,广州,广州,020,81480576;81350240,中山七八路,中山八路63号,景点,旅行社,113.236489,23.124859
金马国旅,广东,广州,广州,020,34249005,江南大道沿线,江南大道中255号之2（昌岗地铁站C1出口）,景点,旅行社,113.276461,23.092191
金马国旅,广东,广州,广州,020,81946179,上下九商业区,多宝路302号（长寿地铁站中行对面）,景点,旅行社,113.240923,23.116453
金马国旅,广东,广州,广州,020,,大沙地,港湾路287号1栋首层,景点,旅行社,113.4472,23.102789
金马国旅,广东,广州,广州,020,83179762,市桥,市桥北郊新村1巷1-2号（近区公安局对面）,景点,旅行社,113.365319,22.940297
金马国旅,广东,广州,广州,020,83179762,新世纪广场,秀全大道41号之一102号,景点,旅行社,113.211398,23.379414
第一次全国劳动大会旧址,广东,广州,广州,020,84411777,滨江路沿线,滨江西路230号（近堑口码头）,景点,古代遗迹,113.264191,23.110048
龙眼洞森林公园,广东,广州,广州,020,87031682,龙洞/岑村,龙洞街道迎龙路龙洞第三工业区西侧,景点,森林公园,113.355085,23.209168
水果世界,广东,广州,广州,020,86183285,旺村/何棠下,九龙镇棠下村,景点,更多景点/周边游,113.536987,23.339746
十八罗汉山,广东,广州,南沙区,020,84997383,大岗,大岗镇繁荣路十八罗汉山,景点,森林公园,113.405107,22.786203
黄山鲁森林公园,广东,广州,南沙区,020,,南沙区,登山路,景点,森林公园,113.571811,22.779341
石头记矿物园,广东,广州,广州,020,36865818,花都区,珠宝城大观园路1号,景点,主题乐园,113.161137,23.400623
和曦美术馆,广东,广州,广州,020,81216738,沙面,沙面北街35号,景点,美术馆,113.247391,23.107901
江南新地商业街,广东,广州,广州,020,020-84426786,江南西,江南西路46号,景点,休闲街区,113.271843,23.095219
广州神农草堂中医药博物馆,广东,广州,广州,020,66282302,同和/京溪,沙太北路389号,景点,博物馆,113.337784,23.197214
小石船旅游度假区,广东,广州,广州,020,87465368,太和镇,太和镇穗丰村石船路中段,景点,景点/周边游,113.454972,23.269722
创业公园,广东,广州,广州,020,82113290,中心城,水西路与香雪三路交叉口（水西地铁站A口步行440米）,景点,城市公园,113.477918,23.181249
南沙蒲洲花园,广东,广州,南沙区,020,84988264,南沙区,港前大道南271号,景点,公园/广场,113.616469,22.76184
粤海关博物馆,广东,广州,广州,020,81013617,沙面,南街道沿江西路29号（文化公园地铁站A口步行350米）,景点,历史建筑,113.251016,23.107281
假日通,广东,广州,广州,020,37591585,区庄/动物园,先烈中路75号穗丰大厦1楼,景点,旅行社,113.294424,23.136954
广东中旅,广东,广州,广州,020,38201668,天河北/广州东站,体育西路189号城建大厦2楼256室,景点,旅行社,113.320747,23.13921
广东中旅,广东,广州,广州,020,83600816,环市东路/区庄,淘金北路71-73号恒华阁1楼103铺,景点,旅行社,113.287072,23.143123
市农科院花都基地,广东,广州,广州,020,,花东,桑梓南路23号广州市农业科学研究所,景点,植物园,113.321959,23.445066
邓荫南墓园,广东,广州,广州,020,,环市东路/区庄,先烈南路25号（近华泰宾馆）,景点,烈士陵园,113.291378,23.132696
假日通,广东,广州,广州,020,86473818,西村/西场,环市西路31-10号,景点,旅行社,113.238839,23.140809
假日通,广东,广州,广州,020,81358972,中山七八路,恩洲大巷193号（仁威庙斜对面）,景点,旅行社,113.236484,23.124244
广东圆玄道观,广东,广州,广州,020,36861238,花都区,迎宾大道西38号,景点,宗教,113.180106,23.399839
广东省文化馆,广东,广州,广州,020,87690179,天河区,广州大道中1229号,景点,美术馆,113.312729,23.145342
天河儿童公园,广东,广州,广州,020,82277538,黄村/奥体,珠吉街道珠吉路,景点,公园/广场,113.431793,23.131468
广州义务植树公园,广东,广州,广州,020,,中心城,开源大道190号（广州生物医药与健康研究院北200米）,景点,城市公园,113.512336,23.162294
太阳风旅游,广东,广州,广州,020,83371997,东风中路/越秀公园,东风中路363号国信大厦605室,景点,旅行社,113.269941,23.131665
法雨寺,广东,广州,广州,020,82070944,中心城,云埔街道岗荔街4号,景点,宗教,113.499788,23.151358
西溪简公祠,广东,广州,广州,020,,海珠区,瀛洲北路瀛洲小学东南侧约50米,景点,宗教,113.356694,23.060353
广东中旅,广东,广州,广州,020,87363842,五羊新城,寺右新马路133号深华大厦内（近地铁五羊邨站D出口）,景点,旅行社,113.313934,23.12026
赵泰来艺术宫,广东,广州,广州,020,,沙湾镇,沙湾镇紫坭村宝墨园内,景点,美术馆,113.293106,22.894276
南粤苑,广东,广州,广州,020,84747238;84746666,沙湾镇,沙湾镇紫坭村,景点,园林,113.290729,22.897347
凤凰古围,广东,广州,从化区,020,,白水寨/派潭,江埔街道双凤收费站附近,景点,历史建筑,113.671249,23.506142
筲箕窝,广东,广州,广州,020,,天河区,凤凰街道,景点,自然风光,113.397216,23.234926
熊猫国旅,广东,广州,广州,020,86337297,机场路沿线,机场路111号建发广场1楼1150铺,景点,旅行社,113.259651,23.169101
鲁迅纪念园,广东,广州,广州,020,83802780,中山二三路/东山口,东川路和白云路交界处（东川运动城旁）,景点,纪念公园,113.286209,23.120052
保利世贸博览馆,广东,广州,广州,020,89661097,琶洲,新港东路1000号保利世界贸易中心,景点,展览馆,113.365568,23.097246
西丽公园,广东,广州,广州,020,,市桥,长堤西路320-390号,景点,城市公园,113.354026,22.929195
孙中山故居,广东,广州,广州,020,,长洲岛,长洲岛,景点,名人故居,113.427994,23.076311
黄埔洪圣庙,广东,广州,广州,020,,鱼珠,长洲岛金洲北路30号,景点,宗教,113.438705,23.11237
海心沙,广东,广州,广州,020,,珠江新城,猎德街道珠江新城临江大道（近广州歌剧院）,景点,城市公园,113.321442,23.111347
冼村商业步行街,广东,广州,广州,020,,花城汇/高德置地,冼村路维家思广场东侧约60米,景点,休闲街区,113.328583,23.12525
假日通,广东,广州,广州,020,84262840,滨江路沿线,海幢街道江南大道中110号之七22铺（近市二宫地铁站）,景点,旅行社,113.271162,23.101871
假日通,广东,广州,广州,020,85551784,天河公园/上社,黄埔大道中天河公园对面,景点,旅行社,113.362512,23.119985
假日通,广东,广州,广州,020,34151062,江南大道沿线,江南大道中珀丽酒店斜对面,景点,旅行社,113.276599,23.091999
华严寺,广东,广州,广州,020,86993026,花都区,芙蓉大道北1号,景点,宗教,113.223858,23.462795
何仙姑家庙,广东,广州,广州,020,137****3575,增城区,仙源路8号,景点,宗教,113.834002,23.383086
五眼井,广东,广州,广州,020,,康王路,上九路西来初地西来后街（华林寺地铁站E口步行220米）,景点,古代遗迹,113.247381,23.115321
蹦极茶座,广东,广州,广州,020,,白云区,云山南路白云山国家级风景名胜区,景点,蹦极,113.302429,23.167805
河滨公园,广东,广州,从化区,020,87928268,街口/新世纪广场,河滨北路68号,景点,公园/广场,113.592116,23.548037
青云公园,广东,广州,从化区,020,,街口/新世纪广场,街口街青云路95号,景点,城市公园,113.583166,23.544606
广州市地方志馆,广东,广州,广州,020,83570231,麓湖公园,下塘西路545号广州雕塑公园内,景点,陈列馆,113.269699,23.153545
碧影湾,广东,广州,广州,020,,白云区,白云山风景区内,景点,景点/周边游,113.308286,23.196366
广东华侨博物馆,广东,广州,广州,020,87353656,沿江路/二沙岛,烟雨路32号,景点,博物馆,113.305847,23.108593
广之旅,广东,广州,广州,020,38907218,天河城/体育中心,体育东路108号首层,景点,旅行社,113.329285,23.131948
1850创意园,广东,广州,广州,020,31021850,芳村,芳村大道东200号,景点,创意园区,113.242996,23.096084
南朝街,广东,广州,广州,020,,北京路商业区,起义路253号,景点,步行街,113.263641,23.123852
广东中医药博物馆,广东,广州,广州,020,39356886,大学城,外环东路232号,景点,博物馆,113.405663,23.058941
南湖国旅,广东,广州,广州,020,37388817,同和/京溪,广州大道北1968号合一城广场1楼A113铺（近南方医院）,景点,旅行社,113.327972,23.191423
海珠湖公园,广东,广州,广州,020,89638189,海珠区,南洲街道新滘中路168号（大塘地铁站B口步行250米）,景点,公园/广场,113.323839,23.073142
南湖国旅,广东,广州,广州,020,84045424;84045414,工业大道沿线,工业大道南金碧都市广场50-55号首层B09号铺（近百佳）,景点,旅行社,113.287178,23.06786
珠江夜游金航游轮,广东,广州,广州,020,020-83050633,沿江路/二沙岛,沿江东路466号大沙头码头,景点,河道观光,113.285431,23.112496
南海海战纪念碑公园,广东,广州,广州,020,,长洲岛,长洲岛,景点,纪念公园,113.427997,23.076317
广东画院,广东,广州,广州,020,81363294,火车站/人民北路,人民北路873号,景点,展览馆,113.253685,23.134335
珠江夜游西堤码头,广东,广州,广州,020,34377433,沿江路/二沙岛,岭南街道沿江西路西堤码头（南方大厦斜对面）,景点,城市观光,113.252244,23.10708
东山洋房,广东,广州,广州,020,,沿江路/二沙岛,新河浦路与东山大街交叉口东60米,景点,历史建筑,113.2947,23.118639
西苑小游园,广东,广州,广州,020,83742622,中山七八路,西湾路1号-10号,景点,公园/广场,113.242988,23.135991
海珠区文化馆,广东,广州,广州,020,34269706,江南大道沿线,南北广场3楼,景点,展览馆,113.262093,23.101173
天河区博物馆,广东,广州,广州,020,31609935,沙河/天平架/梅花园,广州大道中大洲地2号,景点,博物馆,113.314285,23.149647
鹤之洲湿地公园,广东,广州,广州,020,,增城区,沿江东路中段,景点,自然风光,113.835088,23.251531
马鞍山公园,广东,广州,广州,020,,来又来/大润发,新华街道凤凰北路23-26号,景点,公园/广场,113.237142,23.394919
槎龙公园,广东,广州,广州,020,81793511,同德围,万龙二街,景点,城市公园,113.230818,23.180168
青少年科技馆,广东,广州,广州,020,61106315,麓湖公园,西胜街42号3号楼,景点,科技馆,113.271907,23.142606
东平大押,广东,广州,广州,020,87659746,中山二三路/东山口,中山四路1号（农讲所地铁站C口步行290米）,景点,人文古迹,113.278503,23.126621
小蓬仙馆,广东,广州,广州,020,,芳村,芳村大道中275号醉观公园内（近地铁一号线芳村站）,景点,历史建筑,113.229831,23.099221
龙津西西关大屋,广东,广州,广州,020,81939917,中山七八路,龙津西路145-5号,景点,历史建筑,113.236382,23.120685
天湖自然风景区,广东,广州,从化区,020,135****8321;87838732,温泉镇,东华阁（天湖水库南）,景点,自然风光,113.630175,23.656969
潘鹤雕塑艺术园,广东,广州,广州,020,84165976,海珠区,广州大道南后滘西大街57号,景点,自然风光,113.315827,23.068909
南村文化广场,广东,广州,广州,020,,长隆/南村,政通路1号,景点,广场,113.38086,23.001997
海鸥岛,广东,广州,广州,020,159****2371,番禺区,石楼镇海鸥公路,景点,自然风光,113.52523,22.97302
二沙岛体育公园,广东,广州,广州,020,37580922,沿江路/二沙岛,白云街道晴波路与玉宇街交叉口东北角,景点,公园/广场,113.31266,23.108721
黄埔古港北帝庙,广东,广州,广州,020,,琶洲,琶洲街道新港东路黄埔村的柳塘大街黄埔古港北帝庙（黄埔村村口）,景点,宗教,113.396584,23.092747
发展公园,广东,广州,广州,020,,沿江路/二沙岛,白云街道二沙岛大通路,景点,城市公园,113.306326,23.109647
赤岗涌,广东,广州,广州,020,,客村/赤岗,赤岗北路与艺洲路交叉口旁,景点,城市公园,113.321964,23.093204
东濠涌,广东,广州,广州,020,,中山二三路/东山口,越秀北路78号,景点,博物馆,113.278725,23.128565
猎德大桥,广东,广州,广州,020,,兴盛路/猎德,猎德大道与临江大道交叉口,景点,现代建筑,113.333746,23.111952
花果山公园,广东,广州,广州,020,,花都体育馆/花果山公园,宝华路35号,景点,园林,113.219201,23.38937
花都可耕园,广东,广州,广州,020,,狮岭,狮岭镇芙蓉新扬村,景点,动植物园,113.206417,23.471017
和平国旅,广东,广州,广州,020,22075181,江南大道沿线,江南大道中80-82创展自由港14B,景点,旅行社,113.269949,23.104818
青云书院艺术馆,广东,广州,广州,020,,北京路商业区,惠福东路389号,景点,美术馆,113.26451,23.120703
考试博物馆,广东,广州,广州,020,,北京路商业区,流水井29号,景点,博物馆,113.266785,23.123821
黄花岗街军事科普博物馆,广东,广州,广州,020,,区庄/动物园,区庄村47号,景点,博物馆,113.296043,23.135874
华侨新村纪念馆,广东,广州,广州,020,,环市东路/区庄,爱国路25号之1,景点,纪念馆,113.290914,23.137566
上下九广场,广东,广州,广州,020,020-81248066;020-81248065,上下九商业区,下九路92号（华林寺地铁站E口步行370米）,景点,公园/广场,113.248238,23.114649
金花古庙,广东,广州,广州,020,,长洲岛,福聚坊大街与金洲北路交叉口附近,景点,宗教,113.431987,23.081197
深井古村,广东,广州,广州,020,,长洲岛,长洲街道,景点,古村古镇,113.408924,23.075764
陈李济中药博物馆,广东,广州,广州,020,84297862,东晓南路沿线,南洲街道广州大道南1688号,景点,博物馆,113.307587,23.068066
安达国际旅行社,广东,广州,广州,020,82634116,荔城,荔城镇岗前路12号,景点,旅行社,113.826537,23.284603
长晖国际旅行社有限公司,广东,广州,广州,020,83788567,沿江路/二沙岛,东华南路19号广湾18商务港,景点,旅行社,113.283091,23.117701
风光国际旅行社,广东,广州,广州,020,37631228,中山二三路/东山口,中山二路35号冶金建筑设计研究院3楼,景点,旅行社,113.290611,23.123461
国旅国际旅行社,广东,广州,广州,020,34321698,滨江路沿线,纺织路3号102室,景点,旅行社,113.278179,23.110213
教育国际旅行社,广东,广州,广州,020,83339688,北京路商业区,中山四路172号地下,景点,旅行社,113.273155,23.126503
康辉国际旅行社,广东,广州,广州,020,83884678,沿江路/二沙岛,珠光街道沿江中路298号江湾商业中心A座2106室,景点,旅行社,113.278334,23.115054
康辉旅行社,广东,广州,广州,020,82274993,大沙地,港湾路209号,景点,旅行社,113.448611,23.098771
康辉国际旅行社,广东,广州,广州,020,159****0852,新港西路沿线,新港西路184-1号,景点,旅行社,113.308063,23.095033
林海旅行社,广东,广州,广州,020,83877259,环市东路/区庄,建设大马路13号,景点,旅行社,113.281058,23.133568
绿色旅行社,广东,广州,广州,020,87702071,燕岭/五山,燕岭路29号（燕塘地铁站B口步行300米）,景点,旅行社,113.326553,23.159678
广州市梦旅国际旅行社,广东,广州,从化区,020,87926698,街口/新世纪广场,街口街蓝田东路103号,景点,旅行社,113.586957,23.545847
侨安旅行社,广东,广州,广州,020,83302199,北京路商业区,越华路118号,景点,旅行社,113.266319,23.129249
熊猫国旅,广东,广州,广州,020,139****6862,东风中路/越秀公园,东风中路363号国信大厦6楼601室,景点,旅行社,113.269989,23.131523
远景旅行社,广东,广州,广州,020,86820191,新世纪广场,秀全大道41号,景点,旅行社,113.211226,23.37972
粤侨国际旅行社,广东,广州,广州,020,29821455,中山二三路/东山口,越秀北路89号,景点,旅行社,113.278006,23.129066
招商国际旅游,广东,广州,广州,020,61131833,东风中路/越秀公园,解放北路644号,景点,旅行社,113.262361,23.128961
职工旅行社,广东,广州,广州,020,,中山七八路,周门西街26号,景点,旅行社,113.237491,23.129614
中信国际旅行社,广东,广州,广州,020,,滨江路沿线,滨江西路184号,景点,旅行社,113.260862,23.108434
中宇旅行社,广东,广州,从化区,020,87927888,街口/新世纪广场,西宁东路1栋2-3号,景点,旅行社,113.591967,23.549487
珠江国际旅行社,广东,广州,广州,020,83300110,沿江路/二沙岛,沿江中路195号沿江大厦2楼,景点,旅行社,113.269799,23.114754
海珠花园,广东,广州,广州,020,,江南大道沿线,前进路,景点,公园/广场,113.280908,23.099015
聚芳园,广东,广州,广州,020,,麓湖公园,麓湖北路5号,景点,公园/广场,113.280455,23.150959
名人山荘,广东,广州,广州,020,,番禺区,鲤鱼岗路9号,景点,更多景点/周边游,113.49545,22.986291
时代美居,广东,广州,广州,020,,花都体育馆/花果山公园,宝华路39-1号（花果山公园地铁站C口步行450米）,景点,广场,113.213675,23.387635
海珠创意产业园,广东,广州,广州,020,84330818,工业大道沿线,大干围38号,景点,创意园区,113.292511,23.057936
以太广场,广东,广州,广州,020,020-86670777,火车站/人民北路,解放北路986号,景点,广场,113.262093,23.139431
弈方国际多媒体文化广场,广东,广州,广州,020,,石牌/龙口,天河北路721-725号(华师地铁站E口步行290米),景点,广场,113.345421,23.142012
宝庆大押旧址,广东,广州,广州,020,,沙面,多宝街道多宝街宝庆新中约43号,景点,历史建筑,113.23864,23.116119
广东树木公园,广东,广州,广州,020,138****8967,龙洞/岑村,广汕一路233号林业科学研究院内,景点,城市公园,113.376164,23.19656
基督教河南堂,广东,广州,广州,020,84422935,滨江路沿线,南华西街道洪德路与洪德五巷23号,景点,宗教,113.251137,23.101139
基督教救主堂,广东,广州,广州,020,83335778,沿江路/二沙岛,万福路184号（近文德路）,景点,宗教,113.27129,23.119735
金马国旅,广东,广州,广州,020,83179762,市桥,光明北路115号（近NIKE）,景点,旅行社,113.361304,22.945104
磨碟沙公园,广东,广州,广州,020,,客村/赤岗,磨碟沙大街73号,景点,城市公园,113.33319,23.104213
文塔公园,广东,广州,广州,020,,长洲岛,金洲南路180号,景点,公园/广场,113.411717,23.070667
庐江书院,广东,广州,广州,020,,北京路商业区,流水井29号(公园前地铁站D口步行250米),景点,历史建筑,113.266571,23.123922
星坊文化创意产业园,广东,广州,广州,020,34508360,洛溪,北环路自编11号,景点,创意园区,113.292308,23.050969
钱岗古村,广东,广州,从化区,020,,从化区,钱岗村,景点,古村古镇,113.546473,23.432236
大岭村,广东,广州,广州,020,,番禺区,石楼镇,景点,特色乡村,113.4774,22.98506
羊城创意产业园,广东,广州,广州,020,87133753,天河公园/上社,黄埔大道中309、311、315号,景点,创意园区,113.384552,23.118944
石围塘火车站,广东,广州,广州,020,81891101,芳村,芳村大道中与岭南街交口往珠江方向前行300米,景点,人文古迹,113.227431,23.105452
西门口古城墙,广东,广州,广州,020,,东风中路/越秀公园,中山七路北侧,景点,古代遗迹,113.263474,23.136414
广州溪头村,广东,广州,从化区,020,,溪头村,良口镇联溪街,景点,古村古镇,113.866382,23.714602
番禺冼星海纪念馆,广东,广州,广州,020,84668662,钟村,大罗塘银平路121号番禺博物馆一楼,景点,纪念馆,113.345128,22.952379
林则徐纪念园,广东,广州,广州,020,,沿江路/二沙岛,沿江东路416号（东湖地铁站A口步行460米）,景点,纪念公园,113.286859,23.111931
广东熊猫国际旅游有限公司,广东,广州,广州,020,87248620;87248992,同和/京溪,广州大道北京溪街白灰场南路1号京隆大厦501室,景点,旅行社,113.326219,23.185679
蕉石岭森林公园,广东,广州,广州,020,,荔城,增江街东方村,景点,森林公园,113.864395,23.286776
洛浦公园,广东,广州,广州,020,33002780,洛溪,105国道如意路（近洛溪大桥收费站）,景点,公园/广场,113.303312,23.043734
基督教芳村堂,广东,广州,广州,020,81580441,芳村,信义路27号,景点,宗教,113.243546,23.094345
滨海公园,广东,广州,南沙区,020,,南沙区,大角一路与滨海大道交叉口西北角,景点,公园/广场,113.622769,22.754796
春园,广东,广州,广州,020,87606531,越秀区,德安社区新河浦路22-26号,景点,革命旧址,113.295791,23.118251
东西境古村落,广东,广州,广州,020,,增城区,石街路与文明街交叉口东400米,景点,古村古镇,113.813237,23.420281
港中旅国际旅行社,广东,广州,广州,020,83326254,北京路商业区,教育路116号首层,景点,旅行社,113.265846,23.124773
康辉旅行社,广东,广州,广州,020,136****8201,沿江路/二沙岛,沿江中路313号康富来国际大厦5楼,景点,旅行社,113.275765,23.115749
蕉门公园,广东,广州,南沙区,020,,金州商业区,南沙街道海滨路171号附近,景点,城市公园,113.526048,22.78973
广东国旅电子商务部,广东,广州,广州,020,4006008888,北京路商业区,解放北路618号国旅大厦7楼,景点,旅行社,113.262322,23.128432
会展公园,广东,广州,广州,020,,琶洲,阅江中路广州市国际会展中心西侧,景点,城市公园,113.353856,23.10306
金刚禅寺,广东,广州,广州,020,81992925,罗冲围/金沙洲,钟村横五巷46号,景点,宗教,113.188591,23.147558
世博广东馆,广东,广州,广州,020,39348080,大学城,大学城西六路168号广东科学中心,景点,展览馆,113.362439,23.039399
广州国际生物岛,广东,广州,广州,020,34037638,海珠区,大学城外环西路大学城佳苑西北400米,景点,公园/广场,113.375635,23.065989
港中旅国际旅行社,广东,广州,广州,020,37650585,中山二三路/东山口,农林下路二号大院12-16号首层,景点,旅行社,113.295555,23.124566
港中旅,广东,广州,广州,020,,小北/淘金,淘金路49号,景点,旅行社,113.287557,23.138657
港中旅,广东,广州,广州,020,,区庄/动物园,犀牛北街广州工程技术职业学院,景点,旅行社,113.299936,23.134776
港中旅（广东）国际旅行社有限公司,广东,广州,广州,020,84193419,客村/赤岗,新港西路184-10号（鹭江地铁站C口步行90米）,景点,旅行社,113.308154,23.095074
南方部落户外旅游俱乐部,广东,广州,广州,020,81040581,火车站/人民北路,人民北路691号金信大厦B座715室,景点,旅行社,113.254327,23.126887
资政大夫祠,广东,广州,广州,020,86903863,花都区,花31路,景点,古代遗迹,113.191799,23.386556
千适国旅,广东,广州,广州,020,86668241,火车站/人民北路,流花路120号东方商场2楼(近越秀公园站D1出口),景点,旅行社,113.259178,23.14016
张民达先生墓道,广东,广州,广州,020,,环市东路/区庄,先烈中路（广州动物园西侧）,景点,古代遗迹,113.30224,23.142987
哈街商业街,广东,广州,广州,020,020-39212222,市桥南,南郊路与桥南路交叉口西南角,景点,休闲街区,113.367706,22.927736
叠翠园,广东,广州,广州,020,,海珠区,螺旋大道与星际一路交叉口东北200米,景点,城市公园,113.377134,23.067955
揽胜园,广东,广州,广州,020,,海珠区,"广州国际生物岛,星汉大道与星汉三路之间。",景点,城市公园,113.374758,23.064253
假日通,广东,广州,广州,020,81068114,中山七八路,康王北路934号（近公交车站）,景点,旅行社,113.247585,23.127375
河岛公园,广东,广州,从化区,020,,街口/新世纪广场,河滨北路47号,景点,城市公园,113.594097,23.548627
千适国旅,广东,广州,广州,020,81194486,罗冲围/金沙洲,增槎路14号,景点,旅行社,113.227029,23.144719
美术学院大学城美术馆,广东,广州,广州,020,39352149,大学城,大学城广美路与大学城外环西路交叉口西北100米,景点,美术馆,113.384262,23.035942
旅日华侨楼,广东,广州,广州,020,,琶洲,沙洞大街与盘石大街交叉口北140米,景点,历史建筑,113.396539,23.091349
新天地国际旅行社,广东,广州,广州,020,83809969,中山二三路/东山口,华乐路20号,景点,旅行社,113.286627,23.133843
金马国际旅行社,广东,广州,广州,020,83192777,北京路商业区,起义路173号7楼（近地铁公园前站J出口）,景点,旅行社,113.264121,23.120671
易乐旅行网,广东,广州,广州,020,38820905,东风中路/越秀公园,东风中路503号东建大厦506室（近德政北路）,景点,旅行社,113.275024,23.131289
广东中旅,广东,广州,广州,020,87537655,东风东/杨箕,东风东路836号东峻广场3栋1层,景点,旅行社,113.306961,23.131493
中易旅游,广东,广州,广州,020,61138246,天河城/体育中心,天河路351号外经贸大厦30楼3003-3010室（近体育中心）,景点,旅行社,113.329025,23.13405
关帝岗,广东,广州,广州,020,84799177,大石,大石镇岗东路88号,景点,城市公园,113.305117,23.022028
永泰公园,广东,广州,广州,020,,白云大道沿线,永泰村元下田三路,景点,城市公园,113.305023,23.214273
青之旅国际旅行社,广东,广州,广州,020,61136259;61136213,沿江路/二沙岛,白云路38号红云大厦4楼（近江湾大桥桥脚）,景点,旅行社,113.284001,23.11879
和平国旅,广东,广州,广州,020,66690596,环市东路/区庄,黄花岗街道环市东路450号华信中心14楼1402室,景点,旅行社,113.298965,23.134285
中信国际旅行社,广东,广州,广州,020,4006183933,中山二三路/东山口,竹丝岗二马路39号中航大厦403（近美东百货）,景点,旅行社,113.295902,23.128802
辛亥革命纪念馆,广东,广州,广州,020,82525897,长洲岛,长洲岛金洲北路563号,景点,纪念馆,113.42038,23.072104
东方国旅,广东,广州,广州,020,135****7745,东晓南路沿线,晓园北路,景点,旅行社,113.27996,23.088444
922宏信创意园,广东,广州,广州,020,81899922;81575922,芳村,冲口街道芳村大道东杏花大街146号,景点,创意园区,113.245674,23.088938
广东中旅,广东,广州,广州,020,137****8705,天河城/体育中心,体育西路50号之1铺,景点,旅行社,113.322067,23.130634
广州东方博物馆,广东,广州,广州,020,39139778,石楼,石楼镇莲花山沿江街98号,景点,博物馆,113.496872,22.950247
猎人坊风情街,广东,广州,广州,020,38099888,兴盛路/跑马场,珠江新城猎德大道（猎德地铁站B口步行440米）,景点,步行街,113.331958,23.114783
广之旅,广东,广州,广州,020,83262335,北京路商业区,教育路113号汇力商务楼1-2楼（近公园前地铁站）,景点,旅行社,113.265472,23.124702
沙湾古镇,广东,广州,广州,020,84730318;39110661,市桥南,大象涌路64号,景点,古村古镇,113.334294,22.900644
国彩艺术馆,广东,广州,广州,020,87352206,滨江路沿线,二沙岛晴波路11号,景点,美术馆,113.302955,23.107849
世纪大会堂,广东,广州,广州,020,88800888,白云大道沿线,白云大道南1039-1046号白云国际会议中心4号楼1层,景点,景点/周边游,113.279086,23.188136
广东中旅,广东,广州,广州,020,89081262,工业大道沿线,工业大道北82-1号,景点,旅行社,113.257881,23.091562
天客旅行社,广东,广州,广州,020,29122682,中山七八路,西华路134号创新科技院创意楼606-608室,景点,旅行社,113.245685,23.132525
周氏大宗祠,广东,广州,广州,020,,龙归镇,南村蟠龙西街27号,景点,宗教,113.294297,23.281495
石马桃花公园,广东,广州,广州,020,,均禾,马岗岭街67号,景点,城市公园,113.256416,23.267206
彭加木公园,广东,广州,广州,020,81999119,同德围,槎溪大道15号,景点,城市公园,113.229257,23.17828
升平社学,广东,广州,广州,020,,石井,升平下街11号,景点,历史建筑,113.239026,23.206553
玉岩书院,广东,广州,广州,020,,中心城,峰寺高架桥北,景点,历史建筑,113.525665,23.185596
水西村,广东,广州,广州,020,,中心城,萝岗镇,景点,古村古镇,113.484851,23.197816
狮子山公园,广东,广州,广州,020,,狮岭,平步大道雅宝新城后山（近雅宝新城）,景点,公园/广场,113.178688,23.435748
花城往事,广东,广州,广州,020,83637577,工业大道沿线,工业大道北132号,景点,创意园区,113.262953,23.08378
海珠梁氏宗祠,广东,广州,广州,020,84135758;34046520,琶洲,新港东路黄埔村埠康里6号,景点,宗教,113.39312,23.089462
胡氏宗祠,广东,广州,广州,020,,嘉禾/人和,罗岗村11号,景点,宗教,113.268736,23.245346
亚运文化村,广东,广州,广州,020,,石楼,石楼镇浮莲路99号,景点,文化村落,113.496687,22.955199
大浮莲岗公园,广东,广州,广州,020,,石楼,浮莲路（近悦水庄度假酒店）,景点,城市公园,113.499345,22.961455
白云滨江公园,广东,广州,广州,020,,罗冲围/金沙洲,金沙洲白云儿童公园（环洲三路东）,景点,城市公园,113.216084,23.163736
曾氏大宗祠,广东,广州,广州,020,,钟落潭,龙岗街114号附近,景点,宗教,113.382153,23.392838
红山村,广东,广州,广州,020,180****2128,花都区,梯面镇,景点,特色乡村,113.280063,23.578853
长洲一号涌,广东,广州,广州,020,,长洲岛,军校路170号大院,景点,城市公园,113.424369,23.086739
宝趣玫瑰世界,广东,广州,从化区,020,87907777,温泉镇,城郊街道城郊街西和村玫瑰街3号,景点,植物园,113.583145,23.621604
太和文化广场,广东,广州,广州,020,136****4652,太和镇,太和北路与太营路交汇处东侧,景点,广场,113.354805,23.295294
珠江美术馆,广东,广州,广州,020,62383999,客村/赤岗,赤岗北路珠江帝景灏景轩A座首层,景点,美术馆,113.326155,23.103975
广印创意产业园,广东,广州,广州,020,,东晓南路沿线,燕子岗南路83号,景点,创意园区,113.279266,23.075033
职工国际旅行社,广东,广州,广州,020,34351955,滨江路沿线,同福东路644号天一酒店1楼,景点,旅行社,113.269312,23.10604
陈寅恪故居,广东,广州,广州,020,84112421,新港西路沿线,新港西路135号中山大学南校区内东北区309号2层,景点,名人故居,113.299427,23.096517
许广平故居,广东,广州,广州,020,,北京路商业区,高第街许地巷33-37号,景点,纪念馆,113.266143,23.119199
广弘中旅,广东,广州,广州,020,66699303,环市东路/区庄,先烈中路102号华盛大厦北塔2103-2105（近动物园）,景点,旅行社,113.301048,23.141024
远景国旅,广东,广州,广州,020,81072288,中山七八路,西华路525号新川大厦16楼,景点,旅行社,113.253029,23.129349
张九龄纪念公园,广东,广州,广州,020,,石井,金碧南路与石槎路交口西100米路南（近金碧新城）,景点,纪念公园,113.241401,23.200887
许地,广东,广州,广州,020,,北京路商业区,威利斯商业广场D座大南路82号,景点,步行街,113.265964,23.119021
中心湖公园,广东,广州,广州,020,,大学城,大学城环湖路,景点,城市公园,113.39329,23.050221
南湖国旅网络旅游部,广东,广州,广州,020,83171734;83141112,北京路商业区,广卫路19号（公园前地铁站出入口步行290米）,景点,旅行社,113.266403,23.127617
大江埔古村,广东,广州,从化区,020,,江埔,江埔街,景点,古村古镇,113.613075,23.542235
深井公园,广东,广州,广州,020,132****2050,长洲岛,丛桂东横街16号,景点,城市公园,113.412689,23.072433
凌氏宗祠,广东,广州,广州,020,,长洲岛,深井村岐西坊6号,景点,宗教,113.409428,23.072091
正果寺,广东,广州,广州,020,26224556,增城区,正果镇正桥街18号,景点,宗教,113.895717,23.418767
上涌果树公园,广东,广州,广州,020,,海珠区,新滘西路68号,景点,城市公园,113.307022,23.076757
佰信国际旅行社,广东,广州,广州,020,135****1252,车陂/东圃,汉溪大道东保利大都汇A区1308室（近地铁汉溪长隆站）,景点,旅行社,113.390579,23.119542
得意廊,广东,广州,广州,020,135****1578,中山二三路/东山口,三育路王府井百货(农林下路店)西南侧,景点,景点/周边游,113.298048,23.129199
团一大广场,广东,广州,广州,020,,沿江路/二沙岛,东园横路与越秀南路交叉口西北角,景点,广场,113.278015,23.118546
西园,广东,广州,广州,020,83054078,市桥,解放路（三堂市场对面）,景点,公园/广场,113.35849,22.936249
增江画廊,广东,广州,广州,020,,增城区,沿江东三路15号1978电影小镇1978游船码头,景点,自然风光,113.835233,23.333369
玉树公园,广东,广州,广州,020,,科学城/萝岗高德汇,揽月路与科学大道交叉口（近科学大道）,景点,城市公园,113.441238,23.162758
大沙河湿地公园,广东,广州,广州,020,,荔湾区,海龙街道海中北路与花博大道交叉口西110米,景点,自然风光,113.198341,23.064129
草暖公园,广东,广州,广州,020,86666199,火车站/人民北路,环市西路187号（近解放北路）,景点,公园/广场,113.260612,23.146444
星海体育公园,广东,广州,广州,020,39997222,番禺区,迎星中路星海青少年宫内,景点,城市公园,113.366666,22.964207
莲塘春色,广东,广州,广州,020,82622632,增城区,荔城街莲塘村上莲塘路,景点,更多景点/周边游,113.846365,23.350872
明远楼,广东,广州,广州,020,,中山二三路/东山口,越秀中路125号大院内（近省电影公司）,景点,历史建筑,113.277412,23.124912
圣堂山公园,广东,广州,广州,020,,长洲岛,金洲南路深井古村南田大街1号,景点,城市公园,113.406383,23.069523
职工国际旅行社,广东,广州,广州,020,62738136,北京路商业区,东风中路300-1号,景点,旅行社,113.266875,23.130955
螺涌公园,广东,广州,广州,020,,罗冲围/金沙洲,松洲街道罗冲围螺涌北路螺涌工业区,景点,城市公园,113.226538,23.15374
阳光假日国旅,广东,广州,广州,020,83340162;83344891,北京路商业区,广卫路2号,景点,旅行社,113.26799,23.127672
粤游,广东,广州,广州,020,136****5274,钟村,茶山路270号,景点,旅行社,113.326732,22.997064
名骏旅行社,广东,广州,广州,020,81262187,中山七八路,荔湾路小梅大街33号皇上皇大厦A804,景点,旅行社,113.246524,23.130883
铁幕画廊,广东,广州,广州,020,,天河公园/上社,员村四横路128号红专厂艺术区F9室,景点,展览馆,113.37064,23.110844
广州康辉国际旅行社,广东,广州,广州,020,86822777,花都广场/区政府,迎宾大道与公益路交叉口百业广场世界名店城F1层,景点,旅行社,113.217715,23.400465
海南海之缘国际旅行社,广东,广州,广州,020,4008600192;139****5667,机场路沿线,乐嘉路宏景街2楼AA202室,景点,旅行社,113.254822,23.166722
省港罢工纪念馆,广东,广州,广州,020,,沿江路/二沙岛,东园横路3号,景点,纪念馆,113.277382,23.117922
星海假期旅行社,广东,广州,广州,020,83297619,沿江路/二沙岛,八旗二马路48号广东航运大厦5层,景点,旅行社,113.27379,23.11603
花都革命烈士陵园,广东,广州,广州,020,133****4252,花都体育馆/花果山公园,体育路7号,景点,烈士陵园,113.220538,23.382193
从化博物馆,广东,广州,从化区,020,87928190;87937152,街口/新世纪广场,城郊街河滨北路616号从化区图书馆,景点,博物馆,113.592621,23.548584
广裕祠,广东,广州,从化区,020,,从化区,太平镇钱岗古村,景点,宗教,113.546391,23.430741
广东省中国青年旅行社,广东,广州,广州,020,83373273,中山七八路,中山八路23-25号511室,景点,旅行社,113.239815,23.125231
萝岗区儿童公园,广东,广州,广州,020,,萝岗万达广场,联和街道水西路暹岗山庄对面,景点,公园/广场,113.469491,23.17278
大都市国际旅行社,广东,广州,广州,020,84121911,北京路商业区,广卫路2号广卫商务大厦1216室,景点,旅行社,113.267891,23.127619
海南辉煌国际旅行社,广东,广州,广州,020,87663662,五羊新城,寺右新马路19号长城大厦907,景点,旅行社,113.305548,23.119638
海珠国家湿地公园,广东,广州,广州,020,89638189;89638182,海珠区,新滘中路海珠国家湿地公园,景点,自然风光,113.336482,23.066688
清新假期旅行社,广东,广州,广州,020,3667680,江南西,宝岗大道杏园大街27号,景点,旅行社,113.266006,23.095246
广州市消防局旧址,广东,广州,广州,020,83390940,北京路商业区,文明路47号（北京路地铁站B口步行490米）,景点,历史建筑,113.270282,23.121835
毛泽东旧居遗址,广东,广州,广州,020,,中山二三路/东山口,庙前西街36号（近东山百货大楼）,景点,名人故居,113.293113,23.122003
要出发旅行网,广东,广州,广州,020,4001181166,天河公园/上社,科韵路20号数码港7楼,景点,旅行社,113.373832,23.123992
畅乐旅途,广东,广州,广州,020,83295730,广园新村,兴泰路与机场路交叉口东北20米,景点,旅行社,113.262428,23.163148
享度旅游,广东,广州,广州,020,4008313800,江南西,沙园街道江南西路28号南油写字楼804室,景点,旅行社,113.273889,23.095199
广州印象假期国际旅行社有限公司,广东,广州,广州,020,4008587558,同和/京溪,京溪路201号云景商务大厦313室,景点,旅行社,113.331401,23.181371
广州机器局旧址,广东,广州,广州,020,,北京路商业区,聚仁坊与槐花前交叉口东40米,景点,历史建筑,113.274434,23.121254
广州起义史迹八旗会馆遗址,广东,广州,广州,020,,沿江路/二沙岛,东堤二马路30号附近,景点,古代遗迹,113.276049,23.116152
羊城之旅国际旅行社,广东,广州,广州,020,81197810,火车站/人民北路,人民北路829号环球广场611-713单元,景点,旅行社,113.254273,23.129323
广州佰粤旅行社公司,广东,广州,广州,020,139****2391,长隆/南村,迎宾路万博中心A2栋1-2楼(近吉盛伟邦),景点,旅行社,113.342201,23.00856
广东外事博物馆,广东,广州,广州,020,81219772,沙面,沙面岛沙面南街20号（文化公园地铁站E口步行500米）,景点,博物馆,113.24823,23.106251
佰旅旅行社,广东,广州,广州,020,29123384,江南大道沿线,宝岗大道268号1314室,景点,旅行社,113.263358,23.098931
大都市国际旅行社,广东,广州,从化区,020,87975762;87975763,街口/新世纪广场,城郊街向阳大道城市印象花园四栋105号,景点,旅行社,113.594928,23.553938
广东青旅,广东,广州,广州,020,87346038,沿江路/二沙岛,八旗二马路广东航运大厦,景点,旅行社,113.273815,23.116055
广东省农民协会旧址,广东,广州,广州,020,,中山二三路/东山口,中山三路东皋大道礼兴街6号,景点,历史建筑,113.280641,23.128371
南浦文化创意产业园,广东,广州,广州,020,,南浦,南浦岛北岸,景点,创意园区,113.27803,23.036978
天后庙,广东,广州,广州,020,,花城汇/高德置地,猎德西浦大街2号,景点,宗教,113.330612,23.114073
康辉旅行社,广东,广州,广州,020,66681159,三元里,三元里大道瑶丽酒店220房,景点,旅行社,113.254521,23.161711
荔湾观音庙,广东,广州,广州,020,,芳村,坑口大街坑口新村69号,景点,宗教,113.2371,23.074654
康辉旅行社,广东,广州,广州,020,,江南西,江南西路紫琪大街4号（江南西地铁站出入口步行480米）,景点,旅行社,113.269264,23.093794
白云公园,广东,广州,广州,020,,机场路沿线,齐心路中国南方航空大厦,景点,公园/广场,113.27094,23.182085
广州志愿者公园,广东,广州,广州,020,,工业大道沿线,天鹅街13号,景点,城市公园,113.251328,23.091253
牛头山,广东,广州,广州,020,,黄埔区,联和街道木棉东街中国艺术家村东南500米,景点,自然风光,113.434576,23.208396
天适樱花悠乐园,广东,广州,从化区,020,37941188,温泉镇,城郊街西和村1队,景点,植物园,113.592348,23.627635
寰亚国际旅行社,广东,广州,广州,020,37617720,区庄/动物园,环市东路461号东环大厦4楼,景点,旅行社,113.298875,23.134795
陈田花园,广东,广州,广州,020,,白云大道沿线,白云大道北440号,景点,植物园,113.292198,23.210373
国民政府旧址,广东,广州,广州,020,,北京路商业区,吉祥路118号（公园前地铁站出入口步行460米）,景点,历史建筑,113.266296,23.129213
银排岭公园,广东,广州,广州,020,,龙洞/岑村,广汕一路297号,景点,城市公园,113.380628,23.195298
龙眼洞抗清遗址公园,广东,广州,广州,020,82563668,龙洞/岑村,迎新路,景点,纪念公园,113.366506,23.198001
黄陂生态湿地园,广东,广州,广州,020,,黄埔区,联华路（黄陂地铁站D口步行450米）,景点,公园/广场,113.430158,23.190441
荔枝红温泉庄园,广东,广州,从化区,020,87842818;37951318,碧水湾/碧水新村,御泉大道338号,景点,温泉,113.711467,23.691092
广东中旅,广东,广州,广州,020,81033900,中山七八路,荔湾路133号（近彩虹桥）,景点,旅行社,113.244451,23.132251
七彩旅游,广东,广州,广州,020,84412446,滨江路沿线,江南大道中后街10号102之2,景点,旅行社,113.273094,23.096814
龙母庙,广东,广州,广州,020,,兴盛路/跑马场,临江大道29号,景点,宗教,113.334359,23.114089
主山冯公祠,广东,广州,广州,020,,琶洲,逢源居9号,景点,宗教,113.394937,23.090507
郭氏大宗祠,广东,广州,广州,020,,芳村,东漖街东漖社区龙溪东路仁秀坊185号,景点,宗教,113.222409,23.079584
广之旅,广东,广州,广州,020,87673600,中山二三路/东山口,署前路33号自编108号（东山口地铁站A出口）,景点,旅行社,113.295074,23.123394
亚运会亚残运会博物馆,广东,广州,广州,020,,天河城/体育中心,体育西路42号,景点,博物馆,113.322426,23.138584
千适国旅,广东,广州,广州,020,81251677,中山七八路,中山八路65号1022铺,景点,旅行社,113.236538,23.124861
芳村中市谢家祠,广东,广州,广州,020,,芳村,中市南街（芳村小学旁）,景点,宗教,113.238438,23.096258
科技关关通商旅中心,广东,广州,广州,020,61308558,天河北/广州东站,广州东站火车站3号门,景点,旅行社,113.324341,23.14963
小二票务,广东,广州,广州,020,135****3837,番禺广场,富华东路296号创润大厦5楼A012-017,景点,旅行社,113.377819,22.94571
南湖国旅,广东,广州,广州,020,83337822;83171954,中山七八路,中山八路富力商贸大厦首层,景点,旅行社,113.239957,23.125247
农艺创意园,广东,广州,广州,020,,白云区,"白云山风景区内（近绿色大草坪,茗园茶艺馆旁）",景点,创意园区,113.29514,23.183218
梁询故居,广东,广州,广州,020,,琶洲,黄埔村吉辰大街5号,景点,名人故居,113.394627,23.089987
何仙姑景区,广东,广州,广州,020,82849116,增城区,小楼大道小楼镇中心小学旁,景点,自然风光,113.826856,23.378855
南湖国旅,广东,广州,广州,020,81728161,机场路沿线,机场路111号144号铺（建发广场首层B6档）,景点,旅行社,113.259643,23.168453
广州雕塑公园,广东,广州,广州,020,86351663,越秀区,下塘西路545号,景点,文化公园,113.270599,23.148874
中国十八先贤铜像广场,广东,广州,广州,020,,新港西路沿线,新港西路135号中山大学南校区（近永芳堂）,景点,广场,113.297417,23.096258
中国青年旅行社,广东,广州,广州,020,28849868;28849822,环市东路/区庄,先烈中路102-2号华盛大厦10楼1505室,景点,旅行社,113.300941,23.140931
锦粤旅行社,广东,广州,广州,020,61291688,五羊新城,长城大厦13楼1302室,景点,旅行社,113.305501,23.119691
快乐出发,广东,广州,广州,020,86311821;86311820,机场路沿线,机场路棠景街6号（近五号停机坪）,景点,旅行社,113.256631,23.17384
玉华堂,广东,广州,广州,020,,滨江路沿线,怡乐路33号嘉仕花园2楼,景点,宗教,113.295715,23.102645
拜庭许大夫家庙,广东,广州,广州,020,,北京路商业区,高第街许地41号后座,景点,宗教,113.266389,23.119309
春秋旅游,广东,广州,广州,020,83380000,江南大道沿线,江南大道中路153号A05房（近江南西地铁站）,景点,旅行社,113.271434,23.101864
狮山公园,广东,广州,广州,020,,鱼珠,中山大道东（BRT珠江村站旁）,景点,公园/广场,113.442245,23.099094
新塘滨江公园,广东,广州,广州,020,,新塘,（近长堤路）,景点,城市公园,113.619188,23.106418
坑贝村,广东,广州,广州,020,,增城区,中新镇,景点,古村古镇,113.650207,23.277678
兰溪森林公园,广东,广州,广州,020,,增城区,X293号（兰溪中心路）,景点,森林公园,113.951967,23.374944
凤凰山公园,广东,广州,广州,020,,荔城,西角里40号,景点,公园/广场,113.836639,23.287127
福来古典红木艺术馆,广东,广州,广州,020,158****3888,新塘,汽车城大道与长岗新村街交叉路口东侧（豪业广场南侧约50米),景点,美术馆,113.603175,23.137345
永庆古庵,广东,广州,广州,020,,增城区,增派公路与棠村二路交叉路口往西北约110米,景点,宗教,113.833648,23.329245
新塘倚岩寺,广东,广州,广州,020,82778746,新塘,港口大道石巷倚岩寺,景点,宗教,113.600412,23.107575
广之旅国际旅行社,广东,广州,广州,020,82882255,新好景/大润发,新好景大酒店首层,景点,旅行社,113.602682,23.122242
增城东湖公园,广东,广州,广州,020,,荔城,增江街道东桥东路26号,景点,城市公园,113.849572,23.284856
崔太师祠,广东,广州,广州,020,,增城区,坑呗村丞相路一巷1号,景点,宗教,113.650407,23.279834
白湖公园,广东,广州,广州,020,,增城区,增江街道一一九省道村尾段,景点,城市公园,113.846525,23.360923
华光神庙,广东,广州,广州,020,,开发区东区,水南大道东14号对面,景点,宗教,113.559171,23.105361
增城公园,广东,广州,广州,020,82640738,东汇城/人人乐,荔城街道光明西路7号,景点,城市公园,113.821556,23.287009
新城公园,广东,广州,广州,020,,永和镇,永和镇熊岭路与永贤路交口,景点,公园/广场,113.587652,23.182677
基督教堂,广东,广州,广州,020,82746674,荔城,民主街2号,景点,宗教,113.838509,23.288899
和平国旅,广东,广州,广州,020,82652277,荔城,荔城街园圃路53号,景点,旅行社,113.828671,23.284341
石湖公园,广东,广州,广州,020,,增城区,曹田心村,景点,城市公园,113.739542,23.209582
初溪休闲公园,广东,广州,广州,020,,增城区,初溪码头西侧,景点,城市公园,113.840908,23.223498
东岳庙,广东,广州,广州,020,,荔城,城北路与怡丰路交叉口西南50米,景点,景点/周边游,113.834653,23.295517
三忠古庙,广东,广州,广州,020,,增城区,256省道与291县道交叉口东南200米,景点,宗教,113.834855,23.330605
宁西广场,广东,广州,广州,020,,沙埔镇,朱宁路19号东北方向130米,景点,广场,113.660881,23.221735
黄何乡村公园,广东,广州,广州,020,,增城区,海坑街与新围一街交叉路口往西南约110米,景点,城市公园,113.934896,23.471453
郑中钧故居,广东,广州,广州,020,,增城区,中国广东省广州市增城区联安村新村路,景点,名人故居,113.680869,23.424919
霞余村,广东,广州,广州,020,,荔城,增江街道霞余路附近,景点,古村古镇,113.840379,23.267719
金福星广场,广东,广州,广州,020,82693326,新塘,新塘大道中88号,景点,广场,113.609983,23.118163
正果镇月亮湾公园,广东,广州,广州,020,,增城区,番丰村新庙贝3号,景点,城市公园,113.885383,23.41873
广东省中国青年旅行社,广东,广州,广州,020,26250150,新塘,海关大道2号锦绣银苑152号,景点,旅行社,113.603555,23.106195
大封门水库,广东,广州,广州,020,,白水寨/派潭,派潭镇302乡道,景点,现代建筑,113.818038,23.58314
白花寺,广东,广州,广州,020,,沙埔镇,宁西街道,景点,宗教,113.662546,23.207246
新兴步行街,广东,广州,广州,020,,新塘,新塘镇新兴街66号,景点,步行街,113.612955,23.108841
天后宫,广东,广州,广州,020,,沙埔镇,仙村一路73号,景点,历史建筑,113.718365,23.167537
向阳二社文化广场,广东,广州,从化区,020,,街口/新世纪广场,长流埔附近,景点,公园/广场,113.589443,23.561375
宣星人家,广东,广州,从化区,020,135****0256,温泉镇,宣星一街58号,景点,古村古镇,113.64471,23.600596
广州市从化温泉自然保护区科普馆,广东,广州,从化区,020,,温泉镇,温泉西路25号,景点,科技馆,113.644151,23.638331
苏东坡纪念馆,广东,广州,从化区,020,87836066,温泉镇,温泉东路75号,景点,纪念馆,113.657064,23.641111
骆氏宗祠,广东,广州,从化区,020,,从化区,太平水南街水南小学(太原路)东南侧约260米,景点,宗教,113.500672,23.460481
东方夏湾拿美术馆,广东,广州,从化区,020,,从化区,夏湾拿大道10号,景点,美术馆,113.501121,23.47371
罗氏宗祠,广东,广州,从化区,020,,鳌头/旗杆,大塱村南街,景点,宗教,113.48542,23.577248
欢乐佤谷,广东,广州,从化区,020,87835918,良口镇,新温泉旅游区105国道东侧,景点,游乐场,113.703827,23.683777
易欢游旅行社,广东,广州,从化区,020,61700017,街口/新世纪广场,开源路2巷4栋201房,景点,旅行社,113.587947,23.546329
从化山顶公园,广东,广州,从化区,020,,温泉镇,景业荔都花园一街21号正北方向160米,景点,城市公园,113.642799,23.60717
洲洞庙,广东,广州,从化区,020,,从化区,631乡道北50米,景点,宗教,113.349324,23.598664
水榭山溪旅游公司,广东,广州,从化区,020,87826555,从化区,广从南路夏湾拿往从化方向100米,景点,旅行社,113.50718,23.472295
流溪温泉,广东,广州,从化区,020,,温泉镇,温泉东路51号,景点,温泉,113.655502,23.642761
宣星运动谷,广东,广州,从化区,020,,温泉镇,Y566与宣星四街交叉口东南方向60米,景点,自然风光,113.643774,23.599093
积安陈公祠,广东,广州,从化区,020,,鳌头/旗杆,西塘大围一街,景点,宗教,113.50013,23.610485
长兴庙,广东,广州,从化区,020,,从化区,思泉路,景点,宗教,113.965558,23.768968
北星文化广场,广东,广州,从化区,020,,街口/新世纪广场,北星文化广场（北星路西）,景点,公园/广场,113.586559,23.556399
龙皇庙,广东,广州,从化区,020,,从化区,青云路383号,景点,宗教,113.579062,23.529911
谷灵庙,广东,广州,从化区,020,,从化区,谷星街与谷星下洞街交叉口西南方向180米,景点,宗教,113.791124,23.80452
洪圣大王庙,广东,广州,从化区,020,,从化区,山心村卫生站附近,景点,宗教,113.319537,23.616787
瓦壶岗公园,广东,广州,广州,020,82337050,鱼珠,蟹山路35号,景点,文化公园,113.43895,23.099243
玄帝古庙,广东,广州,广州,020,,开发区东区,笔村大路笔村综合市场西南侧约210米,景点,宗教,113.526103,23.113233
榕村会场,广东,广州,广州,020,,开发区东区,云埔街道榕华路榕村幼儿园北30米,景点,景点/周边游,113.54705,23.112377
螺壳山公园,广东,广州,广州,020,,生活区/南岗,广江路广州冶炼厂附近,景点,城市公园,113.494431,23.086758
和平国际旅行社有限公司,广东,广州,广州,020,82376486,大沙地,三多路117号（大沙东地铁站C口步行420米）,景点,旅行社,113.458176,23.107999
夏园体育文化公园,广东,广州,广州,020,,夏园,夏园社区夏园路93号,景点,文化公园,113.518532,23.078117
石化展览馆,广东,广州,广州,020,,文冲,石化路振兴街18号明珠宾馆附近,景点,博物馆,113.471725,23.108835
黄埔南山公园,广东,广州,广州,020,,生活区/南岗,南岗南园花园大街6号,景点,城市公园,113.54657,23.089397
姬堂公园,广东,广州,广州,020,,黄埔区,大沙街姬堂社区,景点,城市公园,113.461289,23.132459
蟹山公园,广东,广州,广州,020,82279745,鱼珠,蟹山社区蟹山路2号,景点,城市公园,113.436222,23.096593
鹿沙区公祠,广东,广州,广州,020,,夏园,沙涌大街十五巷8号,景点,宗教,113.529053,23.084108
洪圣公园,广东,广州,广州,020,,长洲岛,金洲北路26号,景点,公园/广场,113.432182,23.084686
小浮莲休闲登山径,广东,广州,广州,020,,石楼,沙环西街,景点,自然风光,113.495934,22.953243
梁氏宗祠,广东,广州,广州,020,,大学城,北亭大街87号,景点,宗教,113.373423,23.05032
陈涌公园,广东,广州,广州,020,,市桥南,兴业大道与兴业大道东十横路交叉口西100米,景点,城市公园,113.368588,22.909014
广东中旅假日国际旅行社有限公司,广东,广州,广州,020,34706868,洛溪,105国道华进明苑33号铺,景点,旅行社,113.305187,23.04213
沙墟公园,广东,广州,广州,020,,市桥,沙墟一公园（沙圩西大街北）,景点,城市公园,113.379105,22.942655
新水坑村生态园,广东,广州,广州,020,,番禺区,环村东路与环村中路路口以西,景点,动植物园,113.393936,22.972026
袁氏宗祠,广东,广州,广州,020,,番禺区,桥联大街49号,景点,宗教,113.451246,22.977848
金马国旅,广东,广州,广州,020,83179762,洛溪,105国道大石段45号,景点,旅行社,113.305891,23.041976
小罗公园,广东,广州,广州,020,,钟村,小罗村12号,景点,城市公园,113.344605,22.966434
侯宗祠,广东,广州,广州,020,,番禺区,大岭村安和街8号,景点,宗教,113.473861,22.988652
邵氏宗祠,广东,广州,广州,020,,大学城,大学城北三路,景点,宗教,113.394825,23.05881
水晶宫文化公园,广东,广州,广州,020,,市桥,光明南路9号,景点,文化公园,113.363271,22.935089
大街公园,广东,广州,广州,020,,番禺区,柏堂路29号,景点,城市公园,113.453306,23.048414
番禺区地震科普教育馆,广东,广州,广州,020,,市桥南,汇景大道373-375号,景点,科技馆,113.378724,22.920484
三善村共青团环保公园,广东,广州,广州,020,,沙湾镇,福善路2号旁,景点,城市公园,113.297744,22.892571
灵山中心公园,广东,广州,南沙区,020,,大岗,环城东路14号,景点,森林公园,113.416565,22.807392
新水坑公园,广东,广州,广州,020,,番禺区,石基镇环村北路42号,景点,城市公园,113.392888,22.975355
东溪公园,广东,广州,广州,020,,番禺区,柏堂路64号,景点,公园/广场,113.451469,23.055767
渡头公园,广东,广州,广州,020,,市桥南,龙福路40号,景点,公园/广场,113.342891,22.925656
化龙镇明经村共青团环保公园,广东,广州,广州,020,34755928,番禺区,安定大街1巷5号,景点,文化公园,113.467397,23.012023
沙湾文化广场,广东,广州,广州,020,,市桥南,中华大道217-221号,景点,广场,113.3427,22.904697
坑头文化体育公园,广东,广州,广州,020,,番禺区,市新路北段188号4楼,景点,文化公园,113.395121,22.98467
潭洲公园,广东,广州,南沙区,020,,大岗,潭州埠边坊29号,景点,城市公园,113.388114,22.78159
东林梁公祠,广东,广州,广州,020,,大学城,北亭大街69号,景点,宗教,113.374979,23.052164
新造镇公园,广东,广州,广州,020,84755447,番禺区,兴华路117号,景点,城市公园,113.421928,23.035822
桥头公园,广东,广州,广州,020,,番禺区,大岭村安和街,景点,公园/广场,113.474083,22.98816
九比公园,广东,广州,南沙区,020,,榄核镇,安乐街2号,景点,城市公园,113.388672,22.843525
邬氏宗祠,广东,广州,广州,020,,长隆/南村,南山大道13号,景点,宗教,113.392351,23.007691
东池胡公祠,广东,广州,广州,020,,番禺区,左里祠堂大街5号,景点,宗教,113.466436,23.012986
钟二公园,广东,广州,广州,020,,钟村,隔坑大街二巷,景点,城市公园,113.321387,22.975712
六福文化博览园,广东,广州,广州,020,,沙湾镇,沙湾镇市良路950号,景点,更多景点/周边游,113.330811,22.891201
赤岗公园,广东,广州,广州,020,,石楼,庐山路12号,景点,城市公园,113.482047,22.962605
五帅府古庙,广东,广州,广州,020,,番禺区,金马大街12号,景点,宗教,113.305517,22.933397
灵蟠庙,广东,广州,广州,020,,番禺区,石楼路段346号,景点,宗教,113.481078,22.976945
西三公园,广东,广州,广州,020,,南浦,西乡三路,景点,城市公园,113.263862,23.039988
广州中医药大学大会堂,广东,广州,广州,020,,大学城,大学城外环东路232号,景点,景点/周边游,113.404766,23.057666
沙湾公园,广东,广州,广州,020,,市桥南,沙湾大道37号,景点,公园/广场,113.345062,22.907047
石碁文化广场,广东,广州,广州,020,84859298,石碁,岐山中路63号,景点,广场,113.439796,22.955532
东涌水乡风情街,广东,广州,南沙区,020,84905903,东涌镇,东涌街4号附近,景点,步行街,113.462445,22.881793
迎宾广场,广东,广州,广州,020,,石碁,兴亚3路15号,景点,广场,113.479877,22.943536
城北公园,广东,广州,广州,020,,市桥,东环街道彩虹路东,景点,公园/广场,113.367607,22.960201
石桥公园,广东,广州,广州,020,,市桥,地铁市桥站旁,景点,城市公园,113.362693,22.950184
番禺简氏宗祠,广东,广州,广州,020,,石碁,昌平大街东100米,景点,宗教,113.443787,22.947922
胜福冯公祠,广东,广州,广州,020,,长隆/南村,南村镇为民中路,景点,宗教,113.383613,22.983483
欧洲风情街,广东,广州,广州,020,,市桥南,福德路与花岸东街交叉口东北100米,景点,步行街,113.355721,22.924872
南湖国旅,广东,广州,广州,020,39985288;39985352,洛溪,洛溪新城芳华花园洛涛居南区27幢之10号,景点,旅行社,113.30419,23.03981
尹氏宗祠,广东,广州,广州,020,,长隆/南村,金源路3巷4号（板桥地铁站A口步行260米）,景点,宗教,113.385989,23.016119
高峰崔公祠,广东,广州,广州,020,,长隆/南村,长堤大街16号,景点,宗教,113.358959,23.019849
唐氏宗祠,广东,广州,广州,020,,长隆/南村,晋胜大街2号,景点,宗教,113.394522,23.007251
南山古庙,广东,广州,广州,020,,长隆/南村,南村镇南村村沙市上街兴仁里二横巷8号,景点,宗教,113.395793,23.007555
涌口公园,广东,广州,广州,020,,大石,大桥收费站西侧（星河湾酒店·国际公寓南）,景点,城市公园,113.33524,23.024177
松侣朱公祠,广东,广州,广州,020,,长隆/南村,街南村晋胜坊沙塘新区北侧约130米,景点,宗教,113.394494,23.009537
新二村公园,广东,广州,南沙区,020,,大岗,新二小学东南侧约70米,景点,城市公园,113.456713,22.751811
冼星海故居,广东,广州,南沙区,020,,南沙区,泰幼儿园西侧),景点,名人故居,113.322285,22.862295
海韵画廊,广东,广州,广州,020,,钟村,福临路与钟村街交叉口东北50米,景点,美术馆,113.334664,22.968336
石岗松岗公园,广东,广州,广州,020,,石碁,石岗东村松岗路,景点,城市公园,113.393316,22.942331
钟村镇文化广场,广东,广州,广州,020,,钟村,304县道,景点,广场,113.301191,22.965464
鳌山古庙,广东,广州,广州,020,,沙湾镇,沙湾镇福善路三善村共青团环保公园,景点,宗教,113.297206,22.891463
神农古庙,广东,广州,广州,020,,沙湾镇,福善路2号附近,景点,宗教,113.297371,22.891406
祠堂大街刘氏宗祠,广东,广州,广州,020,,番禺区,中约发展路卡度尼大厦西侧约180米,景点,宗教,113.467734,23.017993
李氏大宗祠,广东,广州,广州,020,,番禺区,上街一巷与陈巷口街交叉口东100米,景点,宗教,113.463987,23.025126
大岗镇文化广场,广东,广州,南沙区,020,,大岗,欣荣路与民生路交叉口西南,景点,广场,113.388991,22.783241
北峙公园,广东,广州,广州,020,,广州南站,石陈路43号,景点,城市公园,113.267982,23.003477
玉秀广场,广东,广州,广州,020,34604999;34604928,石碁,市莲路,景点,公园/广场,113.397779,22.940156
石碁公园,广东,广州,广州,020,,石碁,市莲路与龙涌东路交叉口南20米,景点,城市公园,113.433983,22.951378
龙湾公园,广东,广州,广州,020,,番禺区,龙湾村委会旁,景点,公园/广场,113.295991,22.901568
三善梁氏宗祠,广东,广州,广州,020,,沙湾镇,福善路十四巷34号,景点,宗教,113.297707,22.894147
王后宫,广东,广州,南沙区,020,,大岗,庙前街大岗公园西侧,景点,宗教,113.40947,22.803551
番禺观音庙,广东,广州,广州,020,,广州南站,南边牌坊路与聚龙路聚龙大街交叉口西南50米,景点,宗教,113.258448,22.968898
古树园,广东,广州,广州,020,,美林湖,美林湖大道,景点,城市公园,113.038496,23.469446
宗贤梁公祠,广东,广州,广州,020,,花都区,凤凰北路111号,景点,宗教,113.230378,23.415706
雅瑶镇三向村文化广场,广东,广州,广州,020,,雅瑶,聚宝路5-1号附近,景点,公园/广场,113.221035,23.362966
芙蓉峰公园,广东,广州,广州,020,,花都区,狮岭镇芙蓉度假区,景点,城市公园,113.223414,23.512912
水仙古庙,广东,广州,广州,020,,花都区,都区新华三华小学西,景点,宗教,113.191964,23.387507
朱氏大宗祠,广东,广州,广州,020,,花都区,秀全街道凤鸣路,景点,宗教,113.167652,23.373423
三东村公园,广东,广州,广州,020,,花都区,凤凰北路与三东大道西交叉路口往北约100米,景点,城市公园,113.233583,23.410246
洪秀全纪念馆,广东,广州,广州,020,86832232,秀全公园,大布村吉祥街1号,景点,博物馆,113.213593,23.374014
气象天文科普馆,广东,广州,广州,020,,花都区,平石东路1正东方向1号60米,景点,陈列馆,113.241753,23.418161
昌甫刘公祠,广东,广州,广州,020,,花都体育馆/花果山公园,天贵路与宝华路交叉口东南150米,景点,宗教,113.222954,23.39165
巴江明珠,广东,广州,广州,020,,炭步,花都大道西93-18号正北方向180米,景点,公园/广场,113.110564,23.335379
龙王古庙,广东,广州,广州,020,,花都区,芙峰路20西北方向120号号米,景点,宗教,113.234361,23.514971
蟾蜍石水库,广东,广州,广州,020,,花都区,花东镇789乡道,景点,现代建筑,113.358859,23.492932
花都梁氏大宗祠,广东,广州,广州,020,,花都区,华洲路285号,景点,宗教,113.231471,23.414288
维龙潘公祠,广东,广州,广州,020,,狮岭,益群广场东北,景点,宗教,113.186765,23.472358
龙王公园,广东,广州,广州,020,86853846,花都区,芙峰路20号,景点,公园/广场,113.233925,23.514607
电视塔公园,广东,广州,广州,020,,花都体育馆/花果山公园,体育路30号,景点,公园/广场,113.218037,23.38487
阳升村文化广场,广东,广州,广州,020,,花东,(大东小学往前200米)阳升村委会附近,景点,公园/广场,113.315675,23.475748
横潭公园,广东,广州,广州,020,,秀全公园,滨湖路21号,景点,城市公园,113.221829,23.374689
日义谭公祠,广东,广州,广州,020,,花都区,花城街道商业街,景点,宗教,113.228564,23.421664
雅瑶镇文化广场,广东,广州,广州,020,,雅瑶,G107（广花一级公路）,景点,公园/广场,113.22316,23.359924
凤凰国际旅行社有限公司,广东,广州,广州,020,22686121;22686126,花都区,风神大道10号B栋第一层,景点,旅行社,113.169878,23.379668
狮岭镇文化广场,广东,广州,广州,020,86998433,狮岭,雄狮东路124号狮山公园(振兴路)附近,景点,公园/广场,113.158796,23.459951
星缘商业街,广东,广州,广州,020,,来又来/大润发,龙珠路26号,景点,观光街区,113.232045,23.397223
文楼公园,广东,广州,广州,020,,炭步,广源路,景点,文化公园,113.095741,23.341581
同盟会番花分会旧址,广东,广州,广州,020,,花都区,东华大街7号正西方向20米,景点,历史建筑,113.194659,23.390499
五华公园,广东,广州,广州,020,,建设北路,花城北路63-6号,景点,城市公园,113.208206,23.388807
翔游国旅,广东,广州,广州,020,,花都广场/区政府,龙珠路8-101号,景点,旅行社,113.217515,23.396483
花都洪圣古庙,广东,广州,广州,020,,花都区,734乡道藏书院村附近（近藏书院）,景点,宗教,113.054232,23.318643
川秀钟公祠,广东,广州,广州,020,,狮岭,381省道附近,景点,宗教,113.18222,23.47756
道显黄公祠,广东,广州,广州,020,,花都区,环村北街锦丰苑(环村东路)北侧约130米,景点,宗教,113.160731,23.367197
马溪公园,广东,广州,广州,020,,马溪,连村街与社庙口二街交叉路口往西南约210米,景点,城市公园,113.152657,23.352972
广州民俗博物馆,广东,广州,广州,020,86903008,花都区,三华村107国道旁,景点,博物馆,113.191807,23.387167
山海天旅行社,广东,广州,广州,020,36810007,花都体育馆/花果山公园,天贵路60号天贵大厦,景点,旅行社,113.223529,23.387239
大塘公园,广东,广州,南沙区,020,,黄阁镇,麒龙中路89号附近,景点,公园/广场,113.505646,22.827604
东井公园,广东,广州,南沙区,020,,珠江旧镇,东井大街49号,景点,城市公园,113.584023,22.764267
共青团公园,广东,广州,南沙区,020,,黄阁镇,大南路与清河路交叉路口西南侧,景点,城市公园,113.505646,22.821045
莲溪凤山公园,广东,广州,南沙区,020,,黄阁镇,黄阁中学旁边,景点,文化公园,113.508968,22.82963
鹿颈公园,广东,广州,南沙区,020,,南沙区,南沙街道鹿颈村工业园简易厂房6号对面,景点,城市公园,113.613549,22.755258
沙尾一公园,广东,广州,南沙区,020,,南沙区,万顷沙镇粤海大道九涌段21号附近,景点,城市公园,113.572584,22.674281
小虎岛,广东,广州,南沙区,020,,南沙区,黄阁大道北附近,景点,自然风光,113.53539,22.84043
横沥文化体育广场,广东,广州,南沙区,020,,南沙区,横沥镇中环路54-1号,景点,公园/广场,113.488247,22.732936
滨海旅游风景区,广东,广州,南沙区,020,,南沙区,海滨路（大角山海滨公园）,景点,自然风光,113.619253,22.749873
天后古庙,广东,广州,南沙区,020,,黄阁镇,丹桂路20号,景点,宗教,113.502495,22.830673
蝴蝶洲公园,广东,广州,南沙区,020,,南沙区,南沙街道进港大道320号附近,景点,城市公园,113.565043,22.797088
南塘公园,广东,广州,南沙区,020,,黄阁镇,东盛街5巷6号,景点,城市公园,113.505119,22.819157
广东国旅,广东,广州,南沙区,020,39090488,金州商业区,金洲村进港大道33号（今洲广场肯德基对面）,景点,旅行社,113.546596,22.800649
罗氏大宗祠,广东,广州,广州,020,,科学城/萝岗高德汇,广汕路沙湾北街28号,景点,宗教,113.428236,23.191124
盈翠公园,广东,广州,广州,020,,中心城,创业公园总站,景点,城市公园,113.480309,23.184715
高新技术展示厅,广东,广州,广州,020,,科学城/萝岗高德汇,揽月路与创新路交叉路口向西约200米（广州科技创新基地）,景点,展览馆,113.449982,23.159924
广之旅,广东,广州,广州,020,82266208,中心城,萝岗街139号,景点,旅行社,113.508821,23.175891
甘竹山公园,广东,广州,广州,020,136****8036,永和镇,布岭路,景点,城市公园,113.564357,23.201382
莲塘白玉兰森林公园,广东,广州,广州,020,,钟落潭,九太路,景点,森林公园,113.468395,23.337055
行三祖祠,广东,广州,广州,020,,中心城,岗潮东二街5号,景点,宗教,113.515074,23.18063
市民公园,广东,广州,广州,020,,中心城,香雪三路与香雪大道西交叉路口东侧（萝岗市民广场）,景点,公园/广场,113.479285,23.179792
中新知识城规划展示厅,广东,广州,广州,020,,旺村/何棠下,九龙大道万科幸福誉东侧约50米,景点,展览馆,113.542313,23.331701
广东省凉茶博物馆,广东,广州,广州,020,22211057,科学城/萝岗高德汇,金峰园路2号,景点,博物馆,113.450272,23.179567
体育生态公园,广东,广州,广州,020,,开发区东区,云骏路2号,景点,公园/广场,113.538597,23.143016
萝峰寺,广东,广州,广州,020,,中心城,萝峰路萝岗香雪公园北侧约80米,景点,宗教,113.526214,23.185415
东江纵队纪念广场,广东,广州,广州,020,,永和镇,永和大道与永安大道交叉口南100米,景点,广场,113.561626,23.214338
黄埔洪圣古庙,广东,广州,广州,020,,开发区东区,连云路388号,景点,宗教,113.508452,23.135538
抗日战争根据地凤溪村旧址,广东,广州,广州,020,,芳村,葵蓬路90号,景点,革命旧址,113.211625,23.087014
坑口公园,广东,广州,广州,020,81809221,芳村,坑口紫竹苑20号,景点,城市公园,113.236746,23.074236
坦尾村江边公园,广东,广州,广州,020,,芳村,坦尾西路108号,景点,城市公园,113.219021,23.117015
西基公园,广东,广州,广州,020,,开发区西区,东基村中成街与育才大街交叉口西北角,景点,城市公园,113.511536,23.062979
广之旅,广东,广州,广州,020,81360988,中山七八路,龙津西泮塘路新都里2号首层01室,景点,旅行社,113.236193,23.123987
宝庆粤艺文化园,广东,广州,广州,020,,上下九商业区,多宝路234号（长寿路地铁站D2口步行450米）,景点,文化公园,113.238243,23.116352
雪源滑雪系列,广东,广州,广州,020,,火车站/人民北路,站前路193号金祥大厦12层B1212室,景点,滑雪,113.251335,23.144003
中国广州观赏鱼博览中心,广东,广州,广州,020,185****0432,芳村,花地南路西塱麦村北约55号广州市留香土特产品综合交易市场,景点,展览馆,113.226763,23.064777
天天假期旅行社,广东,广州,广州,020,,中山七八路,中山七路93-99号广东抽纱大厦16层,景点,旅行社,113.25122,23.123622
协同和机器厂博物馆,广东,广州,广州,020,81899922,芳村,冲口街芳村大道东146号,景点,博物馆,113.246094,23.089134
西固炮台抗英遗址,广东,广州,广州,020,,沙面,沙面岛沙面北街101号（黄沙地铁站F口步行290米）,景点,古代遗迹,113.240389,23.10797
金花文化广场,广东,广州,广州,020,,中山七八路,金花直街79号,景点,广场,113.250139,23.129077
北山公园,广东,广州,广州,020,,海珠区,北山社区仑头路78号,景点,公园/广场,113.372059,23.081353
银岭广场,广东,广州,广州,020,,新港西路沿线,瑞纺路,景点,公园/广场,113.299113,23.084558
滨江水上居民民俗博物馆,广东,广州,广州,020,89033243,滨江路沿线,滨江街道怡安路179号2楼,景点,博物馆,113.275271,23.108781
沙园公园,广东,广州,广州,020,,江南大道沿线,宝岗大道22号-1号,景点,城市公园,113.268412,23.09016
上涌公园,广东,广州,广州,020,,客村/赤岗,东约新大街北100上冲东约26巷3号,景点,城市公园,113.320568,23.080131
胡一川美术馆,广东,广州,广州,020,84017023,江南大道沿线,昌岗东路257号广州美术学院,景点,美术馆,113.278282,23.092121
康乐园早期建筑群,广东,广州,广州,020,,新港西路沿线,新港西路135号中山大学西南区493号楼,景点,历史建筑,113.297069,23.095697
中华图腾博物馆,广东,广州,广州,020,,海珠区,启明坊外街5号,景点,博物馆,113.377443,23.075569
西聚园,广东,广州,广州,020,,新港西路沿线,大榕路与蒲园路交叉口西200米,景点,城市公园,113.293059,23.094989
陈嘉庚纪念堂,广东,广州,广州,020,135****8232,新港西路沿线,新港西路135号中山大学东北区341号,景点,纪念馆,113.29982,23.098631
港中旅,广东,广州,广州,020,34092938,客村/赤岗,汇龙居自编门牌18号铺,景点,旅行社,113.330321,23.089651
石崖卫公祠,广东,广州,广州,020,,海珠区,南洲路沥滘村沥滘东街4号,景点,宗教,113.315822,23.058362
东方国旅,广东,广州,广州,020,84400545,江南西,江南西路66号润汇大厦首层紫山大街2-5（江南西站A1出口）,景点,旅行社,113.269661,23.094711
南洲街沥滘公园,广东,广州,广州,020,,海珠区,五约大街与沥滘水基大街交汇处附近,景点,城市公园,113.317171,23.060554
华南茶叶广场,广东,广州,广州,020,34138333,海珠区,南洲路,景点,公园/广场,113.310711,23.067934
东壁花园,广东,广州,广州,020,,工业大道沿线,冲边街1-6号,景点,城市公园,113.281632,23.068313
滨江婚育文化园,广东,广州,广州,020,,滨江路沿线,草芳围46号,景点,文化公园,113.273979,23.111475
凤浦公园,广东,广州,广州,020,,琶洲,柳塘大街三巷11号,景点,城市公园,113.396684,23.092914
中纺南二街,广东,广州,广州,020,,新港西路沿线,瑞康路长江纺织城1楼,景点,观光街区,113.296123,23.081054
松岗楼,广东,广州,广州,020,,琶洲,北浦大街雅郡花园东侧约110米,景点,历史建筑,113.39028,23.092589
昌成朱公祠,广东,广州,广州,020,,东晓南路沿线,泰宁大街21号,景点,宗教,113.283297,23.085737
怀士堂,广东,广州,广州,020,,新港西路沿线,新港西路135号中山大学西南区492号,景点,历史建筑,113.298056,23.09563
锦田,广东,广州,广州,020,,海珠区,新埗头大路西8号,景点,自然景观,113.353817,23.071817
陈氏宗祠,广东,广州,广州,020,,海珠区,赤沙南约西巷18号,景点,宗教,113.356453,23.084786
国之旅国际旅行社,广东,广州,广州,020,,客村/赤岗,红卫新村西路29号UP+智谷B3栋410室,景点,旅行社,113.329769,23.087489
昌盛文体活动广场,广东,广州,广州,020,,工业大道沿线,宝岗大道昌盛大街27号（昌盛小区）,景点,公园/广场,113.259962,23.095462
南湖国旅,广东,广州,广州,020,34366121;34366083,滨江路沿线,滨江东路803号自编B2号之三,景点,旅行社,113.30943,23.10256
广东中旅,广东,广州,广州,020,84482628,江南大道沿线,江南中街道前进路40号万国广场1层(近万国广场门市部),景点,旅行社,113.273666,23.102411
何伯奕何善衡故居,广东,广州,广州,020,,工业大道沿线,石溪村冲边街8号,景点,名人故居,113.280746,23.068334
粤王井,广东,广州,广州,020,83568090,东风中路/越秀公园,应元路（纪念堂地铁站C口步行130米）,景点,历史建筑,113.263107,23.13406
广州书院文化街,广东,广州,广州,020,,北京路商业区,西湖路70号附近,景点,休闲街区,113.26664,23.123503
乐耕陈公祠,广东,广州,广州,020,,三元里,村前大街45号,景点,宗教,113.248898,23.164617
煊煌书画美术馆,广东,广州,广州,020,,沿江路/二沙岛,东华东路638号东豪综合楼2层206室,景点,美术馆,113.292931,23.120003
凤翔公园,广东,广州,广州,020,,三元里,沙涌南530号,景点,公园/广场,113.248448,23.16288
迎宾路商业街,广东,广州,广州,020,,中山六路,将军东社区西侧（纪念堂地铁站D1口步行360米）,景点,观光街区,113.260753,23.130253
中国旅行社股份有限公司,广东,广州,广州,020,83368888;4008833870,沿江路/二沙岛,沿江中路195-197号沿江大厦20层,景点,旅行社,113.269817,23.11479
佛协道场,广东,广州,广州,020,,火车站/人民北路,六榕街道永安约31号,景点,宗教,113.253865,23.131305
广州市职工国际旅行社,广东,广州,广州,020,37638770;37638260,北京路商业区,北京街道文明路65号(市一宫外便利店旁),景点,旅行社,113.271599,23.122408
濂溪书院旧址,广东,广州,广州,020,,北京路商业区,小马站21号(公园前地铁站出入口步行130米),景点,历史建筑,113.266846,23.124861
百岁坊公园,广东,广州,广州,020,,北京路商业区,中山四路与秉政街交叉口附近,景点,城市公园,113.273598,23.125523
越秀区博物馆,广东,广州,广州,020,83323508,中山六路,惠福西路233号,景点,博物馆,113.259839,23.12032
大唐画苑,广东,广州,广州,020,,北京路商业区,秉政街17号,景点,展览馆,113.274124,23.125362
黄埔军校同学会旧址,广东,广州,广州,020,,沿江路/二沙岛,珠光街道沿江中路239号,景点,历史建筑,113.271905,23.115324
广东省旅游集团公司,广东,广州,广州,020,86666889,火车站/人民北路,环市西路183号星和香江酒店3层,景点,旅行社,113.260354,23.147104
东方旅行社有限公司,广东,广州,广州,020,,沿江路/二沙岛,德政南路48号德政大厦3层303室,景点,旅行社,113.276366,23.117496
广东中旅,广东,广州,广州,020,83194068,中山六路,百灵路99-107号,景点,旅行社,113.259132,23.130592
大夫葵轩陈公祠,广东,广州,广州,020,,三元里,村前大街7号,景点,宗教,113.248323,23.163523
天马国际旅行社,广东,广州,广州,020,137****3750,北京路商业区,连新路8号（公园前地铁站I2出口）,景点,旅行社,113.263803,23.125093
先贤清真寺,广东,广州,广州,020,86692743,火车站/人民北路,环市西路204-1号,景点,宗教,113.260795,23.145589
广东羊城之旅,广东,广州,广州,020,83811333,北京路商业区,德政北路508号（农讲所地铁站D口步行380米）,景点,旅行社,113.274501,23.129581
康辉旅行社,广东,广州,广州,020,83394929,火车站/人民北路,越华路华林里60号之一四铺,景点,旅行社,113.256013,23.145253
兴中会坟场,广东,广州,广州,020,,环市东路/区庄,华乐街道先烈南路25号,景点,烈士陵园,113.292091,23.133398
大塘街秉正文化广场,广东,广州,广州,020,,北京路商业区,中山四路德意居（农讲所地铁站D口步行180米）,景点,公园/广场,113.274384,23.125732
越秀玉虚宫,广东,广州,广州,020,,火车站/人民北路,王圣堂大街98号（近王圣堂村大街）,景点,景点/周边游,113.247182,23.150681
康辉游踪,广东,广州,广州,020,88906903,中山六路,光塔路172号（西门口地铁站B口步行200米）,景点,旅行社,113.255718,23.123868
白云山旅行社,广东,广州,广州,020,83262558,北京路商业区,德政北路407号华兴大厦7楼718室,景点,旅行社,113.274646,23.128446
同心公园,广东,广州,广州,020,,天河公园/上社,棠东丰华街与龙门路交叉口北50米,景点,城市公园,113.38441,23.130669
兴华邨公园,广东,广州,广州,020,,沙河/天平架/梅花园,兴华直街31号（天平架地铁站A口步行350米）,景点,城市公园,113.324203,23.158663
车陂文化广场,广东,广州,广州,020,158****7951,车陂/东圃,车陂街道东圃大马路4号四季时尚荟,景点,公园/广场,113.40197,23.120058
刘氏家庙,广东,广州,广州,020,37234742,沙河/天平架/梅花园,广州大道中1430号之一,景点,宗教,113.314308,23.149668
铁青国际旅行社有限责任公司,广东,广州,广州,020,85550004;85552205,天河公园/上社,员村二横路9号首层（天河公园地铁站B口步行490米）,景点,旅行社,113.362579,23.120262
员村新村商业街,广东,广州,广州,020,,天河公园/上社,员村二横路铭成综合市场,景点,休闲街区,113.362556,23.120762
华南农业大学院士广场,广东,广州,广州,020,,燕岭/五山,五山路483号,景点,广场,113.35936,23.161041
文宣钟公祠,广东,广州,广州,020,,天河公园/上社,棠下北社大街9号,景点,宗教,113.382161,23.129487
钟氏宗祠,广东,广州,广州,020,,天河公园/上社,科新路8号,景点,宗教,113.380237,23.12293
丽人广场,广东,广州,广州,020,,兴盛路/跑马场,花城大道金碧华府内(潭村地铁站A口步行300米),景点,广场,113.342987,23.117029
车陂公园,广东,广州,广州,020,,车陂/东圃,车陂高地大街3号,景点,城市公园,113.395947,23.119887
蔡冠深博物馆,广东,广州,广州,020,,珠江新城,黄埔大道西601号暨南大学,景点,博物馆,113.346046,23.128069
金陵学生文化广场,广东,广州,广州,020,,石牌/百脑汇,黄埔大道西601号暨南大学,景点,公园/广场,113.347328,23.132536
科学城体育公园,广东,广州,广州,020,,科学城/萝岗高德汇,科翔路与开泰大道交叉口,景点,城市公园,113.44563,23.16823
南富钟公祠,广东,广州,广州,020,,天河公园/上社,员村南社南富大街11号,景点,宗教,113.356186,23.113935
逸夫人文馆,广东,广州,广州,020,,燕岭/五山,五山381号华南理工大学湖滨北路,景点,展览馆,113.34523,23.154642
龙洞步行街,广东,广州,广州,020,,龙洞/岑村,龙洞街道天源路龙洞又一城旁,景点,步行街,113.366011,23.1947
圣路济亚堂,广东,广州,广州,020,,龙洞/岑村,蓝屋北街,景点,宗教,113.391772,23.211861
港中旅国际旅行社,广东,广州,广州,020,87537644,中山六路,解放中路康乐里东南侧,景点,旅行社,113.262373,23.120606
晴川苏公祠,广东,广州,广州,020,,车陂/东圃,车陂祠前大街2-1号,景点,宗教,113.39547,23.119568
世界大观,广东,广州,广州,020,82373888,小新塘,奥体路11号,景点,人文古迹,113.419293,23.149332
银河烈士陵园烈士纪念馆,广东,广州,广州,020,87042522;87042135,燕岭/五山,燕岭路394号,景点,纪念馆,113.336319,23.162893
南方国际航空旅游,广东,广州,广州,020,,沙河/天平架/梅花园,先烈东路190号粤海凯旋大厦首层158-159号,景点,旅行社,113.305956,23.146062
岐山公园,广东,广州,广州,020,,车陂/东圃,岐山路岐山村,景点,文化公园,113.443627,23.136422
黎源光科学馆,广东,广州,广州,020,,沙河/天平架/梅花园,广州大道中1268号,景点,科技馆,113.315987,23.143055
天河冼星海纪念馆,广东,广州,广州,020,,沙河/天平架/梅花园,先烈东横路48号,景点,纪念馆,113.304558,23.149479
林氏大宗祠,广东,广州,广州,020,,兴盛路/跑马场,海月路猎德村复建房西侧约40米,景点,宗教,113.334156,23.114599
潘氏宗祠,广东,广州,广州,020,,石牌/龙口,潘祠大街3号,景点,宗教,113.33857,23.130001
时代商务会议中心,广东,广州,广州,020,,沙河/天平架/梅花园,广园东路2191-2197号时代新世界中心4层,景点,景点/周边游,113.317039,23.153946
同章简公祠,广东,广州,广州,020,,车陂/东圃,永泰市大街20-1号,景点,宗教,113.397052,23.119112
华光庙,广东,广州,广州,020,,兴盛路/跑马场,海月路6号,景点,宗教,113.33436,23.114131
抗日战争革命老区根据地长湴村旧址,广东,广州,广州,020,,龙洞/岑村,长湴南大街5号,景点,革命旧址,113.352813,23.170806
白象岭公园,广东,广州,广州,020,,江高镇,人和镇蚌湖庙企路,景点,城市公园,113.252632,23.278568
联升学社,广东,广州,广州,020,,太和镇,联升西路131号,景点,古代遗迹,113.356815,23.294364
龙岗公园,广东,广州,广州,020,,钟落潭,钟龙路68号,景点,公园/广场,113.384453,23.394035
马务公园,广东,广州,广州,020,,新市,渝龙街中段,景点,广场,113.257724,23.209147
马洞村公园,广东,广州,广州,020,,钟落潭,钟落潭镇三零七县道马洞村村民委员会附近,景点,文化公园,113.45533,23.362848
基督教江高堂,广东,广州,广州,020,,江高镇,圩爱国西路18号,景点,宗教,113.227376,23.269246
南浦村文化广场,广东,广州,广州,020,,白云区,南浦村文体广场（南浦西路北）,景点,公园/广场,113.175633,23.344874
柏塘中心公园,广东,广州,广州,020,,嘉禾/人和,草塘街21号,景点,城市公园,113.321263,23.300102
江高文化体育公园,广东,广州,广州,020,86603835,江高镇,河心街1号,景点,城市公园,113.231049,23.269982
新村公园,广东,广州,广州,020,,嘉禾/人和,华成路168号,景点,公园/广场,113.295094,23.346343
车陂郝家祠,广东,广州,广州,020,,车陂/东圃,车陂街道中山大道中85号,景点,宗教,113.3956,23.124984
白云玉虚宫,广东,广州,广州,020,,太和镇,大沥村13号,景点,景点/周边游,113.33345,23.308359
石井城市广场,广东,广州,广州,020,62699888,石井,石槎路3号,景点,公园/广场,113.242995,23.206285
鹤鸣公园,广东,广州,广州,020,,白云区,鹤北东街10号,景点,公园/广场,113.268165,23.219733
夏良高桥公园,广东,广州,广州,020,,龙归镇,良溪大街64号（龙归地铁站A口步行420米）,景点,城市公园,113.304006,23.290316
蚌湖公园,广东,广州,广州,020,,江高镇,江人路蚌湖段,景点,城市公园,113.260506,23.298606
黄石公园,广东,广州,广州,020,86467776,新市,黄石东路455号,景点,城市公园,113.279522,23.204447
张王庙,广东,广州,广州,020,,白云区,大田西路与大田南路交叉口东北80米,景点,宗教,113.199455,23.268605
国政周公祠,广东,广州,广州,020,,同德围,粤溪大街2号,景点,宗教,113.240403,23.165291
永兴公园,广东,广州,广州,020,,太和镇,龙兴中路132号附近,景点,城市公园,113.329324,23.264546
北帝古庙,广东,广州,广州,020,,嘉禾/人和,华榕中街43号,景点,宗教,113.30275,23.343577
夏良中心公园,广东,广州,广州,020,136****7285,龙归镇,龙归街道夏良路28号,景点,城市公园,113.306624,23.287277
八角古庙,广东,广州,广州,020,,龙归镇,南岭中路99号正北方向190米,景点,宗教,113.29613,23.27928
白云山风景区游客中心,广东,广州,广州,020,,麓湖公园,云山南路与金贵东街交叉口北180米,景点,公园/广场,113.295611,23.157231
世盛工业品展览中心,广东,广州,广州,020,86080649,白云区,机场高速2882号,景点,展览馆,113.263774,23.224921
农民工博物馆,广东,广州,广州,020,23326816,新市,黄园路33号国际单位创意园二期A8栋,景点,博物馆,113.265373,23.205976
招氏大宗祠,广东,广州,广州,020,,罗冲围/金沙洲,横沙大街8号,景点,宗教,113.214247,23.162427
巾帼公园,广东,广州,广州,020,,黄石,兵房街215号,景点,文化公园,113.263313,23.215148
同德文化广场,广东,广州,广州,020,36474227,同德围,山坊南街与西槎路交叉路口东南侧,景点,公园/广场,113.235985,23.169764
桃花湿地公园,广东,广州,广州,020,,嘉禾/人和,均禾大道清湖段,景点,公园/广场,113.271301,23.264872
环滘公园,广东,广州,广州,020,,石井,环滘大道公园前直街11号,景点,公园/广场,113.251189,23.218733
仙师宫,广东,广州,广州,020,,同和/京溪,蟾蜍石中街43号,景点,宗教,113.332881,23.191004
小塘文化广场,广东,广州,广州,020,,江高镇,小塘中心五街5号附近,景点,公园/广场,113.207013,23.276578
中国国际旅行社,广东,广州,广州,020,,同和/京溪,大道北白灰场南路1号,景点,旅行社,113.326087,23.185468
大田古迹文化公园,广东,广州,广州,020,,白云区,大田南街与大田西路交,景点,文化公园,113.199847,23.268073
唐阁北街洪圣古庙,广东,广州,广州,020,,均禾,唐阁街南,景点,宗教,113.241272,23.256952
白云周氏宗祠,广东,广州,广州,020,137****2098,太和镇,上圳街35号,景点,宗教,113.326751,23.268791
镇湖公园,广东,广州,广州,020,,嘉禾/人和,镇联街与蚌湖路交汇处,景点,城市公园,113.268318,23.297104
三泰公园西苑,广东,广州,广州,020,,广园新村,石榴桥路与松柏东街路口,景点,城市公园,113.266459,23.164973
御丰广场,广东,广州,广州,020,86298818,新市,鹤龙一路32号,景点,公园/广场,113.265715,23.210133
大岭森林公园,广东,广州,广州,020,86607050,白云区,大岭南路79号,景点,森林公园,113.200525,23.350349
松溪彭公祠,广东,广州,广州,020,,石井,亭石北路261号,景点,宗教,113.208051,23.216901
广外国际学术交流中心,广东,广州,广州,020,,白云大道沿线,白云大道北2号,景点,景点/周边游,113.288761,23.197871
长沙埔街洪圣古庙,广东,广州,广州,020,,钟落潭,长沙埔街5号,景点,宗教,113.411156,23.392008
十八涌,广东,广州,南沙区,020,,百万葵园/十九涌,298县道,景点,公园/广场,113.630465,22.614059
桃花涧,广东,广州,广州,020,37222222,白云区,白云大道1128号白云山明珠楼游览区,景点,自然风光,113.307351,23.191925
隅园,广东,广州,广州,020,,五羊新城,寺贝通津路44号,景点,人文古迹,113.300799,23.121459
和平国际旅行社,广东,广州,广州,020,139****1258,天河公园/上社,中山七路191号,景点,旅行社,113.362793,23.144533
广州南部假期国际旅行社,广东,广州,广州,020,36124438,五号停机坪,云霄路88号,景点,旅行社,113.263098,23.18171
九禾美术馆,广东,广州,广州,020,139****2694,江南大道沿线,昌岗中路信和广场西区二层（昌岗地铁站D口步行230米）,景点,美术馆,113.274384,23.089796
中国国旅（广东）国际旅行社股份有限公司,广东,广州,广州,020,22013200;22013266,中山六路,解放北路618号国旅大厦13楼01室,景点,旅行社,113.262356,23.128416
清远国旅,广东,广州,广州,020,84411907;84411747,江南西,江南西路西杏园小区27号,景点,旅行社,113.267208,23.095354
福胜庵,广东,广州,广州,020,,上下九商业区,福安街15-1号,景点,宗教,113.246895,23.112665
宁隐庵,广东,广州,广州,020,84395816,滨江路沿线,宁隐街2号（近同福中路）,景点,宗教,113.258223,23.100773
将军府,广东,广州,广州,020,,中山六路,六榕路,景点,历史建筑,113.260635,23.127939
广东花都湖国家湿地公园,广东,广州,广州,020,86817415,花都区,新华路104号,景点,自然风光,113.231809,23.377521
中国青年旅行社,广东,广州,广州,020,66632326;66639136,五羊新城,东山街道寺右新马路25号兴城大厦2804号地铁5号线五羊邨站D出口直走150米,景点,旅行社,113.308986,23.119879
广州民间金融博物馆,广东,广州,广州,020,,沿江路/二沙岛,长堤大马路268号（一德路地铁站A口步行490米）,景点,博物馆,113.260147,23.111538
广东粤侨国际旅行社有限公司,广东,广州,广州,020,84644882;84644887,市桥,德胜路42-44号,景点,旅行社,113.373795,22.937615
广东中妇旅国际旅行社,广东,广州,广州,020,38371703,市桥,番禺大道北1263号,景点,旅行社,113.385356,22.947106
丽景国旅,广东,广州,广州,020,130****2269,滨江路沿线,海联路33号,景点,旅行社,113.286811,23.101782
星宸国际旅行社,广东,广州,广州,020,138****4258,环市东路/区庄,麓苑路41号,景点,旅行社,113.285567,23.141387
蓝景旅行社,广东,广州,广州,020,158****7134,挂绿广场/泰富广场,荔城大道55号6楼,景点,旅行社,113.827431,23.292031
广东中旅,广东,广州,广州,020,131****1009,江南西,紫山大街1号之5,景点,旅行社,113.269226,23.094596
广州星宸国际旅行社,广东,广州,广州,020,136****7551,大学城,大学城外环西路（大学城中五路与大学城外环西路交叉口）,景点,旅行社,113.405698,23.035538
波楼,广东,广州,广州,020,,滨江路沿线,海天四望街42号（近洪德路）,景点,历史建筑,113.248535,23.103189
乐游旅游,广东,广州,广州,020,,钟落潭,钟升东一巷钟落潭综合市场南侧,景点,旅行社,113.406881,23.382881
康辉旅行社,广东,广州,广州,020,36602450,新市,汇侨路19号104档,景点,旅行社,113.259239,23.196392
广东环亚美容化妆品博物馆,广东,广州,广州,020,32098888;181****7803,科学城/萝岗高德汇,科学城南云一路18号,景点,博物馆,113.442881,23.156211
珠江夜游海心沙西区码头,广东,广州,广州,020,34377433;38063541,珠江新城,珠江新城临江大道海心沙亚运公园西区码头,景点,城市观光,113.323431,23.11044
微观旅游攻略网,广东,广州,广州,020,,中心城,荔红路158号201,景点,旅行社,113.508599,23.175499
广之旅,广东,广州,广州,020,36995638,花都广场/区政府,公益路怡康大厦D区01铺,景点,旅行社,113.217634,23.397204
广之旅国际旅行社,广东,广州,广州,020,32930128,凤凰城,凤凰城凤园174号,景点,旅行社,113.594001,23.136801
广州广之旅国际旅行社股份有限公司,广东,广州,广州,020,84444912,江南西,禺山大道7号自编A07-A08号,景点,旅行社,113.258142,23.091272
海心沙亚运公园,广东,广州,广州,020,38089668,花城汇/高德置地,临江大道海心沙地铁站旁,景点,公园/广场,113.32519,23.1113
康辉旅行社,广东,广州,广州,020,39991389,市桥,市桥捷进中路四号之三铺,景点,旅行社,113.359356,22.950876
日龙彩虹旅行社有限公司,广东,广州,广州,020,39990882;39990002,市桥,康乐路205号,景点,旅行社,113.353258,22.944542
粤侨国际旅行社有限公司,广东,广州,广州,020,86800381,花都广场/区政府,建侨路1号,景点,旅行社,113.218348,23.394903
中国国旅,广东,广州,广州,020,4006008888,工业大道沿线,淘金路163号（淘金商务大堂）,景点,旅行社,113.261971,23.091371
皇合假期,广东,广州,广州,020,37247839,永泰,同泰路南湖家属区独立1栋（近广州大道北）,景点,旅行社,113.312289,23.215819
优游旅行网,广东,广州,广州,020,37038198-638;4006999688,兴盛路/跑马场,华夏路26号雅居乐中心F23层,景点,旅行社,113.321861,23.124323
泰达旅行社,广东,广州,广州,020,29185338,广园新村,广园中路633号景泰商务大厦（近广园客运站）,景点,旅行社,113.281568,23.160561
白水寨风景名胜区,广东,广州,广州,020,82820098,白水寨/派潭,北山路74号,景点,自然风光,113.762111,23.592528
同德公园,广东,广州,广州,020,,同德围,田心西路,景点,城市公园,113.237862,23.159359
炳灵古庙,广东,广州,广州,020,,市桥,东大街34号,景点,宗教,113.379853,22.942303
抽水蓄能电厂旅游度假区,广东,广州,从化区,020,,从化区,吕田镇思泉路26号,景点,自然风光,113.958266,23.768884
迪吉大押旧址,广东,广州,广州,020,,上下九商业区,珠玑路49号（黄沙地铁站E口步行320米）,景点,历史建筑,113.243378,23.110002
东山浸信会旧址,广东,广州,广州,020,,中山二三路/东山口,寺贝通津7号,景点,古代遗迹,113.297134,23.122356
复我祠,广东,广州,广州,020,,市桥,东大街35号,景点,宗教,113.379934,22.942214
广交会旧址,广东,广州,广州,020,,北京路商业区,人民街道起义路1号海印缤缤广场（近海珠广场）,景点,历史建筑,113.264938,23.115458
九世卫祖祠,广东,广州,广州,020,,市桥,捷进西路4号,景点,宗教,113.351746,22.948516
邝光慈故居,广东,广州,广州,020,,芳村,聚龙村民居2号,景点,名人故居,113.241014,23.088204
邝明觉旧居,广东,广州,广州,020,,芳村,聚龙村1号,景点,名人故居,113.241168,23.088202
逵园艺术馆,广东,广州,广州,020,87659746,中山二三路/东山口,恤孤院路9号,景点,美术馆,113.296451,23.119175
汀沙二大街刘氏宗祠,广东,广州,广州,020,,市桥,二大街57号（市桥地铁站D口步行450米）,景点,宗教,113.365198,22.948829
文翘李公祠,广东,广州,广州,020,158****2123,天河公园/上社,龙门大街86号,景点,宗教,113.384917,23.130557
中共第一支部成立旧址,广东,广州,广州,020,,北京路商业区,素波巷30号（海珠广场地铁站E口步行350米）,景点,历史建筑,113.265422,23.117496
青年军人联合会旧址,广东,广州,广州,020,,沿江路/二沙岛,沿江中路239号,景点,革命旧址,113.271922,23.115262
中华书局分局旧址,广东,广州,广州,020,83306987,北京路商业区,北京路314号（公园前地铁站出入口步行440米）,景点,古代遗迹,113.26899,23.124817
M3创意园,广东,广州,广州,020,,嘉禾/人和,鹤龙街道尖彭路南面2号,景点,创意园区,113.284073,23.22546
地震科普教育馆,广东,广州,广州,020,87688835,环市东路/区庄,先烈中路81号大院-1号,景点,科技馆,113.297356,23.139517
雕塑院,广东,广州,广州,020,83559672,东风中路/越秀公园,越秀北路210号,景点,美术馆,113.276908,23.132314
世界纺织博览中心,广东,广州,广州,020,,新港西路沿线,珠江梭织大厦5层,景点,展览馆,113.301534,23.084266
樟园创意产业园,广东,广州,广州,020,39999989,市桥,扶风大街潮联商务中心南侧约40米,景点,植物园,113.358201,22.952951
荔湾梁氏宗祠,广东,广州,广州,020,34046520,上下九商业区,梁家祠街34-1号,景点,宗教,113.237473,23.121777
白云湖水上乐园1号码头,广东,广州,广州,020,186****2903,石井,石井大道白云湖水上乐园码头（摩天轮对面）,景点,水上乐园,113.239337,23.228439
名聚商旅,广东,广州,广州,020,87690052,天河公园/上社,棠下荷光路第二工业区2号,景点,旅行社,113.361176,23.124729
鸡枕山,广东,广州,从化区,020,,良口镇,良口镇105国道,景点,自然风光,113.806981,23.757581
黄牛山,广东,广州,从化区,020,,良口镇,287县道西50米,景点,自然风光,113.765984,23.767691
鹿湖山,广东,广州,从化区,020,,良口镇,651乡道与G45大广高速交叉口东100米,景点,自然风光,113.766983,23.782194
西铁塔,广东,广州,广州,020,,中山六路,光孝路109号光孝寺（西北角）,景点,历史建筑,113.255934,23.129736
广佛数字创意园,广东,广州,广州,020,186****5155,芳村,东漖街道龙溪东路1号,景点,创意园区,113.220126,23.079875
城市公园,广东,广州,广州,020,,大学城,大学城西四路附近,景点,公园/广场,113.383272,23.047332
金兰文化广场,广东,广州,广州,020,,芳村,剑兰街4号,景点,广场,113.223309,23.082728
临江带状公园,广东,广州,广州,020,83825643,花城汇/高德置地,珠江新城临江大道263号,景点,城市公园,113.339443,23.111649
珠江琶醍啤酒文化创意艺术区,广东,广州,广州,020,84060333,琶洲,阅江西路磨碟沙大街118号,景点,创意园区,113.340423,23.106697
雁塔公园,广东,广州,广州,020,,荔城,"雁塔大桥旁边增江河畔,广汕公路旁",景点,城市公园,113.825849,23.274263
珍惜植物园,广东,广州,从化区,020,,良口镇,流溪河国家森林公园西侧约210米,景点,植物园,113.769003,23.757703
北溪会公祠,广东,广州,广州,020,,市桥,白沙堡村大街5号,景点,宗教,113.36592,22.953384
邓氏宗祠,广东,广州,广州,020,,来又来/大润发,碧秀路鑫源公寓8栋,景点,宗教,113.230127,23.394887
德山公祠,广东,广州,广州,020,,花都体育馆/花果山公园,田美田东拾一街田美市场南侧,景点,宗教,113.225645,23.391713
花都杜氏宗祠,广东,广州,广州,020,,来又来/大润发,大松园一巷11号,景点,宗教,113.230835,23.392935
东征阵亡烈士纪念坊,广东,广州,广州,020,82202278,长洲岛,长洲岛黄埔造船厂2号门岗,景点,烈士陵园,113.417029,23.083815
番禺杜氏宗祠,广东,广州,广州,020,,市桥,德兴北路华怡居北侧约230米,景点,宗教,113.378185,22.949879
关氏五世祠,广东,广州,广州,020,,市桥,上关大街星海公园北侧约90米,景点,宗教,113.370773,22.945353
官福吴公祠,广东,广州,从化区,020,,江埔,环市东路323号,景点,宗教,113.609062,23.536269
增城观音庙,广东,广州,广州,020,,开发区东区,新墩村新墩路95号,景点,宗教,113.559041,23.110021
越秀何氏大宗祠,广东,广州,广州,020,,火车站/人民北路,矿泉街道三元里大道棠溪祥岗大街,景点,宗教,113.248362,23.150582
华叟黄公祠,广东,广州,广州,020,,沙埔镇,黄屋街2号,景点,宗教,113.64995,23.15465
华田神庙,广东,广州,广州,020,,增城区,龙眼坣路2号,景点,宗教,113.646173,23.159293
华佗庙,广东,广州,广州,020,,开发区东区,丹水坑路1111号,景点,宗教,113.523861,23.107691
金花庙,广东,广州,广州,020,,开发区东区,丹水坑路丹水坑风景旅游区内,景点,宗教,113.521981,23.106491
白云梁氏大宗祠,广东,广州,广州,020,,机场路沿线,棠景街道岗贝路南二巷4号,景点,宗教,113.253689,23.179667
挪威支柱教堂,广东,广州,广州,020,,科学城/萝岗高德汇,东圃大观南路888号,景点,宗教,113.419997,23.148503
沙圩陈尚书祠,广东,广州,广州,020,,市桥,平康路268号,景点,宗教,113.378227,22.941869
泉源林公祠,广东,广州,广州,020,,新港西路沿线,迎祥大街6号,景点,宗教,113.293496,23.08466
同寅医院旧址,广东,广州,广州,020,,滨江路沿线,同福西路166号（同福西地铁站A口步行170米）,景点,历史建筑,113.252811,23.102441
吴氏大宗祠,广东,广州,广州,020,,沙埔镇,石新路（沙埔福利市场南侧约50米）,景点,宗教,113.664939,23.163257
仙姑庙,广东,广州,从化区,020,,良口镇,香雪大街1号,景点,宗教,113.772987,23.748795
颜氏大宗祠,广东,广州,广州,020,,机场路沿线,棠下西街,景点,宗教,113.251376,23.173786
于祯公祠,广东,广州,广州,020,,花都区,毕村牌坊大街毕村市场西侧约130米,景点,宗教,113.176753,23.388289
圆通寺,广东,广州,从化区,020,135****9093,江埔,七星西路红荔新村南侧约50米,景点,宗教,113.595865,23.540888
登峰街城中村历史微博馆,广东,广州,广州,020,,麓湖公园,麓景路121号附近,景点,博物馆,113.278542,23.145432
东征史迹陈列室,广东,广州,广州,020,,长洲岛,思亭路长洲岛,景点,陈列馆,113.417343,23.083641
工人运动历史陈列馆,广东,广州,广州,020,,滨江路沿线,滨江西路232号,景点,陈列馆,113.264128,23.110118
广州市城市规划展览中心,广东,广州,广州,020,83520680,白云大道沿线,展览路1号,景点,展览馆,113.277644,23.191381
翰林斋美术馆,广东,广州,广州,020,,环市东路/区庄,水荫路113号十九路军淞沪抗日阵亡将士陵园内,景点,美术馆,113.310638,23.144697
航天科学馆,广东,广州,广州,020,,小新塘,大观公园路广州思源学校小学部东北侧约120米,景点,科技馆,113.40995,23.148415
鹤展创意园,广东,广州,广州,020,,芳村,鹤翔路10号,景点,创意园区,113.246869,23.079242
巨大创意产业园,广东,广州,广州,020,39236333,番禺区,大石街道大石街石北工业大道644号,景点,创意园区,113.286466,23.015414
大石新兴广场,广东,广州,广州,020,34793728,大石,一零五国道大石段740号,景点,广场,113.308749,23.010487
桥中商业第一街,广东,广州,广州,020,,坦尾/河沙,桥中南路48-52号,景点,步行街,113.221479,23.121379
普公汉代陶瓷博物馆,广东,广州,广州,020,,沿江路/二沙岛,珠光街德政南路51-55号5楼八旗博物馆,景点,博物馆,113.27562,23.117382
八旗博物馆,广东,广州,广州,020,,沿江路/二沙岛,珠光街德政南路51-55号5楼,景点,博物馆,113.275467,23.117434
3D魔幻艺术巡展,广东,广州,广州,020,,市桥,市桥光明北路雅居乐鸿禧广场4楼（市桥地铁站a出口，往前走50米，百佳超市楼上）,景点,展览馆,113.361777,22.952336
帷幕开啦（广州塔）蜡像馆,广东,广州,广州,020,31951019,客村/赤岗,阅江西路222号广州塔东登塔口旁,景点,蜡像馆,113.325464,23.106671
王老吉凉茶博物馆,广东,广州,广州,020,66282302,同和/京溪,沙太北路389号神农草堂,景点,博物馆,113.336586,23.199438
驴妈妈旅游网,广东,广州,广州,020,83931688;83931388,环市东路/区庄,东风中路363号国信大厦3503室,景点,旅行社,113.270076,23.131526
柏塘一社公园,广东,广州,广州,020,,嘉禾/人和,柏塘一路9号附近,景点,城市公园,113.30653,23.299101
傍东公园,广东,广州,广州,020,,石碁,傍新路,景点,城市公园,113.405224,22.951125
北联村公园,广东,广州,广州,020,,大石,新联路84号,景点,城市公园,113.307772,23.026809
蔡三村体育公园,广东,广州,广州,020,,番禺区,蔡三村杠木坊大街6号对面,景点,城市公园,113.377432,22.967612
茶工艺品街,广东,广州,广州,020,,芳村,洞企石路宏天楼南侧约180米,景点,步行街,113.222403,23.100243
陈子壮纪念馆,广东,广州,广州,020,,罗冲围/金沙洲,中元里大街38号,景点,纪念馆,113.206431,23.152751
赤山公园,广东,广州,广州,020,,石楼,石楼镇鸡公桥大道,景点,公园/广场,113.481552,22.970992
大佛寺佛世山庄,广东,广州,广州,020,,同和/京溪,沙太北路603号,景点,宗教,113.339358,23.200595
大岗公园,广东,广州,广州,020,,大石,河村东路河村小学西南侧,景点,城市公园,113.332171,23.013301
读岗公园,广东,广州,广州,020,,新塘,沙园街25号,景点,文化公园,113.620853,23.108303
芙蓉桃花水母自然保护区,广东,广州,广州,020,86853355,花都区,狮岭镇776乡道西150米,景点,自然风光,113.223065,23.529521
广州起义纪念馆,广东,广州,广州,020,83341321,北京路商业区,起义路200-1号,景点,纪念馆,113.264244,23.12426
庚戌新军烈士墓,广东,广州,广州,020,,环市东路/区庄,先烈中路浙江大厦附近（黄花岗地铁站B口步行330米）,景点,烈士陵园,113.300412,23.142642
江坳公园,广东,广州,广州,020,,增城区,增派公路,景点,文化公园,113.819924,23.393004
禁毒教育馆,广东,广州,广州,020,81209026,中山七八路,龙津西路148号,景点,科技馆,113.237953,23.122026
九王庙公园,广东,广州,南沙区,020,,南沙区,南沙街道凤凰大道1号,景点,城市公园,113.592117,22.771591
坑头村生态公园,广东,广州,广州,020,,番禺区,南村镇西和路与南约街交汇处,景点,城市公园,113.400357,22.984458
塘美荔枝公园,广东,广州,广州,020,,新塘,塘美东路33号,景点,城市公园,113.636072,23.149731
岭南工艺美术馆,广东,广州,广州,020,83809943,沿江路/二沙岛,署前路8路越秀图书馆首层岭南九遗艺术中心,景点,美术馆,113.295423,23.122853
毛主席视察棠下纪念馆,广东,广州,广州,020,85653425,天河公园/上社,棠下达善大街27号,景点,纪念馆,113.380566,23.127555
明德公园,广东,广州,南沙区,020,,珠江旧镇,塘坑中街与前进街交汇路口（塘坑地铁站C口步行420米）,景点,城市公园,113.571564,22.754381
南岗山公园,广东,广州,广州,020,,生活区/南岗,黄埔东路3731号南岗街道办附近,景点,城市公园,113.538986,23.098764
南郊公园,广东,广州,广州,020,84823304,市桥南,市桥街,景点,城市公园,113.365172,22.930544
七仙湖公园,广东,广州,广州,020,,白水寨/派潭,白水寨风景区以北,景点,公园/广场,113.767296,23.604786
亲水公园,广东,广州,广州,020,,琶洲,琶洲街道阅江中路会展中心北侧,景点,城市公园,113.36958,23.104742
庆丰公园,广东,广州,广州,020,,石井,庆丰花园街1号,景点,公园/广场,113.225601,23.211553
庆丰九龙公园,广东,广州,广州,020,,石井,庆丰三路,景点,城市公园,113.219908,23.21393
仁德公园,广东,广州,广州,020,,石碁,高田直街7号,景点,公园/广场,113.429923,22.961256
山西村公园,广东,广州,广州,020,,大石,岗西路与元塘路交界处,景点,公园/广场,113.305195,23.018105
十万大山,广东,广州,广州,020,138****8028,花都区,花卉综合批发市场D34-35档,景点,自然景观,113.2145,23.44735
石基公园,广东,广州,南沙区,020,,东涌镇,石基大道与石基大道西一街交叉口西北240米,景点,城市公园,113.425364,22.897123
石三公园,广东,广州,广州,020,,广州南站,华佗路附近,景点,城市公园,113.263878,23.000338
双桥公园,广东,广州,广州,020,81762274,坦尾/河沙,中国广东省广州市荔湾区坦尾路1号（坦尾地铁站I口步行160米）,景点,公园/广场,113.218469,23.124008
水月公园,广东,广州,广州,020,,白水寨/派潭,派潭镇二九二县道高陂头桥以北,景点,城市公园,113.792427,23.507133
丝织行业博物馆,广东,广州,广州,020,,上下九商业区,康王南路289号,景点,博物馆,113.247244,23.116464
塘贝公园,广东,广州,广州,020,,江高镇,塘贝西路120号,景点,城市公园,113.233778,23.300318
塘边公园,广东,广州,广州,020,,沙埔镇,X291与新基街交叉口东南方向110米,景点,城市公园,113.66797,23.163771
塘坑天后古庙,广东,广州,南沙区,020,,珠江旧镇,塘坑中街29号（塘坑地铁站D口步行400米）,景点,宗教,113.571396,22.754581
天鸿时装广场,广东,广州,广州,020,189****1779,长隆/南村,南华路2号4栋,景点,公园/广场,113.389303,23.005809
文联艺术馆,广东,广州,广州,020,82768268,新塘,府前路32号,景点,美术馆,113.620081,23.116471
西堤休闲公园,广东,广州,广州,020,,荔城,相江北路与廖村新村路交叉口南行200米路东,景点,城市公园,113.841914,23.305961
西福河公园,广东,广州,广州,020,,增城区,324国道与290县道交叉口以西,景点,公园/广场,113.660776,23.278876
新河浦文化艺术馆,广东,广州,广州,020,,越秀区,东山街道恤孤院路26-28号,景点,美术馆,113.295958,23.117471
新垦文体公园,广东,广州,南沙区,020,,百万葵园/十九涌,康华路与红海新街交叉口东80米,景点,城市公园,113.608719,22.646231
新兴公园,广东,广州,南沙区,020,,南沙区,横沥中学附近,景点,城市公园,113.480933,22.734794
鸦湖公园,广东,广州,广州,020,,嘉禾/人和,江人三路1038号,景点,城市公园,113.296453,23.324167
雁洲公园,广东,广州,广州,020,,石碁,雁洲村委会旁,景点,城市公园,113.421993,22.925195
易圆,广东,广州,广州,020,,麓湖公园,广园东路金鸡岭3号A1室,景点,景点/周边游,113.299319,23.153959
盈园,广东,广州,广州,020,82853622,朱村镇,朱村大道东255号,景点,城市公园,113.743813,23.272901
油画艺术展览中心,广东,广州,广州,020,,中山六路,文德路小学正门东北侧约80米,景点,展览馆,113.271614,23.124327
元岗公园,广东,广州,广州,020,,天河客运站,元岗街4号,景点,城市公园,113.343642,23.175878
增城周氏宗祠,广东,广州,广州,020,82840889,增城区,石街路小楼人家,景点,宗教,113.810907,23.421462
紫霞山庄,广东,广州,广州,020,86851801,花都区,梯面镇五联村,景点,宗教,113.324796,23.580045
美橙国际旅行社,广东,广州,广州,020,38784909,天河公园/上社,中山大道西路215号加业商务中心A208A（天河公园）,景点,旅行社,113.368439,23.132435
蓝途旅行社,广东,广州,广州,020,38889932,石牌/龙口,天河路490号壬丰大厦西厅1312室（近石牌桥站）,景点,旅行社,113.334976,23.133114
西塱裕安围革命尧区纪念馆,广东,广州,广州,020,,荔湾区,裕安路44号,景点,纪念馆,113.228574,23.060891
游澳假期,广东,广州,广州,020,84414152,江南大道沿线,江南大道中穗花新村二巷1号女青年会大楼509室,景点,旅行社,113.275579,23.094532
