名称,省份,真实城市,市县区,区号,电话,区域,地址,大分类,小分类,经度,纬度
中国地质大学逸夫博物馆,湖北,武汉,武汉,027,67848584,光谷/鲁巷,关山街道鲁磨路338号中国地质大学,景点,博物馆,114.400475,30.517567
八路军武汉办事处旧址纪念馆,湖北,武汉,武汉,027,82735576,解放公园/武汉天地,汉口长春街57号（近武汉天地）,景点,纪念馆,114.309424,30.606181
武汉二七纪念馆,湖北,武汉,武汉,027,82934390,百步亭/二七,解放大道2499号（徐州新村地铁站B口步行450米）,景点,纪念馆,114.324158,30.634832
八七会议会址纪念馆,湖北,武汉,武汉,027,82835088,客运港/江滩,一元街道鄱阳街139号,景点,纪念馆,114.299934,30.586643
武汉博物馆,湖北,武汉,武汉,027,85601377;85601720,汉口火车站,汉口青年路373号,景点,博物馆,114.256445,30.611431
国民政府旧址纪念馆,湖北,武汉,武汉,027,85663790,江汉路步行街,中山大道708号3层（六渡桥地铁站B口步行240米）,景点,纪念馆,114.286736,30.575817
湖北省博物馆,湖北,武汉,武汉,027,86790329;86794127,岳家嘴/东亭,东湖路160号,景点,博物馆,114.365494,30.561556
中共五大会址纪念馆,湖北,武汉,武汉,027,88850322,司门口,都府堤20号,景点,纪念馆,114.298454,30.550938
汉阳莲花湖公园,湖北,武汉,武汉,027,,汉阳大道,建桥街道汉阳大道2号,景点,公园/广场,114.278415,30.55092
宝岛公园,湖北,武汉,武汉,027,,港澳台风情街,台北二路82号附近,景点,公园/广场,114.284317,30.59783
解放公园,湖北,武汉,武汉,027,82421760,解放公园/武汉天地,解放大道1861号,景点,公园/广场,114.298748,30.608265
武汉江滩人民乐园,湖北,武汉,武汉,027,82774567,客运港/江滩,沿江大道江汉门（武汉科技馆旁）,景点,广场,114.316274,30.606647
常青公园,湖北,武汉,武汉,027,,常青花园,常青路149号旁（近常青人才公园中央商业街）,景点,公园/广场,114.238325,30.619706
堤角公园,湖北,武汉,武汉,027,82306102,新荣/堤角,解放大道2060号（近轻轨1号线堤角站）,景点,公园/广场,114.338486,30.661633
中山公园,湖北,武汉,武汉,027,85607776;85807312,万松园,解放大道1265号（武汉协和医院武广武展地铁2号线）,景点,城市公园,114.271516,30.586831
硚口公园,湖北,武汉,武汉,027,83785398,硚口路,中山大道45号,景点,公园/广场,114.256912,30.570408
白玉公园,湖北,武汉,武汉,027,86414464,武钢厂区/武东,青化路附近,景点,公园/广场,114.49048,30.598805
南干渠游园,湖北,武汉,武汉,027,,八大家/红钢城,工业一路与随州街交叉口东北150米,景点,城市公园,114.396594,30.626011
青山公园,湖北,武汉,武汉,027,86863048,八大家/红钢城,和平大道1546号,景点,公园/广场,114.408028,30.638607
武汉东湖海洋世界,湖北,武汉,武汉,027,86772929,东湖风景区,沿湖大道20号,景点,海洋馆,114.379604,30.574128
九峰森林动物园,湖北,武汉,武汉,027,87639013;87639763,光谷/东湖高新区,九峰狮子峰特1号,景点,动物园,114.492523,30.500324
武昌江滩,湖北,武汉,武汉,027,88603989,余家头/四美塘,徐家棚街道临江大道,景点,广场,114.323151,30.588381
首义园小吃街,湖北,武汉,武汉,027,,首义汇/阅马场,彭刘杨路245号（彭刘杨地铁站A口步行340米）,景点,步行街,114.304006,30.539026
东湖吹笛景区,湖北,武汉,武汉,027,87804351,光谷/鲁巷,马鞍山森林公园南大门,景点,森林公园,114.446877,30.519598
洪山公园,湖北,武汉,武汉,027,87892480,中南路/洪山广场,武珞路509号,景点,公园/广场,114.344063,30.534077
首义公园,湖北,武汉,武汉,027,,中南路/洪山广场,武珞路47号,景点,公园/广场,114.31318,30.541892
东湖飞鸟世界,湖北,武汉,武汉,027,86772929,岳家嘴/东亭,沿湖大道20号（梨园广场左侧）,景点,动物园,114.376465,30.574085
龙泉山生态园,湖北,武汉,武汉,027,,东西湖区,流芳镇北麓三汊港,景点,动植物园,113.955558,30.741592
汤湖公园,湖北,武汉,武汉,027,157****5739,沌口,兴华路1号,景点,公园/广场,114.165359,30.466997
杨柳堤江滩公园,湖北,武汉,武汉,027,,蔡甸城区,蔡江路25号,景点,公园/广场,114.033028,30.590208
晴川阁,湖北,武汉,武汉,027,84710887,琴台,洗马长街86号,景点,人文古迹,114.28479,30.55555
归元禅寺,湖北,武汉,武汉,027,84844756,钟家村,建桥街道归元寺路20号,景点,宗教,114.259055,30.545249
龟山风景区,湖北,武汉,武汉,027,84713530,钟家村,龟山北路5号,景点,自然风光,114.275169,30.555061
墨水湖,湖北,武汉,武汉,027,,汉阳大道,武汉动物园旁,景点,自然风光,114.215335,30.549112
月湖风景区,湖北,武汉,武汉,027,,汉阳大道,琴台大道200号,景点,自然风光,114.257767,30.557165
卓刀泉寺,湖北,武汉,武汉,027,87521752,卓刀泉/虎泉,卓刀泉路27号,景点,宗教,114.368851,30.516356
詹天佑故居博物馆,湖北,武汉,武汉,027,82844493,客运港/江滩,汉口洞庭街65号,景点,博物馆,114.299426,30.585206
古德寺,湖北,武汉,武汉,027,82907553,解放公园/武汉天地,黄浦大街工农兵路74号,景点,宗教,114.307424,30.618716
汉口辛亥首义烈士陵园,湖北,武汉,武汉,027,82410639,港澳台风情街,汉口球场路2号,景点,烈士陵园,114.294342,30.597483
宋庆龄汉口旧居纪念馆,湖北,武汉,武汉,027,82296617,客运港/江滩,沿江大道162号,景点,名人故居,114.302329,30.586508
京汉铁路总工会旧址,湖北,武汉,武汉,027,82901914,百步亭/二七,解放大道2185号,景点,古代遗迹,114.3178,30.624474
长春观,湖北,武汉,武汉,027,88842090,石牌岭/街道口,首义路街道武珞路269号（近武昌大东门),景点,宗教,114.320824,30.54022
九女墩,湖北,武汉,武汉,027,86773706,东湖风景区,东湖路特1号东湖风景区内,景点,人文古迹,114.383022,30.581041
毛泽东同志旧居,湖北,武汉,武汉,027,88850322,司门口,都府堤路41号,景点,名人故居,114.299294,30.551012
中共中央农民运动讲习所旧址,湖北,武汉,武汉,027,88850322,司门口,红巷30号,景点,纪念地,114.30027,30.553591
洪山宝塔,湖北,武汉,武汉,027,84843543,中南路/洪山广场,武珞路549号宝通禅寺,景点,历史建筑,114.341759,30.533569
施洋烈士陵园,湖北,武汉,武汉,027,87641163,中南路/洪山广场,武珞路509号,景点,烈士陵园,114.336868,30.532694
中央军事政治学校旧址,湖北,武汉,武汉,027,,首义汇/阅马场,解放路259号（原两湖书院内）,景点,古代遗迹,114.296631,30.539671
黄鹤楼,湖北,武汉,武汉,027,88875096,首义汇/阅马场,西山坡特1号,景点,历史建筑,114.302568,30.54462
放鹰台遗址,湖北,武汉,武汉,027,,水果湖,白鹭街与天鹅路交叉处往南约100米,景点,古代遗迹,114.353699,30.548389
宝通禅寺,湖北,武汉,武汉,027,87884539,中南路/洪山广场,武珞路549号,景点,宗教,114.340958,30.532158
杨春湖,湖北,武汉,武汉,027,,八大家/红钢城,杨春湖路,景点,自然风光,114.418094,30.613764
凤凰山,湖北,武汉,武汉,027,,纸坊,中山路,景点,自然风光,114.291425,30.368601
木兰山古建筑群,湖北,武汉,武汉,027,,黄陂区,长轩岭镇木兰山古建筑群,景点,历史建筑,114.382188,31.109024
盘龙城国家考古遗址公园,湖北,武汉,武汉,027,61915773;61915876,盘龙城,盘龙大道特1号,景点,古代遗迹,114.271957,30.697405
黄狮海,湖北,武汉,武汉,027,,吴家山,黄狮海南路融创观澜府北侧约40米,景点,自然风光,114.151824,30.638824
马投潭遗址,湖北,武汉,武汉,027,,吴家山,三店西路22号东西湖区,景点,古代遗迹,114.126287,30.635907
后官湖国家湿地公园,湖北,武汉,武汉,027,69606288;69112210,蔡甸周边,中法武汉生态示范城五贤南路58号,景点,公园/广场,114.06855,30.545523
金银湖国家城市湿地公园,湖北,武汉,武汉,027,,金银湖,金山大道,景点,公园/广场,114.18734,30.641491
龙阳湖,湖北,武汉,武汉,027,,汉阳大道,仙女山路与墨北西延线交叉口南侧,景点,自然风光,114.192447,30.555663
三角湖,湖北,武汉,武汉,027,,沌口,南苑路江汉大学,景点,自然风光,114.166046,30.510618
设法山,湖北,武汉,武汉,027,,沌口,（近沉湖）,景点,自然风光,114.127603,30.413493
太渔山,湖北,武汉,武汉,027,,光谷/鲁巷,鲁巷西都陈附近,景点,自然风光,114.451951,30.524341
水果湖,湖北,武汉,武汉,027,,水果湖,水果湖街道武昌白鹭街,景点,更多景点/周边游,114.348793,30.551199
陈友谅墓,湖北,武汉,武汉,027,,首义汇/阅马场,长江大桥武昌桥头引桥南坡下,景点,古代遗迹,114.295654,30.5455
龙泉山风景区,湖北,武汉,武汉,027,81620543,梁子湖风景区,东湖高新技术开发区,景点,自然风光,114.518349,30.409098
武汉国际会展中心,湖北,武汉,武汉,027,85816005,武展商圈,解放大道696号(艳阳天酒家幸福殿堂店),景点,展览馆,114.273577,30.580299
新华旅行社,湖北,武汉,武汉,027,82280609,客运港/江滩,黄兴路35号,景点,旅行社,114.297163,30.590325
武汉康泰旅行社,湖北,武汉,武汉,027,82742286,解放公园/武汉天地,三阳路130号三阳广场B座1001室,景点,旅行社,114.300745,30.599415
木兰天池景区,湖北,武汉,武汉,027,61518923;61518926,黄陂区,石门镇012县道,景点,自然风光,114.27227,31.17614
湖北美术馆,湖北,武汉,武汉,027,86796067;86796062,水果湖,东湖路三官殿1号,景点,美术馆,114.365509,30.563979
保成路夜市,湖北,武汉,武汉,027,,江汉路步行街,大智街道保成路与江汉二路交叉口西北50米,景点,夜市,114.290105,30.583295
四美塘公园,湖北,武汉,武汉,027,,徐东大街,和平大道589号（长江二桥下）,景点,公园/广场,114.336543,30.595498
凤翔岛度假村,湖北,武汉,武汉,027,86750170;130****9587,沌口,101省道世茂龙湾南侧,景点,景点/周边游,114.085276,30.477806
东湖落雁景区,湖北,武汉,武汉,027,86430007,东湖风景区,青王路409号,景点,自然风光,114.430103,30.563
洪山广场,湖北,武汉,武汉,027,87841463,水果湖,水果湖街办事处中北路特1号,景点,广场,114.337072,30.545057
武昌基督教武昌堂,湖北,武汉,武汉,027,88877807,司门口,民主路221号,景点,宗教,114.303246,30.545803
救世堂,湖北,武汉,武汉,027,,武胜路,汉正街447号,景点,宗教,114.267029,30.565428
感恩堂,湖北,武汉,武汉,027,,司门口,胭脂路120号,景点,宗教,114.307704,30.546443
崇真堂,湖北,武汉,武汉,027,88876559,和平大道积玉桥,昙华林2号（昙华林武胜门地铁站A口步行310米）,景点,景点/周边游,114.306152,30.552744
青山堂,湖北,武汉,武汉,027,86304001,八大家/红钢城,沿港路25号,景点,宗教,114.407291,30.633199
世界城光谷步行街,湖北,武汉,武汉,027,87803088,光谷/鲁巷,东湖新技术开发区珞喻路726号,景点,步行街,114.402336,30.505302
大禹神话园,湖北,武汉,武汉,027,,琴台,滨江大道江滩19号,景点,更多景点/周边游,114.285454,30.555822
清凉寨景区,湖北,武汉,武汉,027,61539008;61539009,黄陂区,蔡店街,景点,自然风光,114.217812,31.295172
武汉长江大桥,湖北,武汉,武汉,027,,武昌区,晴川街道临江大道与龟山南路交叉口西北侧,景点,更多景点/周边游,114.29313,30.547208
喻家山,湖北,武汉,武汉,027,,光谷/鲁巷,华中科技大学西二区,景点,自然风光,114.416277,30.521551
铁门关,湖北,武汉,武汉,027,84710413,鹦鹉大道,晴川大道5-6号,景点,人文古迹,114.284279,30.556343
西北湖绿化广场,湖北,武汉,武汉,027,85748936,西北湖,建设大道705号北湖站,景点,广场,114.267968,30.596279
中国武钢博物馆,湖北,武汉,武汉,027,86805808,八大家/红钢城,冶金大道30号,景点,博物馆,114.405579,30.630047
小南湖公园,湖北,武汉,武汉,027,85771781,港澳台风情街,台北一路68号,景点,公园/广场,114.277885,30.591702
水果湖儿童公园,湖北,武汉,武汉,027,87233943,水果湖,水果湖横路30号,景点,游乐场,114.345016,30.546637
江汉路步行街,湖北,武汉,武汉,027,159****9918,江汉路步行街,水塔街街道江汉路步行街（近中山大道）,景点,步行街,114.289972,30.579294
武汉栖隐寺,湖北,武汉,武汉,027,,六渡桥/汉正街,勤劳一街39号,景点,宗教,114.283707,30.571148
湖北美术学院美术馆,湖北,武汉,武汉,027,86796067;86796062,大东门/小东门,中山路368号湖北省美术院内,景点,美术馆,114.317261,30.54948
湖北地质博物馆,湖北,武汉,武汉,027,85833247,武胜路,利济北路250附4号（利济北路地铁站D口步行460米）,景点,博物馆,114.267555,30.57925
江汉关博物馆,湖北,武汉,武汉,027,82880866,客运港/江滩,沿江大道129号,景点,博物馆,114.297455,30.576097
大孚银行旧址,湖北,武汉,武汉,027,,江汉路步行街,中山大道934号,景点,古代遗迹,114.293053,30.583067
大众之旅国际旅行社,湖北,武汉,武汉,027,82777755,客运港/江滩,一元街道沿江大道174号（江边粤汉码头对面）,景点,旅行社,114.302195,30.589501
汉水公园,湖北,武汉,武汉,027,84867295,王家湾,郭茨口394号,景点,公园/广场,114.214813,30.575289
龙王庙公园,湖北,武汉,武汉,027,85360503,六渡桥/汉正街,大兴路78号,景点,公园/广场,114.291381,30.567104
武汉达临性学生命文化博物馆,湖北,武汉,武汉,027,83605116;133****1588,司门口,红巷路37号博物馆群E区401室,景点,博物馆,114.299095,30.553747
木兰云雾山,湖北,武汉,武汉,027,61661366;61668499,黄陂区,李集街道西北部泡桐店,景点,自然风光,114.216919,31.116302
西园商业步行街,湖北,武汉,武汉,027,,万松园,万松园路100号,景点,步行街,114.268875,30.585646
汉阳树公园,湖北,武汉,武汉,027,,钟家村,凤凰巷12号,景点,公园/广场,114.270841,30.547956
铁佛寺,湖北,武汉,武汉,027,,鹦鹉大道,添福港95号,景点,宗教,114.261609,30.548183
中国国旅,湖北,武汉,武汉,027,68833374,客运港/江滩,车站路6号怡东大厦F29层,景点,旅行社,114.302112,30.589482
汉江江滩,湖北,武汉,武汉,027,,武胜路,沿河大道245号附近,景点,海滨沙滩,114.262657,30.564053
公务寻呼台,湖北,武汉,武汉,027,,客运港/江滩,洞庭街桃源大厦,景点,景点/周边游,114.302601,30.589709
紫阳公园,湖北,武汉,武汉,027,88073189,首义汇/阅马场,张之洞路222号（首义路地铁站E口步行250米）,景点,公园/广场,114.305275,30.529984
拜将台,湖北,武汉,武汉,027,,首义汇/阅马场,武珞路1号辛亥革命博物院内,景点,更多景点/周边游,114.306055,30.540088
天主堂,湖北,武汉,武汉,027,84837812,钟家村,显正街163号,景点,宗教,114.271345,30.546873
基督教荣光堂,湖北,武汉,武汉,027,82835484,客运港/江滩,黄石路26号,景点,宗教,114.29174,30.586761
金石,湖北,武汉,武汉,027,,六渡桥/汉正街,中山大道600号库玛商场F3层(六渡桥地铁站A口旁),景点,美术馆,114.283745,30.574104
矶头山公园,湖北,武汉,武汉,027,,八大家/红钢城,正街,景点,公园/广场,114.420891,30.652868
九真山风景区,湖北,武汉,武汉,027,69303030;189****4279,蔡甸区,永安街道炉房村新街88号,景点,自然风光,113.955094,30.481086
临江公园,湖北,武汉,武汉,027,,八大家/红钢城,建设七路,景点,公园/广场,114.389997,30.644957
喷泉公园,湖北,武汉,武汉,027,85808816,西北湖,台北街道建设大道600号,景点,公园/广场,114.274759,30.595095
青龙山森林公园,湖北,武汉,武汉,027,81810234,纸坊,青龙路,景点,森林公园,114.325638,30.328663
素山寺森林公园,湖北,武汉,武汉,027,,黄陂区,向阳村,景点,森林公园,114.253411,31.217652
旺山公园,湖北,武汉,武汉,027,,光谷/鲁巷,珞喻路609号（近湖北信息产业科技大厦）,景点,公园/广场,114.393054,30.510548
西郊公园,湖北,武汉,武汉,027,,吴家山,园艺所路1号,景点,公园/广场,114.134047,30.633269
熊廷弼公园,湖北,武汉,武汉,027,,纸坊,青龙路与宁安路交叉口南300米,景点,公园/广场,114.321966,30.333546
竹叶海公园,湖北,武汉,武汉,027,83220049,吴家山,额头湾村,景点,公园/广场,114.162786,30.625517
柴泊湖旅游风景区,湖北,武汉,新洲区,027,,阳逻开发区,112省道,景点,自然风光,114.558086,30.679946
华泰汤孙湖旅游度假区,湖北,武汉,武汉,027,,江夏大学城/庙山,华泰一路,景点,更多景点/周边游,114.379784,30.411413
江滩月亮湾景观区,湖北,武汉,武汉,027,,余家头/四美塘,临江大道江滩219号,景点,更多景点/周边游,114.322855,30.587681
珞珈山,湖北,武汉,武汉,027,,珞珈山,八一路299号武汉大学内,景点,自然风光,114.36969,30.534796
蛇山景区,湖北,武汉,武汉,027,,江夏区,101省道中国石油金水加油站西南200米,景点,自然风光,114.162953,30.347363
张公山寨景区,湖北,武汉,武汉,027,86411117;86411119,武钢厂区/武东,白玉山街张公山寨严西湖畔,景点,自然风光,114.505074,30.588894
紫荆寺,湖北,武汉,新洲区,027,,新洲区,紫荆路113号,景点,宗教,114.898757,30.996677
湖北百盛同业旅行社,湖北,武汉,武汉,027,83605028,汉口火车站,武汉天街5号写字楼2301室,景点,旅行社,114.258398,30.612318
春天假日旅行社,湖北,武汉,武汉,027,87871616,中南路/洪山广场,武珞路448号中南国际城C2座18层1802-1804室,景点,旅行社,114.330072,30.533952
东南航空旅行社,湖北,武汉,武汉,027,181****8156,水果湖,洪山路10号,景点,旅行社,114.338936,30.543686
葛洲坝西陵旅行社,湖北,武汉,武汉,027,68836196,硚口路,解放大道558号,景点,旅行社,114.25156,30.576652
海外旅游,湖北,武汉,武汉,027,87122226,中南路/洪山广场,武珞路532号,景点,旅行社,114.332795,30.531975
华昌旅行社,湖北,武汉,武汉,027,82607968,竹叶山/花桥,江大路九万方53号,景点,旅行社,114.289231,30.617911
黄鹤楼旅行社,湖北,武汉,武汉,027,88870026;88861511,司门口,武珞路3号,景点,旅行社,114.304666,30.54343
金桥旅行社,湖北,武汉,武汉,027,150****5963,汉口火车站,常青路65号,景点,旅行社,114.251947,30.609687
康辉旅游,湖北,武汉,武汉,027,82722922,解放公园/武汉天地,解放大道1268号,景点,旅行社,114.303551,30.604581
康辉国际旅行社,湖北,武汉,武汉,027,85850303,武展商圈,京汉大道661号江城华庭1楼,景点,旅行社,114.279272,30.581501
龙翔旅行社,湖北,武汉,武汉,027,51242424,港澳台风情街,解放公园路40号,景点,旅行社,114.297868,30.605167
龙之旅旅行社,湖北,武汉,武汉,027,83228388,吴家山,东西湖吴家山田园街159号,景点,旅行社,114.138047,30.62273
铁路国际旅行社,湖北,武汉,武汉,027,82866254,港澳台风情街,球场路95号,景点,旅行社,114.292893,30.598823
武大旅行社,湖北,武汉,武汉,027,,珞珈山,八一路武汉大学三环学生公寓,景点,旅行社,114.375138,30.528988
徐东国际旅行社,湖北,武汉,武汉,027,84818066,余家头/四美塘,杨园街中铁第四勘察设计院集团有限公司-总部设计大楼南侧约30米,景点,旅行社,114.343882,30.600989
湖北徐东国旅,湖北,武汉,武汉,027,88612770,八大家/红钢城,友谊大道661附8号,景点,旅行社,114.349243,30.59701
知音旅行社,湖北,武汉,汉南区,027,84751338,汉南区中心城区,纱帽正街81号老年大学,景点,旅行社,114.080271,30.311481
中国国际旅行社,湖北,武汉,武汉,027,82808606-809,客运港/江滩,中山大道907号,景点,旅行社,114.302,30.592406
中国国旅,湖北,武汉,新洲区,027,86918218;139****3718,新洲图书馆,红旗街25号,景点,旅行社,114.802131,30.841331
中国国际旅行社,湖北,武汉,武汉,027,87058577;87058677,卓刀泉/虎泉,卓刀泉路299号流行视窗购物广场(卓豹店)F1层,景点,旅行社,114.383598,30.505486
中国国旅,湖北,武汉,武汉,027,87319889,丁字桥/石牌岭,中南路街道梅苑路小四川酒楼旁,景点,旅行社,114.325463,30.533833
中国国旅,湖北,武汉,武汉,027,4001171177,客运港/江滩,中山大道899号附近,景点,旅行社,114.3017,30.59229
康辉旅游,湖北,武汉,武汉,027,87334652,中南路/洪山广场,中南一路50号奥山创意街区2栋1层,景点,旅行社,114.329803,30.540388
中国青年旅行社,湖北,武汉,武汉,027,84893337;68833364,沌口,宁康路58号,景点,旅行社,114.168107,30.496195
中国青年旅行社,湖北,武汉,武汉,027,83784060,硚口路,中山大道155附5号,景点,旅行社,114.263658,30.56901
中南国旅,湖北,武汉,武汉,027,159****3259,水果湖,东一路38号就业大厦一楼,景点,旅行社,114.342975,30.542935
中南国际旅行社,湖北,武汉,武汉,027,87732966,客运港/江滩,黄石路58号,景点,旅行社,114.290783,30.591873
中南国际旅行社,湖北,武汉,武汉,027,87732966,江汉路步行街,南京路12号,景点,旅行社,114.297226,30.580746
中南民大国际旅行社,湖北,武汉,武汉,027,67842730,光谷/鲁巷,民院路5号中南民族大学,景点,旅行社,114.395651,30.494292
巴公房子,湖北,武汉,武汉,027,,客运港/江滩,洞庭街65号,景点,现代建筑,114.29982,30.586079
邦可花园旧址,湖北,武汉,武汉,027,,客运港/江滩,洞庭街78号,景点,古代遗迹,114.300693,30.586743
高氏医院旧址,湖北,武汉,武汉,027,,客运港/江滩,黎黄陂路38号,景点,古代遗迹,114.298476,30.588576
黄小鸭diy艺术馆,湖北,武汉,武汉,027,87210841,石牌岭/街道口,武昌广埠屯赛博数码广场对面桂园路华师文化街24号,景点,美术馆,114.357997,30.524945
武汉科学技术馆,湖北,武汉,武汉,027,50755500;50750732,客运港/江滩,沿江大道91号,景点,科技馆,114.299942,30.579241
刘少奇故居,湖北,武汉,武汉,027,,客运港/江滩,汉口友益街尚德里4号,景点,名人故居,114.295662,30.591365
鲁肃墓,湖北,武汉,武汉,027,,琴台,晴川街道龟山北路5号龟山公园内,景点,古代遗迹,114.278861,30.555176
汉口美国海军青年会旧址,湖北,武汉,武汉,027,,客运港/江滩,黎黄陂路10号化妆品报,景点,古代遗迹,114.300212,30.587352
盘龙城遗址博物院,湖北,武汉,武汉,027,61915773,盘龙城,盘龙大道1号,景点,博物馆,114.260415,30.695453
起义街清真寺,湖北,武汉,武汉,027,,首义汇/阅马场,起义街67号,景点,宗教,114.306526,30.524763
日伪汉口放送局旧址,湖北,武汉,武汉,027,,客运港/江滩,胜利街171号,景点,古代遗迹,114.298773,30.588048
世界宝玉石博览馆,湖北,武汉,新洲区,027,89530635,新洲区,旅游大道1号道观河风景旅游区（西北角）,景点,博物馆,115.009099,30.868335
花园山天主教堂,湖北,武汉,武汉,027,,司门口,胭脂路花园山3号,景点,宗教,114.308174,30.551121
辛亥首义发难处工程营旧址,湖北,武汉,武汉,027,,首义汇/阅马场,首义路街道张之洞路234号,景点,古代遗迹,114.307939,30.533115
光谷广场,湖北,武汉,武汉,027,,光谷/鲁巷,关东街道雄楚大道981号,景点,广场,114.399323,30.506063
武汉海昌极地海洋公园,湖北,武汉,武汉,027,85699999,后湖,金银潭大道96号,景点,主题乐园,114.277873,30.664392
梁山头商业街,湖北,武汉,武汉,027,,藏龙岛,杨桥湖大道17号,景点,休闲街区,114.430672,30.421434
青岛路历史风貌区,湖北,武汉,武汉,027,,客运港/江滩,青岛路周边,景点,步行街,114.298181,30.581611
武汉欢乐谷,湖北,武汉,武汉,027,88518861,八大家/红钢城,欢乐大道196号,景点,主题乐园,114.393272,30.591464
湖北康辉国际旅行社,湖北,武汉,武汉,027,82805981,客运港/江滩,合作路34号,景点,旅行社,114.297774,30.585594
鼓楼洞,湖北,武汉,武汉,027,,司门口,武昌路58号（蛇山脚下）,景点,历史建筑,114.308572,30.54409
沙湖公园,湖北,武汉,武汉,027,88118798,武昌区,秦园东路与沙湖大道交口,景点,公园/广场,114.334206,30.565653
谭鑫培公园,湖北,武汉,武汉,027,,纸坊,文化大道与谭鑫培路交口东北角,景点,公园/广场,114.323799,30.369422
东南航空旅行社,湖北,武汉,武汉,027,83760722,武胜路,中山大道226号万安国际1914号,景点,旅行社,114.264455,30.568823
湖北九州国际旅行社有限责任公司,湖北,武汉,武汉,027,82798068,江汉路步行街,中山大道818号佳丽广场45楼,景点,旅行社,114.291177,30.578477
湖北新华旅行社光谷门市部,湖北,武汉,武汉,027,180****8210,光谷/鲁巷,光谷步行街尚都酒店公寓二栋0916（近光谷国际广场）,景点,旅行社,114.402127,30.5043
新区公园,湖北,武汉,武汉,027,,江汉大学,汉阳大道（近升官渡小区）,景点,公园/广场,114.194264,30.532781
硚口民族工业博物馆,湖北,武汉,武汉,027,83496800,古田路,丰硕路28号武汉新工厂高新技术产业园16栋,景点,博物馆,114.191618,30.606642
楚天181文化创意产业园,湖北,武汉,武汉,027,,水果湖,东湖路181号,景点,步行街,114.365041,30.566383
江岸清真寺,湖北,武汉,武汉,027,,百步亭/二七,二七街绿城黄浦湾,景点,宗教,114.318215,30.620455
毛泽东故居,湖北,武汉,武汉,027,185****9699,水果湖,东湖路142号东湖宾馆内,景点,名人故居,114.367656,30.554746
锦里沟风景区,湖北,武汉,武汉,027,61521111,黄陂区,蔡店乡,景点,自然风光,114.225264,31.272856
自游天下旅行社,湖北,武汉,武汉,027,88130005;159****6881,首义汇/阅马场,阅马场景观楼（黄鹤楼）,景点,旅行社,114.307043,30.540233
康辉国际旅行社,湖北,武汉,武汉,027,84296465,沌口,沌阳街道车城西路绿岛花园13号（近湘隆时代广场）,景点,旅行社,114.168376,30.497789
武汉杜莎夫人蜡像馆,湖北,武汉,武汉,027,87116104;87116288,水果湖,水果湖街道第1街区楚河汉街21号,景点,蜡像馆,114.344457,30.555082
旅游百事通,湖北,武汉,武汉,027,82245986,百步亭/二七,二七路136号,景点,旅行社,114.313103,30.622898
辛亥革命博物院,湖北,武汉,武汉,027,88051911,首义汇/阅马场,黄鹤楼街道彭刘杨路258号（首义广场南侧）,景点,博物馆,114.305405,30.537052
中山舰博物馆,湖北,武汉,武汉,027,81561913,江夏区,金口街道中山舰路特1号,景点,博物馆,114.13427,30.345278
吉庆民俗街,湖北,武汉,武汉,027,82819969,江汉路步行街,中山大道677号（大智路口）,景点,步行街,114.293434,30.585909
狮子山,湖北,武汉,武汉,027,,石牌岭/街道口,狮子山街道学院路（近华中农业大学博园住宿区）,景点,自然风光,114.360288,30.478788
问津书院,湖北,武汉,新洲区,027,,新洲区,旧街街道近郊旧街孔子河畔,景点,历史建筑,114.896225,30.795927
圣米迦勒堂,湖北,武汉,武汉,027,88082701,首义汇/阅马场,紫阳街办事处复兴路26号,景点,景点/周边游,114.301797,30.529542
楚望台遗址公园,湖北,武汉,武汉,027,,石牌岭/街道口,津水路7号,景点,古代遗迹,114.308823,30.525656
伏虎山烈士陵园,湖北,武汉,武汉,027,,石牌岭/街道口,卓刀泉公园后面,景点,烈士陵园,114.370329,30.516563
圣约瑟学堂旧址,湖北,武汉,武汉,027,,和平大道积玉桥,崇福山街49-51号,景点,古代遗迹,114.305817,30.550587
汉阳辛亥铁血将士公墓,湖北,武汉,武汉,027,,汉阳大道,墨水湖北路与墨水湖北路出口交叉口北400米,景点,烈士陵园,114.186991,30.560361
招商旅行社,湖北,武汉,武汉,027,51519103,武胜路,中山大道246号3楼312室,景点,旅行社,114.264052,30.568882
张公堤城市森林公园,湖北,武汉,武汉,027,,后湖,三环线与宏图路交叉路口往西北约100米,景点,森林公园,114.27494,30.654842
后襄河公园,湖北,武汉,武汉,027,,汉口火车站,后襄河北路（近武汉博物馆）,景点,公园/广场,114.255798,30.609118
九州国际旅行社,湖北,武汉,武汉,027,51832280,汉口火车站,汉口火车站财神广场6FC5,景点,旅行社,114.25847,30.617896
康辉国际旅行社,湖北,武汉,武汉,027,134****1167;158****8114,客运港/江滩,球场街6号附4新鸿基花园1层（大智路地铁站E1口旁）,景点,旅行社,114.294291,30.592808
青菱文农书画博物馆,湖北,武汉,武汉,027,88858777,白沙洲,新农街新农村122号,景点,博物馆,114.277977,30.481367
湖北康辉国际旅行社,湖北,武汉,武汉,027,150****4979,首义汇/阅马场,武珞路36号顺民大厦1层1室,景点,旅行社,114.309628,30.540078
木兰山景区,湖北,武汉,武汉,027,61502718;61501019,黄陂区,胜景大道55号,景点,自然风光,114.392899,31.095335
百步亭游园,湖北,武汉,武汉,027,82330016,百步亭/二七,路6号,景点,公园/广场,114.324585,30.640993
乃园遗址,湖北,武汉,武汉,027,,司门口,乃园94层附1,景点,古代遗迹,114.295715,30.544256
黄陂区博物馆,湖北,武汉,武汉,027,85933829;61007569,黎黄陂广场,大南街172号,景点,博物馆,114.380478,30.872526
鲁兹暨史沫特莱旧居,湖北,武汉,武汉,027,,客运港/江滩,鄱阳街32号,景点,名人故居,114.296932,30.583252
花旗银行大楼旧址,湖北,武汉,武汉,027,,客运港/江滩,沿江大道142号,景点,古代遗迹,114.299348,30.580655
龙华禅寺,湖北,武汉,武汉,027,88913068,首义汇/阅马场,武珞路81号（近湖北省图书馆）,景点,宗教,114.315247,30.541413
四明银行旧址,湖北,武汉,武汉,027,,江汉路步行街,汉口江汉路45号,景点,古代遗迹,114.293954,30.578464
郭沫若故居,湖北,武汉,武汉,027,,珞珈山,珞珈山路珞珈山一区20号,景点,名人故居,114.372228,30.534154
周恩来故居,湖北,武汉,武汉,027,,珞珈山,珞珈山一区27号,景点,名人故居,114.372271,30.534511
台湾银行（汉口分行）旧址,湖北,武汉,武汉,027,,客运港/江滩,江汉路21号,景点,古代遗迹,114.295611,30.577375
九州国际旅行社,湖北,武汉,武汉,027,181****1179,客运港/江滩,解放南路362号康华1号楼14楼,景点,旅行社,114.300003,30.59904
九州国际旅行社,湖北,武汉,武汉,027,83666316,宝丰,解放大道1045号宝丰时代写字楼26层附1号,景点,旅行社,114.253507,30.578451
东方国旅旅行社,湖北,武汉,武汉,027,87892256,王家湾,王家湾特1号,景点,旅行社,114.21149,30.565908
武昌蛇山烈士祠,湖北,武汉,武汉,027,,石牌岭/街道口,武珞路,景点,宗教,114.313454,30.541439
华中科技大学青年园,湖北,武汉,武汉,027,87542228,光谷/鲁巷,珞瑜路1037号,景点,自然风光,114.409029,30.512649
武汉节水科技馆,湖北,武汉,武汉,027,,客运港/江滩,江滩大道75号,景点,科技馆,114.312635,30.603575
康辉旅游,湖北,武汉,武汉,027,88185200,司门口,临江大道56号,景点,旅行社,114.297097,30.552506
昌大商务国际旅行社,湖北,武汉,武汉,027,189****2162,白沙洲,武泰闸白沙洲大道507号,景点,旅行社,114.299331,30.513731
梁子湖沙滩浴场,湖北,武汉,武汉,027,,梁子湖风景区,梁子湖大道特1号,景点,海滨沙滩,114.459742,30.242026
湖北金桥假日国际旅行社,湖北,武汉,武汉,027,186****8927,水果湖,中北路148号东沙大厦C1座,景点,旅行社,114.352291,30.564701
九州国际旅行社,湖北,武汉,武汉,027,52345551,石牌岭/街道口,珞南街道街道口南村110号鹏程蕙园1栋16楼,景点,旅行社,114.349735,30.527072
大武汉1911商业街,湖北,武汉,武汉,027,85891911,汉口火车站,新华路589号a座,景点,步行街,114.262634,30.61482
柔纺绣绘艺术馆,湖北,武汉,武汉,027,139****4017,江汉路步行街,江汉路宝利金中央荣御B2座411室,景点,美术馆,114.291974,30.577044
湖北书画院美术馆,湖北,武汉,武汉,027,,首义汇/阅马场,张之洞路243号,景点,美术馆,114.309834,30.533777
立兴洋行,湖北,武汉,武汉,027,,客运港/江滩,沿江大道183号,景点,古代遗迹,114.304553,30.591132
嘉诺撒仁爱修女会礼拜堂,湖北,武汉,武汉,027,,和平大道积玉桥,花园山4号,景点,宗教,114.308624,30.551706
汉阳兵工厂,湖北,武汉,武汉,027,,汉阳大道,琴台大道169附103号附近,景点,更多景点/周边游,114.23764,30.562445
汉口电灯公司旧址,湖北,武汉,武汉,027,,客运港/江滩,鄱阳街56号,景点,人文古迹,114.298442,30.585282
翁守谦故居,湖北,武汉,武汉,027,,和平大道积玉桥,昙华林62号（昙华林武胜门地铁站A口步行300米）,景点,名人故居,114.308372,30.552483
浙江实业银行旧址,湖北,武汉,武汉,027,,江汉路步行街,中山大道910号浙江大楼F1层,景点,古代遗迹,114.292383,30.581512
中央信托局汉口分局旧址,湖北,武汉,武汉,027,,江汉路步行街,中山大道908号,景点,古代遗迹,114.292212,30.581212
中南国际旅行社,湖北,武汉,武汉,027,51834341;87732966,客运港/江滩,洞庭街,景点,旅行社,114.302115,30.589475
瑞典教区旧址,湖北,武汉,武汉,027,,首义汇/阅马场,昙华林艺术村64号附近,景点,古代遗迹,114.309082,30.552507
昙华林,湖北,武汉,武汉,027,88129788,和平大道积玉桥,胭脂路仁济医院对面,景点,步行街,114.308854,30.551994
万婴墓,湖北,武汉,武汉,027,,首义汇/阅马场,花园山2号,景点,古代遗迹,114.307816,30.551023
康辉国际旅行社,湖北,武汉,武汉,027,88614510;88614500,徐东大街,徐东路7号欧洲花园小区10号楼商铺,景点,旅行社,114.349053,30.589023
小军山,湖北,武汉,武汉,027,,沌口,海伦堡千鹭湾,景点,自然风光,114.169351,30.418371
中南国际旅行社,湖北,武汉,武汉,027,87732966,八大家/红钢城,工业二路43号,景点,旅行社,114.39712,30.63234
龙泉灵泉寺,湖北,武汉,武汉,027,81623036,梁子湖风景区,龙泉街道龙泉山风景区55号,景点,宗教,114.515732,30.408503
中国国旅,湖北,武汉,武汉,027,61004528,黄陂广场,百锦街25号（百锦街农贸市场南门旁）,景点,旅行社,114.378881,30.876221
天兴洲,湖北,武汉,武汉,027,153****1999,八大家/红钢城,天兴洲岛屿,景点,自然风光,114.397644,30.66353
戴家湖公园,湖北,武汉,武汉,027,86338628,八大家/红钢城,建十路和平大道立交桥下,景点,公园/广场,114.415626,30.638573
周庄村,湖北,武汉,武汉,027,,左岭,左岭镇,景点,古村古镇,114.602764,30.476744
假日凉台,湖北,武汉,武汉,027,133****9055,水果湖,水果湖横路30号水果湖儿童公园内（东侧）,景点,美术馆,114.345515,30.546671
石瑛旧居,湖北,武汉,武汉,027,,和平大道积玉桥,昙华林三义村特1号,景点,名人故居,114.306496,30.554085
钟子期墓,湖北,武汉,武汉,027,,蔡甸周边,知音湖大道与奓新交叉口西（知音度假村西北300米）,景点,古代遗迹,114.090612,30.538122
耿丹烈士墓,湖北,武汉,武汉,027,,丁字桥/石牌岭,平安路与团结路交叉口北180米,景点,烈士陵园,114.342946,30.533165
中华循道公会弘道会旧址,湖北,武汉,武汉,027,,中南路/洪山广场,武珞路345号（十五中学旁）,景点,古代遗迹,114.326195,30.537121
中国国旅,湖北,武汉,武汉,027,68833364;68833374,石牌岭/街道口,-珞狮南路497号丽岛花园A广场5号（北港村站牌旁）,景点,旅行社,114.344488,30.501248
武汉规划展示馆,湖北,武汉,武汉,027,85661111,后湖,金桥大道117号,景点,陈列馆,114.295246,30.659979
中南国际旅行社,湖北,武汉,武汉,027,66665958,百步亭/二七,东立街315号中国国旅东立国际门市。东立街315号,景点,旅行社,114.315324,30.625714
知青岁月,湖北,武汉,武汉,027,,黄陂区,长岭街短岭村8号,景点,更多景点/周边游,114.355106,31.124276
长河—金莲湾,湖北,武汉,武汉,027,,蔡甸区,索河镇的长河水域,景点,自然风光,113.89746,30.513078
万里行旅行社,湖北,武汉,武汉,027,189****7679,钟家村,拦江路195号鹦鹉花园枫叶园E栋2单元1楼5室（地铁4号线拦江路站）,景点,旅行社,114.272453,30.541599
中国国旅,湖北,武汉,武汉,027,68833374,八大家/红钢城,临江大道,景点,旅行社,114.412977,30.651397
环亚国际旅行社,湖北,武汉,武汉,027,50668824,光谷/鲁巷,关山街道珞喻路新都汇3栋2501室（近地铁2号线光谷广场站E出口）,景点,旅行社,114.39587,30.50991
龙王庙,湖北,武汉,武汉,027,,八大家/红钢城,欢乐大道196号欢乐江城内,景点,宗教,114.392509,30.589348
雾帷轩,湖北,武汉,武汉,027,,东湖风景区,沿湖大道58号磨山景区内,景点,人文古迹,114.409241,30.549021
金色环宇,湖北,武汉,武汉,027,82845005,解放公园/武汉天地,三阳路1号,景点,旅行社,114.307131,30.595991
汉口江滩三期,湖北,武汉,武汉,027,,百步亭/二七,沿江大道滨江苑一期近60路车站,景点,公园/广场,114.323623,30.61685
东方汇理银行,湖北,武汉,武汉,027,,客运港/江滩,沿江大道171号,景点,人文古迹,114.303645,30.589117
武汉园林展览中心,湖北,武汉,武汉,027,,解放公园/武汉天地,解放大道1821号,景点,展览馆,114.303902,30.607115
安利英洋行,湖北,武汉,武汉,027,,客运港/江滩,四唯路10号（三阳路地铁站B口步行430米）,景点,古代遗迹,114.306752,30.597962
湖北康辉国际旅行社,湖北,武汉,武汉,027,82860355,竹叶山/花桥,建设大道江大路23号,景点,旅行社,114.295863,30.616342
中国国学书画院,湖北,武汉,武汉,027,,客运港/江滩,胜利街217号,景点,美术馆,114.29989,30.58945
方志馆,湖北,武汉,武汉,027,,江汉路步行街,铭新街8号,景点,展览馆,114.289009,30.584559
人民乐园,湖北,武汉,武汉,027,,客运港/江滩,江滩大道21号,景点,公园/广场,114.30287,30.586247
翰墨艺术馆,湖北,武汉,武汉,027,,客运港/江滩,黎黄陂路乐凯大厦西南侧,景点,美术馆,114.300456,30.587226
宝中旅游,湖北,武汉,武汉,027,82817273,江汉路步行街,沿江大道91号武汉科学技术馆F1层,景点,旅行社,114.300483,30.580151
百步亭生育文化园,湖北,武汉,武汉,027,82316688;82316699,百步亭/二七,安居路与安居小路交叉路口往西南约80米,景点,文化公园,114.320578,30.646971
非物质文化遗产展览中心,湖北,武汉,武汉,027,,客运港/江滩,合作路15号武汉市群众艺术馆,景点,展览馆,114.298336,30.584928
康辉国际旅行社后湖世博园门市,湖北,武汉,武汉,027,159****2822,百步亭/二七,安居路155,景点,旅行社,114.31854,30.65789
宝中旅游,湖北,武汉,武汉,027,86655555,港澳台风情街,花桥街道黄孝河路29号,景点,旅行社,114.285823,30.614573
中南国际旅游,湖北,武汉,武汉,027,85748493,港澳台风情街,解放大道台北路2号,景点,旅行社,114.28891,30.591261
中国国旅,湖北,武汉,武汉,027,85575057,汉口火车站,常青路168号,景点,旅行社,114.235385,30.625585
中国国旅,湖北,武汉,武汉,027,85630491;139****9391,唐家墩/菱角湖,唐家墩中百仓储新华下路422号,景点,旅行社,114.271352,30.620452
中国国旅,湖北,武汉,武汉,027,83901109,汉口火车站,新湾二路金色雅园A区24栋1单元1-1号门面（阿瓦山寨）,景点,旅行社,114.244045,30.621765
星翔国旅,湖北,武汉,武汉,027,,常青花园,常青五路33号,景点,旅行社,114.255421,30.629317
花园道艺术商业街,湖北,武汉,武汉,027,,西北湖,青年路308号（靠近王家墩地铁站）,景点,观光街区,114.265177,30.595785
海航乐游,湖北,武汉,武汉,027,65661916,汉口火车站,汉兴街道红旗渠路75号,景点,旅行社,114.254926,30.624724
康辉旅游,湖北,武汉,武汉,027,65668183,汉口火车站,红旗渠路88号金色雅园b区3（汉口银行对面）,景点,旅行社,114.247977,30.622817
宁波会馆旧址,湖北,武汉,武汉,027,,六渡桥/汉正街,前进五路111附1号（江汉路地铁站G口步行470米）,景点,古代遗迹,114.28664,30.581537
旅游百事通,湖北,武汉,武汉,027,85785779,西北湖,长江日报路,景点,旅行社,114.278631,30.602681
菱角湖万达室外步行街,湖北,武汉,武汉,027,,唐家墩/菱角湖,菱角湖中心菱角湖万达广场3号门,景点,步行街,114.268567,30.610759
昭君广场,湖北,武汉,武汉,027,,水果湖,中北路楚河汉街（地铁4号线楚河汉街站B出口）,景点,广场,114.344673,30.55496
中国国旅,湖北,武汉,武汉,027,139****1757,和平大道积玉桥,公平路15号,景点,旅行社,114.313614,30.555914
中国国旅,湖北,武汉,武汉,027,68833364,首义汇/阅马场,复兴路53号海达广场F1层,景点,旅行社,114.300262,30.531231
宝中旅游,湖北,武汉,武汉,027,88218855,和平大道积玉桥,中山路189号附4号,景点,旅行社,114.31077,30.555175
长江观景第一台,湖北,武汉,武汉,027,,和平大道积玉桥,临江大道76号蓝湾世家一楼,景点,更多景点/周边游,114.30357,30.560541
电信商务会议中心,湖北,武汉,武汉,027,87275500,水果湖,洪山路特1号,景点,景点/周边游,114.339789,30.545812
易游天下国际旅行社,湖北,武汉,武汉,027,82753636,首义汇/阅马场,解放路35号,景点,旅行社,114.295792,30.52927
莲溪禅寺,湖北,武汉,武汉,027,,石牌岭/街道口,雄楚大街125号,景点,宗教,114.326431,30.520182
独立团烈士陵园,湖北,武汉,武汉,027,87641163,石牌岭/街道口,武珞路717号街道口,景点,烈士陵园,114.347025,30.530785
旅游百事通,湖北,武汉,武汉,027,153****3216,司门口,民主路283号,景点,旅行社,114.305308,30.545549
中国国际旅行社,湖北,武汉,武汉,027,134****3001,徐东大街,徐东商圈徐东大街97号,景点,旅行社,114.352298,30.583998
三和商旅,湖北,武汉,武汉,027,87815511,水果湖,中北路8号,景点,旅行社,114.339112,30.548782
中国国旅,湖北,武汉,武汉,027,68833364,中南路/洪山广场,中南二路与武珞路六巷交叉路口往西约100米（奥山星座北侧）,景点,旅行社,114.329508,30.541728
文联文学艺术院,湖北,武汉,武汉,027,,徐东大街,东湖路翠柳街1号,景点,美术馆,114.368189,30.569737
海外旅游,湖北,武汉,武汉,027,138****6595,余家头/四美塘,和平大道743号附9号（近杨园门市部）,景点,旅行社,114.368561,30.613511
大堤口广场,湖北,武汉,武汉,027,,和平大道积玉桥,临江大道64号,景点,广场,114.299385,30.555988
中国康辉武汉旅行社,湖北,武汉,武汉,027,,水果湖,洪山路2号湖北科教大厦C座9层（近广场环路）,景点,旅行社,114.339241,30.544136
天兴洲大桥公园,湖北,武汉,武汉,027,,八大家/红钢城,建设十路3号,景点,公园/广场,114.408946,30.648933
中国国旅,湖北,武汉,武汉,027,68833374,八大家/红钢城,黄州街42附12号（青青幼儿园旁）,景点,旅行社,114.403296,30.623266
徐东国旅,湖北,武汉,武汉,027,130****6320,八大家/红钢城,建设一路10附17号,景点,旅行社,114.373402,30.621162
海旅百事通国际旅行社,湖北,武汉,武汉,027,189****4278,八大家/红钢城,和平大道建设二路59号,景点,旅行社,114.380927,30.619327
柳林公园,湖北,武汉,武汉,027,,八大家/红钢城,临江大道896号,景点,公园/广场,114.41694,30.652535
中南国际旅游,湖北,武汉,武汉,027,86691110,八大家/红钢城,和平大道青扬十街,景点,旅行社,114.399912,30.638752
中国国旅,湖北,武汉,武汉,027,68833374,武胜路,武胜路134号,景点,旅行社,114.265945,30.57366
皇明科技展示中心,湖北,武汉,武汉,027,85806543,宝丰,宝丰路33号迎宾花园1楼,景点,展览馆,114.252393,30.580043
湖北康辉国际旅行社,湖北,武汉,武汉,027,85415612,武胜路,利济北路58号（汉正街地铁站D口步行490米）,景点,旅行社,114.270921,30.573211
硚口科学技术馆,湖北,武汉,武汉,027,,古田路,祥顺路武汉市博学初级中学,景点,科技馆,114.217796,30.612546
赤壁大战全景画馆,湖北,武汉,武汉,027,,钟家村,晴川街道龟山北路特1号,景点,美术馆,114.268618,30.554216
龟山三国城,湖北,武汉,武汉,027,84713718,钟家村,龟北路中段,景点,影视基地,114.272593,30.55519
抱佛堂,湖北,武汉,武汉,027,,钟家村,翠微路89号,景点,宗教,114.261393,30.545633
汉阳圣光堂,湖北,武汉,武汉,027,84673107,汉阳大道,铁桥村徐家大湾1号（七里庙地铁站A口步行460米）,景点,宗教,114.228912,30.554246
琴台绿化广场,湖北,武汉,武汉,027,,钟家村,琴台立交桥边（钟家村地铁站A口步行470米）,景点,广场,114.263538,30.552297
千年旅行社有限公司,湖北,武汉,武汉,027,,钟家村,龟山北路8号,景点,旅行社,114.272981,30.556803
红色广场,湖北,武汉,武汉,027,84841553,鹦鹉大道,鹦鹉大道11-2号,景点,广场,114.266556,30.552691
宝中旅游,湖北,武汉,武汉,027,187****0096,汉阳大道,自力一街221号,景点,旅行社,114.261993,30.549887
中国国旅,湖北,武汉,武汉,027,68833374,王家湾,龙阳大道15号郭茨口车站（王家湾地铁站L口旁）,景点,旅行社,114.211176,30.565246
大禹文化博物馆,湖北,武汉,武汉,027,84710887,琴台,洗马长街86号晴川阁内,景点,博物馆,114.284447,30.555265
辛亥革命纪念园,湖北,武汉,武汉,027,88875306;88875305,光谷/东湖高新区,石门峰路石门峰博物馆东南100米,景点,纪念馆,114.478244,30.514214
中国国旅（武汉）国际旅行社,湖北,武汉,武汉,027,186****9881,光谷/鲁巷,虎泉街246-1号流行视窗购物广场(卓豹店)F1层,景点,旅行社,114.383591,30.505486
中国国旅,湖北,武汉,武汉,027,137****7905,南湖花园,平安路170（近南湖门市部）,景点,旅行社,114.319671,30.506871
花山生态艺术馆,湖北,武汉,武汉,027,,洪山区,东湖新技术开发区花城大道特1号,景点,美术馆,114.498383,30.557641
九峰山革命烈士陵园,湖北,武汉,武汉,027,87635476,光谷/东湖高新区,土桥村特1号,景点,烈士陵园,114.503784,30.507837
太极广场,湖北,武汉,武汉,027,,楚河汉街,烟霞路1号,景点,广场,114.335106,30.560028
创业光谷步行街,湖北,武汉,武汉,027,,光谷/鲁巷,关山大道115号附近,景点,步行街,114.415438,30.500909
泰然·生物谷展示中心,湖北,武汉,武汉,027,,光谷/东湖高新区,高新大道,景点,展览馆,114.482833,30.489489
易游天下,湖北,武汉,武汉,027,88669366,南湖花园,恒安路55号,景点,旅行社,114.31665,30.505402
航空国旅,湖北,武汉,武汉,027,87426001;138****2188,光谷/鲁巷,民院路53-6号（龙安集团对面）,景点,旅行社,114.398931,30.50108
中国国际旅行社,湖北,武汉,武汉,027,85715198,八大家/红钢城,和平街道祥丰路（景胜花园西）,景点,旅行社,114.384224,30.607944
钢都花园露天广场,湖北,武汉,武汉,027,,八大家/红钢城,园林路69号,景点,广场,114.367977,30.611887
鑫田商旅,湖北,武汉,武汉,027,,石牌岭/街道口,石牌岭路193号4层,景点,旅行社,114.336651,30.515761
易游天下国际旅行社,湖北,武汉,武汉,027,,南湖花园,平安路86号,景点,旅行社,114.317596,30.502746
中国国际旅行社,湖北,武汉,武汉,027,88772164,石牌岭/街道口,平安路与安邻街交叉路口往北约50米（七星雪香花园）,景点,旅行社,114.316082,30.506209
中国国际旅行社,湖北,武汉,武汉,027,87415427,光谷/鲁巷,珞喻东路189号,景点,旅行社,114.426243,30.505893
中国国旅,湖北,武汉,武汉,027,87466230,光谷/鲁巷,雄楚大道888号雄楚1号购物广场F1,景点,旅行社,114.390312,30.497847
基督教曙光堂,湖北,武汉,武汉,027,,光谷天地,关南一路2号,景点,宗教,114.412964,30.471867
金湖湾科技生态园,湖北,武汉,武汉,027,,梁子湖风景区,梁子湖大道,景点,动植物园,114.432091,30.318453
光谷展示中心,湖北,武汉,武汉,027,,光谷天地,关山大道光谷软件园4期F4栋,景点,展览馆,114.408516,30.476353
国营四七一公园,湖北,武汉,武汉,027,,武钢厂区/武东,武东中路,景点,公园/广场,114.458578,30.571977
古龙塆,湖北,武汉,武汉,027,,梁子湖风景区,古龙山庄,景点,更多景点/周边游,114.374367,30.282437
康辉国际旅行社,湖北,武汉,武汉,027,153****8350,纸坊,纸金路石头湾10号,景点,旅行社,114.289037,30.337962
新世纪公园,湖北,武汉,武汉,027,,纸坊,法院对面（北华街地铁站C口步行450米）,景点,公园/广场,114.327721,30.356686
当代运动公园,湖北,武汉,武汉,027,,光谷/东湖高新区,东湖技术开发区谷光大道76号,景点,公园/广场,114.414871,30.463626
鸽子山,湖北,武汉,武汉,027,,江夏区,082乡道,景点,自然风光,114.296049,30.27886
当代艺术馆,湖北,武汉,武汉,027,,光谷/东湖高新区,光谷大道112号,景点,美术馆,114.418778,30.462438
基督教恩光堂,湖北,武汉,武汉,027,,纸坊,任家湾139,景点,宗教,114.334404,30.345772
明王墓群,湖北,武汉,武汉,027,,藏龙岛,龙泉山风景区内（西侧）,景点,古代遗迹,114.507747,30.412387
中国国旅,湖北,武汉,武汉,027,68833364,藏龙岛,流芳老街大邱客运站,景点,旅行社,114.453599,30.442729
藏龙岛,湖北,武汉,武汉,027,,藏龙岛,藏龙大道,景点,自然风光,114.416,30.419529
观音寺,湖北,武汉,武汉,027,,纸坊,武昌大道538号,景点,宗教,114.293059,30.332949
海外旅游（集团）有限公司,湖北,武汉,武汉,027,4000606176,光谷/东湖高新区,华师园北路1号,景点,旅行社,114.400596,30.457416
基督教恩典堂,湖北,武汉,武汉,027,,江夏区,正街86号,景点,宗教,114.16086,30.151471
香炉山遗址,湖北,武汉,武汉,027,,蔡甸区,祥兴街,景点,古代遗迹,113.946048,30.374399
金龙水寨生态乐园,湖北,武汉,武汉,027,84981567,蔡甸区,索河街道龚家渡金龙湖畔,景点,动植物园,113.931534,30.541216
中南国旅,湖北,武汉,武汉,027,84211516,沌口,宁康路98号附24号,景点,旅行社,114.166321,30.493841
东岳庙,湖北,武汉,武汉,027,,蔡甸区,永安街,景点,宗教,113.952039,30.455029
宝中旅游,湖北,武汉,武汉,027,69811018,蔡甸城区,茂源街建新东区18栋附43号,景点,旅行社,114.038865,30.574229
旅游百事通,湖北,武汉,武汉,027,,常青南园,东风大道159号-c4栋-附30,景点,旅行社,114.246167,30.632123
中南国际旅游,湖北,武汉,武汉,027,84210070,沌口,联城路22号2栋附2号,景点,旅行社,114.156451,30.492421
金凯商业街,湖北,武汉,武汉,027,138****6980,沌口,东风大道518号（东风公司地铁站D口步行490米）,景点,步行街,114.162519,30.496842
沌口文体广场,湖北,武汉,武汉,027,,沌口,经济开发区沌口办事处沌口开发区联城路56号,景点,公园/广场,114.152811,30.489637
纱帽江滩公园,湖北,武汉,汉南区,027,,汉南区,纱帽正街与滨江路交叉处,景点,公园/广场,114.085447,30.303095
景德寺,湖北,武汉,武汉,027,,东西湖区,景德寺路与柏泉路交叉口东南300米,景点,宗教,114.134357,30.748347
七彩植物园,湖北,武汉,武汉,027,,东西湖区,走马岭街惠安大道特1号,景点,植物园,113.996015,30.645841
康辉国际旅行社,湖北,武汉,武汉,027,189****5977,吴家山,东吴大道汉电小区,景点,旅行社,114.141947,30.623996
长江轮胎海外旅游,湖北,武汉,武汉,027,83890892,吴家山,五环大道65附19-20号,景点,旅行社,114.137255,30.623335
丽景广场,湖北,武汉,武汉,027,,金银湖,金南一路5-31号（园博园北地铁站E口旁）,景点,广场,114.223456,30.634338
南极峰,湖北,武汉,武汉,027,,常青花园,银杏街97号,景点,自然风光,114.254982,30.645794
武汉国际风情园,湖北,武汉,武汉,027,,东西湖区,107国道旁,景点,更多景点/周边游,114.036136,30.649766
武汉国际风景公园,湖北,武汉,武汉,027,,东西湖区,东西湖大道4032号附近,景点,公园/广场,114.036649,30.649714
易游天下东西湖门市,湖北,武汉,武汉,027,83240150,吴家山,开屏里社区南区北门旁,景点,旅行社,114.146947,30.620717
宝中旅游,湖北,武汉,武汉,027,83957588,常青花园,常青花园新区街道常青花园五号小区30栋1层,景点,旅行社,114.243044,30.648961
慧灵禅寺,湖北,武汉,新洲区,027,,新洲区,318国道,景点,宗教,114.683897,30.912433
风火山禅寺,湖北,武汉,新洲区,027,,新洲区,新道公路,景点,宗教,114.867738,30.84315
回龙寺,湖北,武汉,新洲区,027,,新洲区,回龙寺,景点,宗教,114.656222,30.869786
岱园,湖北,武汉,武汉,027,,金银湖,环湖路67号附近,景点,公园/广场,114.211925,30.661681
清凉寺,湖北,武汉,新洲区,027,,新洲区,001乡道附近,景点,宗教,114.582697,30.78673
吉灵寺,湖北,武汉,新洲区,027,,新洲区,刘大路与065乡道交叉口西320米,景点,宗教,114.774938,30.737877
康辉国际旅行社,湖北,武汉,新洲区,027,86917568,新洲图书馆,红旗街27号逢源商务酒店1楼,景点,旅行社,114.802701,30.841051
报祖寺,湖北,武汉,新洲区,027,,新洲区,八方咀132,景点,宗教,114.601159,30.827487
白云寺,湖北,武汉,新洲区,027,,新洲区,G70福银高速,景点,宗教,114.592981,30.791001
将军山森林公园,湖北,武汉,新洲区,027,,新洲区,005乡道,景点,森林公园,115.006767,30.885777
湖北省海外旅游（集团）有限公司,湖北,武汉,武汉,027,59886583;4000606176,客运港/江滩,中山大道909号（近江岸一元路）,景点,旅行社,114.302044,30.592334
庆福禅寺,湖北,武汉,新洲区,027,,新洲区,半边街路39号,景点,宗教,114.929981,30.831353
新洲博物馆,湖北,武汉,新洲区,027,86921946,新洲区中心/邾城街,博物大道309号,景点,博物馆,114.81913,30.844608
新洲区科技馆,湖北,武汉,新洲区,027,,新洲区中心/邾城街,博物大道309号,景点,科技馆,114.818723,30.844643
显灵观,湖北,武汉,新洲区,027,,新洲区,072乡道西150米,景点,宗教,114.79594,30.787679
龙华寺,湖北,武汉,新洲区,027,,新洲区中心/邾城街,106国道,景点,宗教,114.820231,30.843905
明王寺,湖北,武汉,新洲区,027,,新洲区,沿河大道,景点,宗教,114.687223,30.851023
高峰寺,湖北,武汉,新洲区,027,,新洲区,新洲402县道,景点,宗教,114.84716,30.92005
蒋家古庙,湖北,武汉,新洲区,027,,新洲区,民防路,景点,宗教,114.789566,30.814316
净土庵,湖北,武汉,新洲区,027,,新洲区,汪五房湾136号,景点,宗教,114.81093,30.86815
通禅湖景区,湖北,武汉,新洲区,027,,新洲区,005乡道东南侧,景点,自然风光,115.010316,30.870512
绿瀛园林,湖北,武汉,新洲区,027,,新洲区,仓埠街丰乐村特1号正东方向110米,景点,植物园,114.613813,30.813643
菩提弥陀寺,湖北,武汉,新洲区,027,,新洲区,徐铁线,景点,宗教,114.992591,30.868261
凯旋国际旅行社,湖北,武汉,新洲区,027,86968993;86969033,阳逻开发区,环城路汽车六队门面17号,景点,旅行社,114.562995,30.655955
竹筒寺,湖北,武汉,新洲区,027,,新洲区,汪兴路与商发街交叉口东北420米,景点,宗教,114.711867,30.783117
中南国际旅游公司,湖北,武汉,新洲区,027,,阳逻开发区,阳逻街长丰路22号,景点,旅行社,114.570065,30.656652
观景园,湖北,武汉,新洲区,027,,新洲区,005乡道,景点,更多景点/周边游,115.002431,30.865995
徐源泉公馆,湖北,武汉,新洲区,027,89060009,新洲区,正源路,景点,人文古迹,114.6001,30.832504
中国国旅,湖北,武汉,新洲区,027,68833364,新洲区中心/邾城街,齐安大道蔡濠幼儿园西南侧约60米,景点,旅行社,114.804119,30.848675
孔庙,湖北,武汉,武汉,027,,黄陂区,蔡店街道013乡道,景点,宗教,114.271947,31.237078
新洲古佛寺,湖北,武汉,新洲区,027,,新洲区,生生路东50米,景点,宗教,114.709801,30.768747
柴泊湖休闲广场,湖北,武汉,新洲区,027,,阳逻开发区,环湖路19号,景点,广场,114.566719,30.669544
乳业科技博览中心,湖北,武汉,武汉,027,,黄陂区,武湖街道中心路,景点,展览馆,114.468744,30.718238
海会塔,湖北,武汉,新洲区,027,,新洲区,辛冲街道111省道,景点,宗教,114.820287,30.822967
杨河小学科技馆,湖北,武汉,武汉,027,,黄陂区,十素线与014乡道交叉口西北140米,景点,科技馆,114.274587,31.211915
畜禽良种展示中心,湖北,武汉,武汉,027,,黄陂区,中心路2号附近,景点,展览馆,114.468766,30.718236
茶源广场,湖北,武汉,武汉,027,,黄陂区,民群大街40号,景点,广场,114.538381,30.924581
木兰湖游客服务中心,湖北,武汉,武汉,027,133****6780,黄陂区,演武路1号,景点,公园/广场,114.472072,31.095798
夏家寺,湖北,武汉,武汉,027,,黄陂区,环湖线,景点,宗教,114.465467,31.06278
扬楼子老榨坊博物馆,湖北,武汉,武汉,027,,黄陂区,盘龙大道21号,景点,博物馆,114.260623,30.707921
木兰将军寺,湖北,武汉,武汉,027,,黄陂区,木兰墓附近,景点,宗教,114.400428,31.115138
木兰墓,湖北,武汉,武汉,027,,黄陂区,木兰文化生态旅游区木兰将军寺,景点,古代遗迹,114.400761,31.115081
肖家庙,湖北,武汉,武汉,027,,黄陂区,长江金属交易中心东侧480米,景点,宗教,114.492311,30.708811
黄陂古佛寺,湖北,武汉,武汉,027,,黄陂区,318国道,景点,宗教,114.600561,30.882561
普济禅寺,湖北,武汉,武汉,027,,黄陂区,河露街与中兴路交叉口西北方向120米,景点,宗教,114.219554,30.807674
后湖水乡荷花生态乡村游,湖北,武汉,武汉,027,,黄陂区,盘龙一路,景点,更多景点/周边游,114.309017,30.722933
木兰山地质博物馆,湖北,武汉,武汉,027,,黄陂区,胜景大道54号,景点,博物馆,114.389052,31.098032
会龙古寺,湖北,武汉,武汉,027,,黄陂区,蔡栗线附近,景点,宗教,114.574069,30.961646
杨森公馆,湖北,武汉,武汉,027,,港澳台风情街,惠济路39号,景点,人文古迹,114.291855,30.611742
赞育汽水厂旧址,湖北,武汉,武汉,027,,客运港/江滩,洞庭街103-105号,景点,古代遗迹,114.302033,30.589033
中孚银行旧址,湖北,武汉,武汉,027,,江汉路步行街,南京路47号,景点,古代遗迹,114.293702,30.582522
唐生智公馆,湖北,武汉,武汉,027,,客运港/江滩,胜利街163-165号,景点,人文古迹,114.298311,30.587791
首善堂,湖北,武汉,武汉,027,,客运港/江滩,黎黄陂路27号,景点,历史建筑,114.299049,30.587807
咸安坊,湖北,武汉,武汉,027,,江汉路步行街,青岛路与鄱阳街交叉路口往西约60米,景点,人文古迹,114.295961,30.582787
宝顺洋行旧址,湖北,武汉,武汉,027,,客运港/江滩,天津路5号,景点,古代遗迹,114.299139,30.583228
新泰大楼旧址,湖北,武汉,武汉,027,132****1681,客运港/江滩,沿江大道158号,景点,古代遗迹,114.30163,30.584777
萧耀南公馆,湖北,武汉,武汉,027,,余家头/四美塘,中山大道911号,景点,人文古迹,114.302176,30.592401
大陆坊旧址,湖北,武汉,武汉,027,,客运港/江滩,中山大道928号（江汉路地铁站A口步行290米）,景点,古代遗迹,114.292969,30.582554
泰兴里,湖北,武汉,武汉,027,,客运港/江滩,胜利街160号,景点,步行街,114.300584,30.589181
日信洋行,湖北,武汉,武汉,027,,客运港/江滩,江汉路12号,景点,人文古迹,114.296755,30.576921
安息日会警世堂旧址,湖北,武汉,武汉,027,,客运港/江滩,中山大道769号,景点,古代遗迹,114.297412,30.58982
德国工部巡捕房旧址,湖北,武汉,武汉,027,,客运港/江滩,胜利街271号,景点,古代遗迹,114.3041,30.59488
永利银行旧址,湖北,武汉,武汉,027,,江汉路步行街,江汉路20号,景点,古代遗迹,114.295712,30.577282
基督教青会汉口会所旧址,湖北,武汉,武汉,027,82832142,客运港/江滩,中山大道1090号,景点,宗教,114.297925,30.589184
日本领事馆旧址,湖北,武汉,武汉,027,,客运港/江滩,沿江大道234号,景点,古代遗迹,114.311058,30.602428
日租界军官宿舍旧址,湖北,武汉,武汉,027,,客运港/江滩,胜利街264-272号,景点,古代遗迹,114.309083,30.602284
松鼠乐园,湖北,武汉,武汉,027,86430007,东湖风景区,青王公路东湖落雁景区内,景点,自然风光,114.43374,30.55999
完美旅程国际旅行社,湖北,武汉,武汉,027,82756712;180****8686,客运港/江滩,黄石路9号德润大厦祥润楼1407室,景点,旅行社,114.29179,30.58602
旅游百事通,湖北,武汉,武汉,027,86571860,八大家/红钢城,辽宁街4附7号,景点,旅行社,114.380921,30.619331
童家湖,湖北,武汉,武汉,027,,黄陂区,盘龙城经济开发区,景点,自然风光,114.182701,30.763271
中国国旅,湖北,武汉,武汉,027,82410062,港澳台风情街,黄孝河路特一号王府花园A栋2201室,景点,旅行社,114.289774,30.605018
宝中旅游,湖北,武汉,武汉,027,82778211;82778233,宝丰,解放大道1007号宝丰路兴隆大厦10楼,景点,旅行社,114.252811,30.578571
海旅百事通国际旅行社,湖北,武汉,武汉,027,85308712,常青花园,常青花园武商量贩1楼,景点,旅行社,114.238712,30.639522
中国国旅奥林花园门市,湖北,武汉,武汉,027,68833374,江汉大学,芳草二路临18号,景点,旅行社,114.179079,30.513209
中国国旅,湖北,武汉,武汉,027,68833374,百步亭/二七,东立街315号,景点,旅行社,114.31023,30.62227
海旅百事通国际旅行社,湖北,武汉,武汉,027,86860137,八大家/红钢城,工业二路26号,景点,旅行社,114.395835,30.622865
康辉国际旅行社汉口花园门市,湖北,武汉,武汉,027,65696966,后湖,后湖大道汉口花园一期B区52附42室,景点,旅行社,114.267419,30.631575
中国国旅武汉国际旅行社公司杨园门市,湖北,武汉,武汉,027,51157003,徐东大街,杨园街和平大道743号铁四院天桥老单宿舍,景点,旅行社,114.343801,30.600961
顺昌号楚园博物馆,湖北,武汉,武汉,027,,徐东大街,徐东大街18号徐东古玩城旁,景点,博物馆,114.345233,30.586643
幸运乐游国际旅行社,湖北,武汉,武汉,027,,江岸区,路幸福里商业街D101室,景点,旅行社,114.314019,30.655819
中国国旅,湖北,武汉,武汉,027,82241359;135****0875,竹叶山/花桥,建设大道830号附4,景点,旅行社,114.295712,30.616422
中国旅行社,湖北,武汉,武汉,027,158****8890,首义汇/阅马场,临江大道汉阳门码头5号,景点,旅行社,114.293959,30.548746
中国国旅,湖北,武汉,武汉,027,68833374;68833364,八大家/红钢城,和平大道959号武商众圆广场B1层,景点,旅行社,114.375352,30.624679
中国国旅,湖北,武汉,武汉,027,4001171177,港澳台风情街,香港路237号附15号（香港路地铁站F口步行390米）,景点,旅行社,114.279496,30.608631
中国国旅,湖北,武汉,武汉,027,139****4723,徐东大街,徐东大街207附22号,景点,旅行社,114.3665,30.576011
航空假日国际旅行社（中商店）,湖北,武汉,新洲区,027,86985156;189****7526,阳逻开发区,阳光大道389号中商平价一楼,景点,旅行社,114.568035,30.662995
中国国旅,湖北,武汉,武汉,027,4001171177,钟家村,阳新路33号,景点,旅行社,114.273849,30.545129
中国国旅,湖北,武汉,武汉,027,68833364;68833374,南湖花园,平安路314号,景点,旅行社,114.321482,30.512874
中青旅,湖北,武汉,武汉,027,,武昌火车站,紫阳街道张之洞路243附近,景点,旅行社,114.31002,30.533029
康辉国际旅行社,湖北,武汉,武汉,027,134****5331,石牌岭/街道口,珞瑜路147号未来城C栋15楼1501室,景点,旅行社,114.353462,30.52532
中国国旅,湖北,武汉,武汉,027,,钟家村,归元寺路18号,景点,旅行社,114.260519,30.546809
中国国旅武汉国际旅行社公司杨园门市,湖北,武汉,武汉,027,68833374;68833364,后湖,后湖大道156号,景点,旅行社,114.299112,30.647338
中国国旅,湖北,武汉,武汉,027,4001171177,汉阳大道,汉阳大道221号（汉阳火车站）,景点,旅行社,114.250592,30.551432
花果山风景旅游区,湖北,武汉,新洲区,027,89008299,新洲区,仓埠街215乡道上店村,景点,自然风光,114.652557,30.922457
新华旅行社,湖北,武汉,武汉,027,158****5188,六渡桥/汉正街,前进五路前进电脑城写字楼B-104室,景点,旅行社,114.287086,30.581527
总统系列游轮,湖北,武汉,武汉,027,84712307,琴台,晴川街道洗马长街88号（晴川饭店后）,景点,城市观光,114.285103,30.55727
新航线国际旅行社,湖北,武汉,武汉,027,82839991,客运港/江滩,胜利街六合路313号,景点,旅行社,114.307461,30.600037
华侨城生态艺术公园,湖北,武汉,武汉,027,,欢乐大道/仁和路,台北路225号,景点,公园/广场,114.386519,30.586151
深鸿润国际文化科技城展示中心,湖北,武汉,武汉,027,,蔡甸区,凤凰山工业园五贤北路2号,景点,展览馆,114.068331,30.566501
湖北峡州国际旅行社有限公司,湖北,武汉,武汉,027,139****1047,汉口火车站,后襄河北路59号海马中心20楼,景点,旅行社,114.255075,30.611695
武汉扬歌旅途国际旅行社,湖北,武汉,武汉,027,88188478,百步亭/二七,头道街航天双城8栋一单元1403室,景点,旅行社,114.316031,30.623871
春申君黄歇墓,湖北,武汉,武汉,027,,江夏区,107国道吉家畈,景点,古代遗迹,114.263767,30.312289
长江轮船海外旅游总公司,湖北,武汉,武汉,027,82765171,客运港/江滩,沿江大道69号长航大厦8层,景点,旅行社,114.294665,30.571115
宝中旅游,湖北,武汉,武汉,027,86564588;177****3344,八大家/红钢城,钢花村街道辽宁街80号,景点,旅行社,114.383452,30.621512
保安洋行旧址,湖北,武汉,武汉,027,,江汉路步行街,青岛路8号,景点,古代遗迹,114.298372,30.581779
长江局旧址,湖北,武汉,武汉,027,,江汉路步行街,珞珈山街12号,景点,古代遗迹,114.299656,30.586858
慈惠基督教蒙恩堂,湖北,武汉,武汉,027,,东西湖区,慈惠墩595号,景点,宗教,114.131924,30.594524
俄租界工部局旧址,湖北,武汉,武汉,027,,客运港/江滩,黎黄陂路36号,景点,古代遗迹,114.298919,30.588249
汉口民国日报社旧址,湖北,武汉,武汉,027,,六渡桥/汉正街,泰宁街2号,景点,古代遗迹,114.287577,30.584231
汉口新市场旧址,湖北,武汉,武汉,027,,六渡桥/汉正街,中山大道704附1号（六渡桥地铁站C1口步行220米）,景点,古代遗迹,114.287051,30.575981
华俄道胜银行旧址,湖北,武汉,武汉,027,,江汉路步行街,沿江大道162号,景点,古代遗迹,114.30242,30.5865
武汉两江游览游船,湖北,武汉,武汉,027,88109920;185****6820,首义汇/阅马场,中华路4号码头,景点,城市观光,114.297756,30.55424
梦幻岛,湖北,武汉,武汉,027,,光谷/东湖高新区,第五大道万科城市花园,景点,公园/广场,114.410098,30.459842
木兰湖风景区,湖北,武汉,武汉,027,61550327,黄陂区,演武街1号,景点,自然风光,114.471529,31.096259
徐荣廷故居,湖北,武汉,武汉,027,,首义汇/阅马场,民主路6号,景点,名人故居,114.295029,30.547106
中国国旅,湖北,武汉,武汉,027,68833374,硚口路,解放大道667号滨江阁大酒店内,景点,旅行社,114.238479,30.576519
中国国旅,湖北,武汉,武汉,027,4001171177,硚口路,建设大道431号世纪花园酒店一楼商务中心,景点,旅行社,114.24996,30.58408
中青旅行社,湖北,武汉,武汉,027,87839765,中南路/洪山广场,中南路80号中南大厦1层,景点,旅行社,114.335851,30.542281
金家墩旅游集散中心,湖北,武汉,武汉,027,85831882,汉口火车站,汉口发展大道金家墩长途客运站省客旅游大楼6楼,景点,旅行社,114.255335,30.619565
王家墩公园,湖北,武汉,武汉,027,,武汉商务区,清江路与云飞路交叉口南50米,景点,公园/广场,114.248329,30.602516
春秋国际旅行社,湖北,武汉,武汉,027,82779977,客运港/江滩,车站路怡东大厦5楼,景点,旅行社,114.30222,30.58952
西商赛马俱乐部旧址,湖北,武汉,武汉,027,,解放公园/武汉天地,解放大道1809号西商,景点,古代遗迹,114.301521,30.605534
武汉廷怀汝瓷艺术馆,湖北,武汉,武汉,027,85812999,汉口火车站,金墩街15号,景点,美术馆,114.258499,30.6175
易游天下旅行社,湖北,武汉,武汉,027,135****5445;186****0733,后湖,百步亭花园后湖南路109号,景点,旅行社,114.313486,30.650306
白求恩纪念馆,湖北,武汉,武汉,027,84826274,钟家村,显正街142号附近,景点,纪念馆,114.27105,30.54799
康辉国际旅行社,湖北,武汉,武汉,027,87528838,石牌岭/街道口,珞狮路122号理工大学东院,景点,旅行社,114.351637,30.518995
融侨林,湖北,武汉,武汉,027,,和平大道积玉桥,友谊大道194-15号,景点,更多景点/周边游,114.316761,30.563371
中南国际商旅,湖北,武汉,武汉,027,,八大家/红钢城,辽宁街17号,景点,旅行社,114.382887,30.621452
中国康辉武汉旅行社,湖北,武汉,武汉,027,87828737,中南路/洪山广场,国际金融贸易大厦11楼,景点,旅行社,114.330781,30.534929
中国国旅,湖北,武汉,武汉,027,4001171177,港澳台风情街,台北街高雄路18号一楼,景点,旅行社,114.286729,30.595028
人口文化园,湖北,武汉,武汉,027,,吴家山,田园街175号,景点,文化公园,114.139763,30.621458
海旅百事通国际旅行社,湖北,武汉,武汉,027,181****9696,和平大道积玉桥,徐家棚街道团结大道5号湖大琴园小区5号门面,景点,旅行社,114.327128,30.573532
梦泽湖公园,湖北,武汉,武汉,027,,武汉商务区,云飞路附近,景点,公园/广场,114.243415,30.591207
三汉雕塑工作室,湖北,武汉,武汉,027,88850788,和平大道积玉桥,昙华林东,景点,博物馆,114.309601,30.552219
警察史博物馆,湖北,武汉,武汉,027,,古田路,南泥湾大道99号,景点,博物馆,114.206985,30.6024
旅游百事通,湖北,武汉,武汉,027,84769803,鹦鹉大道,夹河路14附6号,景点,旅行社,114.269194,30.540221
康辉旅游,湖北,武汉,武汉,027,,石牌岭/街道口,湖北科技创业大厦A座-14层,景点,旅行社,114.355549,30.536159
中国国际旅行社,湖北,武汉,武汉,027,136****3655,江汉区,红旗渠路77号,景点,旅行社,114.254991,30.624791
武汉风采国际旅行社,湖北,武汉,武汉,027,87888888,唐家墩/菱角湖,唐家墩路6附2号,景点,旅行社,114.270845,30.609735
康辉国际旅行社,湖北,武汉,武汉,027,88041377,首义汇/阅马场,楚善街,景点,旅行社,114.306177,30.535207
扬子书画院,湖北,武汉,武汉,027,155****4656;189****3101,客运港/江滩,鄱阳街鄱阳新里1号一元街扬子社区服务站三楼,景点,美术馆,114.294668,30.580168
毛泽东像章博物馆,湖北,武汉,武汉,027,,首义汇/阅马场,黄鹤楼街道体育街18号附近,景点,博物馆,114.304212,30.542697
中和彩色植物生态园,湖北,武汉,武汉,027,,东西湖区,走马岭街惠安大道特1号,景点,动植物园,113.996216,30.645848
小龟山,湖北,武汉,武汉,027,,珞珈山,人文路武汉大学（文理学部）,景点,自然风光,114.36827,30.53772
中国国旅,湖北,武汉,武汉,027,84478198,沌口,宁康路58号a区,景点,旅行社,114.168193,30.496233
中国国旅,湖北,武汉,武汉,027,84814446;83808250,汉阳大道,七里晴川1附63号,景点,旅行社,114.223497,30.555018
中国国旅,湖北,武汉,武汉,027,4001171177,汉口火车站,红旗渠路华苑小区48栋（翠竹苑9栋）3单元1层2室（翠竹苑9栋）,景点,旅行社,114.259147,30.625897
中国国旅,湖北,武汉,武汉,027,4001171177,后湖,后湖二路武汉大隆幸福大道CNG油气合建站东侧约160米,景点,旅行社,114.288614,30.639944
中国国旅,湖北,武汉,武汉,027,84661597;180****3116,沌口,沌口经济开发区升官渡小区门点2号楼第4间1层,景点,旅行社,114.190518,30.529158
中国国旅,湖北,武汉,武汉,027,68833364,水果湖,水果湖横路一号省政府隔壁湖北饭店正对面,景点,旅行社,114.342969,30.545552
武汉港中国际旅行社,湖北,武汉,武汉,027,130****9688,江汉路步行街,新华路186号福星国际商会大厦F1层,景点,旅行社,114.275564,30.588784
东方乐悠国际旅行社,湖北,武汉,武汉,027,4000040013,硚口路,硚口居仁门崇仁新都802,景点,旅行社,114.262047,30.568686
牡丹亭,湖北,武汉,武汉,027,,宝丰,航空侧路13号附81号,景点,更多景点/周边游,114.260873,30.585013
曾卓故居,湖北,武汉,武汉,027,88866063,大东门/小东门,民主路486号,景点,名人故居,114.312161,30.543701
旅游百事通,湖北,武汉,武汉,027,87778703,和平大道积玉桥,积玉桥万达广场13号楼913室,景点,旅行社,114.307328,30.557828
徐东国际旅行社,湖北,武汉,武汉,027,181****1397;159****0477,中南路/洪山广场,中南路中商广场,景点,旅行社,114.331917,30.536285
云南航空国际观光旅行社,湖北,武汉,武汉,027,189****4777,客运港/江滩,洞庭街妇联大厦,景点,旅行社,114.302948,30.590246
海峡旅行社,湖北,武汉,武汉,027,159****6598,汉口火车站,田园小区18栋11层,景点,旅行社,114.275102,30.620538
东南航空国际旅行社,湖北,武汉,武汉,027,83836011;181****3715,古田路,解放大道古田二路轻轨站（古田二路地铁站C口旁）,景点,旅行社,114.200356,30.594597
首义广场,湖北,武汉,武汉,027,88870063,首义汇/阅马场,武珞路特1号,景点,广场,114.305498,30.537481
武汉木兰草原风景区,湖北,武汉,武汉,027,85008066;85008100,黄陂区,王家河镇张家榨村,景点,自然风光,114.461033,30.961283
徐东国旅,湖北,武汉,武汉,027,150****5027,余家头/四美塘,梨园街徐风公寓2-4-602,景点,旅行社,114.352872,30.586592
武汉地铁科普馆,湖北,武汉,武汉,027,131****5995,西北湖,建设大道675号王家墩东地铁站d出口,景点,科技馆,114.263882,30.594589
汉秀剧场,湖北,武汉,武汉,027,82878262;4008270055,水果湖,水果湖街东湖路138号2栋,景点,旅游项目/观光项目,114.348081,30.551603
两江游览游轮婚礼,湖北,武汉,武汉,027,82779136,客运港/江滩,汉口粤汉码头63号,景点,水上项目/水上体验,114.306784,30.589419
中国国旅,湖北,武汉,武汉,027,68833374,光谷/鲁巷,楚康路98号,景点,旅行社,114.370307,30.501596
康辉旅游,湖北,武汉,武汉,027,87051902,卓刀泉/虎泉,卓刀泉南路方家嘴学雅芳邻一期,景点,旅行社,114.365789,30.503339
完美旅程国际旅行社,湖北,武汉,武汉,027,180****6778,江汉路步行街,京汉大道循礼门世纪大厦14楼D座,景点,旅行社,114.289736,30.581981
新华崇文国际旅行社,湖北,武汉,武汉,027,158****5188,唐家墩/菱角湖,菱角湖万达广场A1座2308室,景点,旅行社,114.267639,30.612301
欧姆龙制氧机实体店销售,湖北,武汉,武汉,027,87830516,水果湖,东湖路103号,景点,公园/广场,114.349611,30.552841
万国公园,湖北,武汉,武汉,027,,东湖风景区,青王路滨湖村大庙咀,景点,公园/广场,114.440651,30.545975
宝珍堂艺术馆,湖北,武汉,武汉,027,,水果湖,水果湖街沙湖大道18号万达广场2F层,景点,美术馆,114.337952,30.555658
武汉大学校史馆,湖北,武汉,武汉,027,68753487,珞珈山,八一路299号,景点,展览馆,114.363876,30.540113
花园山天文台遗址,湖北,武汉,武汉,027,,和平大道积玉桥,花园山4号,景点,更多景点/周边游,114.309982,30.550797
知音广场,湖北,武汉,武汉,027,,楚河汉街,楚河汉街1号武汉中央文化旅游区-楚河汉街第一街区,景点,步行街,114.341072,30.55475
正鑫玲一,湖北,武汉,武汉,027,4009949360,光谷/鲁巷,鲁磨路联峰大厦802室,景点,旅行社,114.398143,30.507638
鄂之旅国际旅行社,湖北,武汉,武汉,027,159****0242,徐东大街,徐东大街汪家墩福星惠誉国际城8-2-2101室,景点,旅行社,114.354131,30.581121
向警予故居,湖北,武汉,武汉,027,,客运港/江滩,中山大道车站路三德社区,景点,名人故居,114.300057,30.59215
恽代英故居,湖北,武汉,武汉,027,,司门口,中华路67号附8东北方向140米,景点,名人故居,114.303452,30.549778
界立方创意空间,湖北,武汉,武汉,027,82345818,客运港/江滩,合作路14号,景点,创意园区,114.300171,30.584179
要出发旅行网,湖北,武汉,武汉,027,,汉口火车站,金墩街15号财神商业广场8楼C3-C4,景点,旅行社,114.258369,30.617836
湖北省海外旅游（集团）有限公司,湖北,武汉,武汉,027,4000606176,光谷天地,光谷软件园中百超市旁,景点,旅行社,114.402033,30.473811
武汉交通国际旅行社,湖北,武汉,武汉,027,59402832,汉口火车站,常青路福星惠誉福星城1栋1单元3115室,景点,旅行社,114.244489,30.619689
东湖国际会议中心黄鹂厅,湖北,武汉,武汉,027,,东湖风景区,东湖风景区街道东湖路146号,景点,景点/周边游,114.372561,30.560511
天下口岸国际旅行社,湖北,武汉,武汉,027,189****4432,竹叶山/花桥,江大路统建大江园12栋,景点,旅行社,114.293099,30.616959
西北湖,湖北,武汉,武汉,027,85748936,西北湖,北湖街道西北湖路（西北湖停车场旁）,景点,城市公园,114.267956,30.593525
北太子湖,湖北,武汉,武汉,027,,江汉大学,东风大道三环线交汇处,景点,自然风光,114.194313,30.515242
竹子湖,湖北,武汉,武汉,027,,洪山区,花山镇（武鄂高速公路严西湖东）,景点,自然风光,114.529659,30.572319
杜公湖,湖北,武汉,武汉,027,,东西湖区,外环高速,景点,自然风光,114.149072,30.710425
月牙湖,湖北,武汉,武汉,027,,东西湖区,水产村,景点,自然风光,114.065924,30.648918
沉湖湿地,湖北,武汉,武汉,027,,蔡甸区,西南部长江与汉江交汇的三角地带,景点,自然风光,113.860497,30.298672
新华崇文国际旅行社,湖北,武汉,武汉,027,180****8210;189****4800,光谷/鲁巷,光谷尚都2栋1916室,景点,旅行社,114.402131,30.504291
张毕湖公园,湖北,武汉,武汉,027,83220049,吴家山,张公堤与S17硚孝高速交叉口西南50米,景点,公园/广场,114.161723,30.625099
徐东国际旅行社,湖北,武汉,武汉,027,86811898,徐东大街,徐东大街27号（徐东地铁站C2口步行140米）,景点,旅行社,114.346183,30.589533
旅游百事通,湖北,武汉,武汉,027,,水果湖,黄鹂路,景点,旅行社,114.363092,30.564732
旅游百事通,湖北,武汉,武汉,027,,八大家/红钢城,工业一路,景点,旅行社,114.391778,30.630777
中国国旅,湖北,武汉,武汉,027,88772164;158****3869,南湖花园,南湖街道建安街南湖沁康园19-1-102,景点,旅行社,114.315934,30.506288
老斋舍,湖北,武汉,武汉,027,,珞珈山,珞珈山16号武汉大学,景点,更多景点/周边游,114.363892,30.539635
世界文化名人园,湖北,武汉,武汉,027,87542228,光谷/鲁巷,珞瑜路1037号,景点,更多景点/周边游,114.41732,30.51072
爱因斯坦广场,湖北,武汉,武汉,027,,光谷/东湖高新区,华中科技大学东校区韵苑公寓17栋东南20米,景点,广场,114.43557,30.514133
万达室外步行街,湖北,武汉,武汉,027,,和平大道积玉桥,万达广场soho9号楼15层,景点,步行街,114.310342,30.565394
武汉市佳美园林西湖半岛生态园,湖北,武汉,武汉,027,135****1948;138****0461,蔡甸区,张湾街乌梅村姜家咀,景点,动植物园,113.954857,30.547587
黄鹤楼,湖北,武汉,武汉,027,88875096,武胜路凯德广场,长堤街（凯德广场武胜店南侧约80米）,景点,历史建筑,114.267625,30.567488
旅游百事通,湖北,武汉,武汉,027,85493885,汉口火车站,红旗渠路189附10号（石桥地铁站F口步行480米）,景点,旅行社,114.263169,30.627049
九州旅游,湖北,武汉,武汉,027,83666316,硚口路,硚口路城市广场B栋1614室,景点,旅行社,114.252348,30.576118
武汉琴台钢琴博物馆,湖北,武汉,武汉,027,84799618,汉阳大道,知音大道琴台大剧院1层东2门,景点,博物馆,114.260078,30.560326
武汉紫薇都市田园,湖北,武汉,新洲区,027,89083898,新洲区,109省道仓埠街道丰乐村特1号,景点,自然景观,114.607391,30.81534
中国国旅,湖北,武汉,武汉,027,186****1766,解放公园/武汉天地,解放大道1783-1号,景点,旅行社,114.301313,30.602653
中国国旅,湖北,武汉,武汉,027,82285322,百步亭/二七,东立街315号,景点,旅行社,114.315329,30.625719
来客旅游,湖北,武汉,武汉,027,4000274777,光谷/鲁巷,民族大道与珞瑜路交汇处光谷步行街内,景点,旅行社,114.401955,30.504827
龟山电视塔,湖北,武汉,武汉,027,84713691,琴台,龟北路特1号龟山公园,景点,现代建筑,114.280579,30.555544
康辉国际旅行社,湖北,武汉,武汉,027,135****9025,徐东大街,欢乐大道东湖景园33栋1楼心鑫源宾馆大堂,景点,旅行社,114.373953,30.583892
波咯波咯童话国,湖北,武汉,武汉,027,,汉口火车站,泛海城市广场1楼（地铁2号线范湖站B出口）,景点,主题公园,114.255302,30.603645
恒河生态园,湖北,武汉,武汉,027,138****3550,江夏区,劳七村,景点,动植物园,114.280118,30.298718
人上人国际旅行社,湖北,武汉,武汉,027,153****8771,徐东大街,友谊大道团结路佳馨花园二期2栋,景点,旅行社,114.33896,30.586344
403国际艺术中心,湖北,武汉,武汉,027,180****2239,丁字桥/石牌岭,宝通寺路33号（瑞景路）,景点,美术馆,114.33625,30.523508
武汉联友国际旅行社,湖北,武汉,武汉,027,153****1007,宝丰,解放大道763号海军工程大学1号门商务2楼,景点,旅行社,114.252236,30.579246
新华国际旅行社,湖北,武汉,武汉,027,4009900855,钟家村,拦江路132号,景点,旅行社,114.27487,30.545327
荷兰风情商业街,湖北,武汉,武汉,027,,光谷/鲁巷,民族大道163号,景点,观光街区,114.397806,30.494961
外滩商街,湖北,武汉,武汉,027,,三阳路/山海关路,汉口大智路轻轨站B出口前行300米中城国际,景点,步行街,114.298721,30.595171
一起旅行,湖北,武汉,武汉,027,158****7892,江汉路步行街,京汉大道万科金色家园二期商业420-421室,景点,旅行社,114.28071,30.58167
智慧星星旅游,湖北,武汉,武汉,027,185****7863,石牌岭/街道口,珞狮南路147号未来城C栋1902,景点,旅行社,114.353678,30.525291
新天国际旅行社有限公司,湖北,武汉,武汉,027,82791533,港澳台风情街,惠济路长航大酒店二楼,景点,旅行社,114.289196,30.607935
海之韵旅行社,湖北,武汉,武汉,027,159****4948,石牌岭/街道口,张之洞路268号30号楼,景点,旅行社,114.311747,30.532997
柏林广场,湖北,武汉,武汉,027,,光谷/鲁巷,珞喻路726号西区6号楼,景点,广场,114.408357,30.501557
米兰春天广场,湖北,武汉,武汉,027,,光谷/鲁巷,珞雄路光谷步行街,景点,广场,114.406478,30.502458
罗马凯撒广场,湖北,武汉,武汉,027,,光谷/鲁巷,光谷街与梳子桥路交叉口西160米,景点,步行街,114.408188,30.501674
沛美达,湖北,武汉,武汉,027,,江夏区,岭庙街老屋胡村（107国道1278KM处）,景点,更多景点/周边游,114.37913,30.33635
合美术馆,湖北,武汉,武汉,027,87157909,珞狮南路,野芷湖西路16号,景点,美术馆,114.323631,30.470356
武汉大唐国际旅行社,湖北,武汉,武汉,027,85886015,六渡桥/汉正街,沿江大道王家巷航务大厦3楼,景点,旅行社,114.294598,30.570508
中国国旅,湖北,武汉,武汉,027,68833364;68833374,解放公园/武汉天地,永清小路永清庭苑22附27号,景点,旅行社,114.299757,30.613454
康辉国际旅行社,湖北,武汉,武汉,027,84655937,王家湾,龙阳大道特3号-武汉摩尔城C区四楼,景点,旅行社,114.207207,30.559366
码头潭遗址公园,湖北,武汉,武汉,027,,吴家山,金山大道1143号,景点,城市观光,114.126283,30.635927
美旅网,湖北,武汉,武汉,027,186****7179,丁字桥/石牌岭,丁字桥路123号,景点,旅行社,114.329117,30.521343
联友国际旅行社,湖北,武汉,武汉,027,153****1007,竹叶山/花桥,江大路统建大江园南苑12栋4单元303室,景点,旅行社,114.293085,30.616865
联友国际旅行社,湖北,武汉,武汉,027,153****1007,百步亭/二七,后湖大道新生活摩尔城2001室,景点,旅行社,114.321704,30.655958
九州旅游,湖北,武汉,武汉,027,50669956,卓刀泉/虎泉,雄楚大道翡翠城1905室,景点,旅行社,114.36954,30.506779
联友国旅,湖北,武汉,武汉,027,153****1007,首义汇/阅马场,阅马场云鹤大厦1501室,景点,旅行社,114.309055,30.540145
菱角湖金街,湖北,武汉,武汉,027,,唐家墩/菱角湖,唐家墩路5号万达广场F1层,景点,观光街区,114.267342,30.609552
滠水公园,湖北,武汉,武汉,027,,黎黄陂广场,双凤大桥旁,景点,公园/广场,114.386624,30.871634
康輝旅游,湖北,武汉,武汉,027,86777528,珞珈山,科技创业大厦a座,景点,旅行社,114.355289,30.536399
旅游百事通,湖北,武汉,武汉,027,186****9988,汉阳大道,琴台大道华润中央公园一期4栋,景点,旅行社,114.240092,30.565362
旅游百事通,湖北,武汉,武汉,027,180****6731,港澳台风情街,解放大道,景点,旅行社,114.295017,30.596977
内沙湖公园,湖北,武汉,武汉,027,,和平大道积玉桥,友谊大道194号附近,景点,公园/广场,114.315491,30.562666
非遗艺术博物馆,湖北,武汉,武汉,027,,竹叶山/花桥,解放公园路50号永成大厦12层,景点,博物馆,114.286575,30.610785
中华三百六十行雕塑馆,湖北,武汉,武汉,027,,和平大道积玉桥,昙华林艺术区,景点,美术馆,114.305557,30.553057
联友国际旅行社,湖北,武汉,武汉,027,134****6912,徐东大街,徐东大街团结大道鸿江花畔里4栋2单元602室,景点,旅行社,114.363431,30.591931
七彩花海公园,湖北,武汉,武汉,027,,梁子湖风景区,梁子湖大道当代薰衣草风情园正西850米,景点,公园/广场,114.430124,30.28017
中国国旅,湖北,武汉,武汉,027,,欢乐大道/仁和路,祥丰路138号,景点,旅行社,114.377339,30.607867
大唐旅游,湖北,武汉,武汉,027,180****3818,后湖,金桥大道117号市民之家负一层,景点,旅行社,114.295819,30.661879
武汉中国旅行社,湖北,武汉,武汉,027,180****6778,光谷/鲁巷,民族大道218号,景点,旅行社,114.39782,30.498308
中国国旅,湖北,武汉,武汉,027,68833374;68833364,徐东大街,友谊大道396号福客茂F2层,景点,旅行社,114.341178,30.586741
快乐码头休闲广场,湖北,武汉,武汉,027,,客运港/江滩,江汉二路181号亚洲证券大厦,景点,广场,114.293917,30.586397
木兰玫瑰园,湖北,武汉,武汉,027,85019019,黄陂区,王家河街胜天村罗家大湾1号,景点,植物园,114.438751,31.025286
路步行街·夜市,湖北,武汉,武汉,027,,江汉路步行街,江汉路步行街（循礼门-地铁站）,景点,夜市,114.297493,30.576253
中国国旅,湖北,武汉,武汉,027,68833374,百步亭/二七,后湖街道兴业路320号附4,景点,旅行社,114.320681,30.649136
中国国旅,湖北,武汉,武汉,027,4001171177,硚口路,中山大道113号（原硚口区委礼堂1号楼）一层,景点,旅行社,114.263703,30.569403
徐东国际旅行社,湖北,武汉,武汉,027,139****0575;150****5027,岳家嘴/东亭,中北路140号,景点,旅行社,114.356728,30.571028
黄陂木兰胜天农庄风景区,湖北,武汉,武汉,027,85008888;85008999,黄陂区,王家河街道长堰木兰胜天农庄风景区,景点,自然风光,114.428757,31.036652
武汉交通国际旅行社,湖北,武汉,武汉,027,153****7270,汉口火车站,常青街道发展大道176号兴城大厦A座12层3室,景点,旅行社,114.255417,30.610417
武汉两江游览游船,湖北,武汉,武汉,027,82779136;82782992,客运港/江滩,沿江大道181号粤汉码头,景点,河道观光,114.306816,30.589422
武汉植物园,湖北,武汉,武汉,027,87510783;87510815,东湖风景区,(洪山)鲁磨路特1号,景点,植物园,114.422997,30.544521
风行天下旅行社,湖北,武汉,武汉,027,4000279890,鹦鹉大道,枫叶园E栋2单元1层6室,景点,旅行社,114.270956,30.54393
汉阳公园,湖北,武汉,武汉,027,84841568,钟家村,汉阳大道74号（近栖贤路）,景点,公园/广场,114.269176,30.550875
木兰文化生态旅游区,湖北,武汉,武汉,027,61105500;85008000,黄陂区,胜景大道77号,景点,自然风光,114.348882,31.079535
苏梅岛,湖北,武汉,武汉,027,88860588,首义汇/阅马场,阅马场景观楼911室,景点,旅行社,114.307027,30.540137
湖北康辉国际旅行社,湖北,武汉,武汉,027,138****7452,南湖花园,平安路与建安街交叉口东北150米,景点,旅行社,114.321625,30.504465
香草花田,湖北,武汉,武汉,027,84961088;189****7842,蔡甸区,索河街梅池村,景点,植物园,113.890862,30.510834
寰宇国际旅行社,湖北,武汉,武汉,027,88660088,水果湖,兴国北路复地东湖国际1-115号商铺,景点,旅行社,114.35175,30.56076
中国国旅,湖北,武汉,武汉,027,83903799;65022799,后湖,后湖大道111号汉口城市广场2层（家乐福2楼通道出口）,景点,旅行社,114.307281,30.652221
武汉水上运动俱乐部,湖北,武汉,武汉,027,51837859;139****8088,水果湖,东湖路146号弘毅大酒店旁,景点,水上项目/水上体验,114.355545,30.551468
易旅行国际旅行社有限公司,湖北,武汉,武汉,027,,汉口火车站,长青街街道汉口站门口旁,景点,旅行社,114.25423,30.61502
新华崇文国际旅行社有限公司,湖北,武汉,武汉,027,152****3313,南湖花园,文盛街97号,景点,旅行社,114.328787,30.500847
三特旅游开发有限公司,湖北,武汉,武汉,027,,中南路/洪山广场,银海华庭4楼,景点,旅行社,114.344041,30.538527
大武汉旅游卡,湖北,武汉,武汉,027,87128338,东湖风景区,东湖海洋世界验票口售票处,景点,旅行社,114.38068,30.574147
大武汉旅游卡,湖北,武汉,武汉,027,87128338,东湖风景区,植物园出口处武汉旅游信息咨询中心,景点,旅行社,114.42075,30.54333
龟兔旅行,湖北,武汉,武汉,027,87751861,光谷/鲁巷,武昌府二期西区第5号商业A单元23层5号,景点,旅行社,114.408095,30.499625
易游天下,湖北,武汉,武汉,027,65025990,汉阳大道,龙阳大道特8号九州通大厦B座1016室,景点,旅行社,114.204068,30.550358
三阳广场,湖北,武汉,武汉,027,82736588,解放公园/武汉天地,三阳路128号（三阳路地铁站D口步行80米）,景点,公园/广场,114.300874,30.599262
楚乐宫,湖北,武汉,武汉,027,,解放公园/武汉天地,中山大道与京汉大道交叉路口往东约200米,景点,景点/周边游,114.312998,30.612638
华生城市广场,湖北,武汉,武汉,027,,汉西路,雪莲路与城华路交叉路口南侧华生汉口城市广场北区北院14栋华生汉口城市广场北区,景点,公园/广场,114.216633,30.619458
48街坊,湖北,武汉,武汉,027,,八大家/红钢城,建设二路街坊沿线,景点,步行街,114.380406,30.622879
冶金街105街,湖北,武汉,武汉,027,,八大家/红钢城,恩施街29-10号,景点,步行街,114.402739,30.622009
中央文化区楚河汉街,湖北,武汉,武汉,027,59363333,楚河汉街,楚河汉街1号（近水果湖）,景点,步行街,114.340446,30.554859
中山广场,湖北,武汉,武汉,027,85714542;85714156,武展商圈,解放大道557号,景点,公园/广场,114.269353,30.58179
纸坊商业街,湖北,武汉,武汉,027,,纸坊,长乐路乐华楼东北侧约40米,景点,观光街区,114.308678,30.345698
盘龙城罗纳尔河谷,湖北,武汉,武汉,027,,盘龙城,盘龙大道13号正西方向190米,景点,自然风光,114.27011,30.69427
城市广场,湖北,武汉,新洲区,027,,阳逻开发区,阳光北路478号附近,景点,更多景点/周边游,114.575025,30.668666
周彭村,湖北,武汉,武汉,027,,广埠屯,珞南街道,景点,古村古镇,114.353944,30.513113
怡美广场,湖北,武汉,武汉,027,,万松园,新华路392号（取水楼地铁站A1口步行360米）,景点,公园/广场,114.273547,30.593537
户部巷,湖北,武汉,武汉,027,189****5086,司门口,自由路与解放路交叉口,景点,步行街,114.298065,30.547413
牛牛de旅行,湖北,武汉,武汉,027,88018381,宝丰,解放大道582号同馨花园,景点,旅行社,114.255088,30.574838
牛牛de旅行,湖北,武汉,武汉,027,88018381,王家湾,王家湾摩尔城内,景点,旅行社,114.207476,30.559067
回印画廊艺术微喷,湖北,武汉,武汉,027,87440986,光谷/鲁巷,关山街道光谷创业街特一号2305,景点,美术馆,114.413816,30.501182
武汉民间旅行社,湖北,武汉,武汉,027,88393922,首义汇/阅马场,武珞路114号,景点,旅行社,114.310987,30.540166
中国实业银行大楼旧址,湖北,武汉,武汉,027,,江汉路/南京路,江汉路22号,景点,人文古迹,114.295718,30.577824
武泰闸,湖北,武汉,武汉,027,88076823,白沙洲,白沙洲街道,景点,人文古迹,114.305565,30.517883
将游旅行,湖北,武汉,武汉,027,135****6260,石牌岭/街道口,南湖西路玫瑰湾二期红玫苑A1栋,景点,旅行社,114.342598,30.487628
将游旅行,湖北,武汉,武汉,027,156****0091,丁字桥/石牌岭,中南路中建广场b座12楼,景点,旅行社,114.332237,30.535149
梦幻蝴蝶谷,湖北,武汉,武汉,027,84760258;84830898,汉阳造创意文化园,龟山北路1号汉阳造文化创意产业园1号楼汉阳会馆,景点,展览馆,114.267853,30.555925
中国国旅,湖北,武汉,武汉,027,4001171177,吴家山,临空港大道与东吴大道交界处大泽东西湖中心广场F1层,景点,旅行社,114.139221,30.623547
海旅百事通国际旅行社,湖北,武汉,武汉,027,139****5370,蔡甸周边,新天大道恒大绿洲5栋4单元楼,景点,旅行社,114.124221,30.551045
中国国旅麒麟路门市,湖北,武汉,武汉,027,68833374;68833364,汉阳大道,墨水湖北路232号,景点,旅行社,114.226429,30.552729
中国国旅,湖北,武汉,武汉,027,68833374,白沙洲,白沙洲五路11号,景点,旅行社,114.259909,30.483868
中国国旅,湖北,武汉,武汉,027,68833374,欢乐大道/仁和路,北洋桥西路（金鹤园-）,景点,旅行社,114.378339,30.610289
武汉花谷旅游发展有限公司,湖北,武汉,武汉,027,153****2149,东西湖区,柏泉街道吴新干线626号,景点,旅行社,114.08841,30.703449
湖北幸运乐游国际旅行社,湖北,武汉,武汉,027,83949673,珞狮南路,南湖农业园保利心语2期23-36号,景点,旅行社,114.325692,30.479596
湖北幸运乐游国际旅行社,湖北,武汉,武汉,027,158****7896,王家湾,东鑫大酒店一楼,景点,旅行社,114.211659,30.561167
幸运乐游国际旅行社,湖北,武汉,武汉,027,83949673,鹦鹉大道,马鹦路名流公馆附18号,景点,旅行社,114.250104,30.540628
幸运乐游国际旅行社,湖北,武汉,武汉,027,83949673,百步亭/二七,解放大道航天双城A座508室,景点,旅行社,114.315902,30.6258
武汉市内精华一日游,湖北,武汉,武汉,027,4006607106,中南路/洪山广场,中南路10号,景点,旅行社,114.333199,30.536659
幸运乐游国际旅行社,湖北,武汉,武汉,027,83949673,首义汇/阅马场,武珞路60号,景点,旅行社,114.308695,30.54008
武汉园博园,湖北,武汉,武汉,027,65027332;65023975,常青花园,园博园东路园博园东门,景点,城市公园,114.222722,30.624275
幸运乐游国际旅行社,湖北,武汉,武汉,027,83949673,西北湖,汉西三路香江家居旁,景点,旅行社,114.274408,30.589188
幸运乐游国际旅行社,湖北,武汉,武汉,027,83949673,竹叶山/花桥,黄孝海路竹叶山华中国际广场旁,景点,旅行社,114.286434,30.622664
幸运乐游国际旅行社,湖北,武汉,武汉,027,83949673,百步亭/二七,后湖大道中森华国际城A座709室,景点,旅行社,114.32983,30.655011
幸运乐游国际旅行社,湖北,武汉,武汉,027,83949673,光谷/鲁巷,南湖大道江南家园2期8栋803室,景点,旅行社,114.397377,30.479219
天天国际旅行社有限公司,湖北,武汉,武汉,027,186****1518,光谷/鲁巷,蓝晶国际7栋,景点,旅行社,114.418445,30.49604
云游天下,湖北,武汉,武汉,027,189****4800,石牌岭/街道口,珞狮路147号理工大学生创业园501-1,景点,旅行社,114.352767,30.523933
随州市青年旅行社有限公司,湖北,武汉,武汉,027,130****5599,港澳台风情街,西马路,景点,旅行社,114.289783,30.595015
九宫山旅游开发有限公司,湖北,武汉,武汉,027,85559452,南湖花园,珞狮路南湖玫瑰湾小区,景点,旅行社,114.34326,30.4867
中国国旅（武汉）国际旅行社,湖北,武汉,武汉,027,86811118,徐东大街,友谊大道396号福客茂F2层,景点,旅行社,114.341148,30.586781
瀚城汇商业街,湖北,武汉,武汉,027,,卓刀泉/虎泉,雄楚大道名都花园450号,景点,步行街,114.37027,30.500149
湖北咨议局界碑,湖北,武汉,武汉,027,,首义汇/阅马场,武珞路1号武昌起义军政府旧址院墙西南角50米处,景点,革命根据地,114.305015,30.541405
杨正古铁佛寺,湖北,武汉,武汉,027,,黄陂区,黄花涝村,景点,宗教,114.193684,30.724254
昙华林汉秀馆,湖北,武汉,武汉,027,,司门口,昙华林58号,景点,展览馆,114.307945,30.552889
禹柏轩,湖北,武汉,武汉,027,,琴台,洗马长街86号晴川阁内,景点,人文古迹,114.284775,30.555941
禹稷行宫,湖北,武汉,武汉,027,84710887,琴台,洗马长街86号,景点,历史建筑,114.284569,30.555653
中山公园游乐场,湖北,武汉,武汉,027,85607776,万松园,解放大道1265号,景点,游乐场,114.271149,30.588243
湖北省海外旅游（集团）有限公司,湖北,武汉,武汉,027,,八大家/红钢城,建一路2号融侨锦江三期商业第十栋1层35号,景点,旅行社,114.438115,30.627675
湖北省海外旅游（集团）有限公司,湖北,武汉,武汉,027,,司门口,司门口大成路肯德基旁,景点,旅行社,114.30056,30.54821
海马公园,湖北,武汉,武汉,027,,汉口火车站,青年路与后襄河北路交汇处(市博物馆与后襄河公园边)-江汉区,景点,公园/广场,114.255264,30.612272
甘露山,湖北,武汉,武汉,027,,黄陂区,火塔线,景点,自然风光,114.419959,30.900189
联投佩尔创意soho,湖北,武汉,武汉,027,,藏龙岛,流芳路52号联投佩尔创意d区2栋1403室,景点,创意园区,114.444362,30.418542
观澜天地商业街,湖北,武汉,武汉,027,,白沙洲,武金堤路,景点,步行街,114.279731,30.505911
青岛牵手国际旅行社有限公司,湖北,武汉,武汉,027,186****9626,汉口火车站,白云路杨春湖畔1栋203室,景点,旅行社,114.259933,30.60478
完美旅程国际旅行社,湖北,武汉,武汉,027,181****7203;181****7961,纸坊,纸金路石头湾10号,景点,旅行社,114.288238,30.332348
美丢国际旅游,湖北,武汉,武汉,027,88320005,徐东大街,徐东大街1号优活城1号1905,景点,旅行社,114.34202,30.59497
云游天下,湖北,武汉,武汉,027,180****8210,后湖,汉口花园,景点,旅行社,114.270442,30.632957
云游天下,湖北,武汉,武汉,027,180****8210,藏龙岛,藏龙岛杨桥湖大道湖北经济学院创业园,景点,旅行社,114.436332,30.419266
完美旅程旅行社,湖北,武汉,武汉,027,88933530;153****0220,南湖花园,"静安路（雄楚大道和静安路交汇处,尚文科技大厦11楼）",景点,旅行社,114.320861,30.522001
好游汇旅游,湖北,武汉,武汉,027,4006607106,唐家墩/菱角湖,万达广场B1,景点,旅行社,114.267288,30.609749
武汉扬歌旅途旅行社,湖北,武汉,武汉,027,88188478,蔡甸城区,蔡甸城区丽水新城门口,景点,旅行社,114.043663,30.579036
海外旅游（集团）有限公司,湖北,武汉,武汉,027,88862466,首义汇/阅马场,临江大道56-1号,景点,旅行社,114.296796,30.552045
马拉河旅游,湖北,武汉,武汉,027,,客运港/江滩,一元街道南京路路口,景点,旅行社,114.293315,30.582765
中南国旅,湖北,武汉,武汉,027,,和平大道积玉桥,粮道街与棋盘街交叉口西20米,景点,旅行社,114.313387,30.546817
沉湖芦花汇,湖北,武汉,武汉,027,69403822,蔡甸区,沉湖国际重要湿地,景点,自然风光,113.8289,30.330937
旅游百事通知音路门市部,湖北,武汉,武汉,027,84631850,王家湾,桃花岛汇福苑区栋室,景点,旅行社,114.208774,30.569408
康辉旅游,湖北,武汉,武汉,027,87509550,光谷/鲁巷,雄楚大道937号绿之苑,景点,旅行社,114.395266,30.498411
宝中旅游,湖北,武汉,武汉,027,138****4845,黄陂区,滠阳大街148号,景点,旅行社,114.354078,30.714948
康辉旅游,湖北,武汉,武汉,027,150****6155,藏龙岛,九凤街11号高新六路3附36号,景点,旅行社,114.428391,30.437481
武汉市航海国际旅行社,湖北,武汉,武汉,027,88059183,武昌火车站,中山路450号七一九综合楼二楼航海客运站旁,景点,旅行社,114.313777,30.526477
汉口俄租界巡捕房旧址,湖北,武汉,武汉,027,,客运港/江滩,洞庭街82号健康幼儿园对面,景点,古代遗迹,114.300987,30.587018
太阳湖度假村,湖北,武汉,武汉,027,88992229,黄陂区,长轩岭镇石门山木兰天池景区板栗基地示范园,景点,温泉,114.30557,31.177944
中南国旅,湖北,武汉,武汉,027,88229908;153****9525,南湖花园,紫阳街道雅安街293号,景点,旅行社,114.321445,30.509663
九州旅游,湖北,武汉,武汉,027,159****1289,竹叶山/花桥,花桥街街道江大路蔡家田147-8,景点,旅行社,114.279516,30.618696
泰和.中央街,湖北,武汉,武汉,027,,江汉大学,东风三路与东风中路交叉路口北侧,景点,观光街区,114.161765,30.505635
阿健旅游,湖北,武汉,武汉,027,153****8060;159****6598,黄陂区,武汉木兰草原酒店东南侧300米,景点,旅行社,114.460291,30.955291
光谷德国风情街,湖北,武汉,武汉,027,87419113,光谷/鲁巷,世界城光谷步行街,景点,步行街,114.408989,30.50128
黄鹤楼古郢州城垣,湖北,武汉,武汉,027,,首义汇/阅马场,民主路56号黄鹤楼公园内,景点,历史建筑,114.303391,30.544502
吴主禅寺,湖北,武汉,武汉,027,180****0867,武钢厂区/武东,白玉山街张公山寨严西湖畔张公山寨景区,景点,宗教,114.505135,30.588991
北伐军官兵公墓,湖北,武汉,武汉,027,87641163,石牌岭/街道口,武珞路361号,景点,烈士陵园,114.347143,30.529533
宝中旅游,湖北,武汉,武汉,027,83668888,硚口路,建设大道435号易初莲花超市旁,景点,旅行社,114.250635,30.584177
武汉中华奇石馆,湖北,武汉,武汉,027,84845919;84843750,钟家村,翠微路61号,景点,博物馆,114.261818,30.545237
一三惨案遗址,湖北,武汉,武汉,027,,江汉路/南京路,沿江大道江滩17号,景点,古代遗迹,114.298262,30.575965
海航乐游,湖北,武汉,武汉,027,180****9885,光谷/鲁巷,光谷步行街a区5栋2单9708室,景点,旅行社,114.402341,30.504531
华中科技大学旅行社,湖北,武汉,武汉,027,,光谷/鲁巷,华中科技大学内,景点,旅行社,114.41199,30.515322
海旅百事通国际旅行社,湖北,武汉,汉南区,027,84855800,汉南区中心城区,百花街172号,景点,旅行社,114.082316,30.305906
宝中旅游,湖北,武汉,武汉,027,86868005,余家头/四美塘,工业三路通达社区-北区,景点,旅行社,114.400478,30.624358
湖北海外旅游集团,湖北,武汉,武汉,027,,余家头/四美塘,中国湖北省武汉市青山区杨园街道和平大道743号附9号（近杨园门市部）,景点,旅行社,114.368571,30.613541
湖北省海外旅游阳逻门市,湖北,武汉,新洲区,027,86970700,阳逻开发区,阳光大道351号,景点,旅行社,114.56681,30.661688
天天游国际旅行社,湖北,武汉,武汉,027,87956885,纸坊,立交桥路花山美庐小区4栋8号,景点,旅行社,114.330205,30.360938
中国国际旅行社,湖北,武汉,武汉,027,81781109,纸坊,西交路239-附5号,景点,旅行社,114.308537,30.349007
中国空军烈士墓,湖北,武汉,武汉,027,,光谷/东湖高新区,石门峰路9号,景点,古代遗迹,114.481213,30.513706
易游天下国际旅行社蔡甸门市,湖北,武汉,武汉,027,133****5840,莲花湖大道,锦绣星城1号楼,景点,旅行社,114.035413,30.56898
湖北中青旅,湖北,武汉,武汉,027,86888860,众圆广场,建设一路27-附23号,景点,旅行社,114.373687,30.621697
捷龙旅游,湖北,武汉,武汉,027,,古田路,南泥湾大道丰盛楼A座1层,景点,旅行社,114.196598,30.603145
海航乐游,湖北,武汉,武汉,027,83988884,古田路,解放大道5-1号,景点,旅行社,114.185805,30.604005
凯旋国际旅行社,湖北,武汉,武汉,027,87968338,纸坊,纸坊街熊廷弼路61号,景点,旅行社,114.318753,30.351166
海旅百事通国际旅行社,湖北,武汉,武汉,027,153****6552,黄陂区,巨龙大道龙城天居园202-5号,景点,旅行社,114.253355,30.708375
旅游百事通,湖北,武汉,武汉,027,139****2835,解放公园/武汉天地,张自忠路胜利街308附2号,景点,旅行社,114.309975,30.604405
陈潭秋同志革命活动旧址,湖北,武汉,武汉,027,,司门口,都府堤69号,景点,革命旧址,114.298622,30.550852
康辉国际旅行社,湖北,武汉,武汉,027,135****9517,余家头/四美塘,青城华府6栋,景点,旅行社,114.387607,30.615497
中国国旅宜昌国际旅行社,湖北,武汉,武汉,027,150****8153,江汉路步行街,安静社区西北1门西南70米,景点,旅行社,114.285635,30.586365
美旅网,湖北,武汉,武汉,027,134****5652;134****5331,卓刀泉/虎泉,卓刀泉街道卓刀泉北路卓刀泉大厦10楼,景点,旅行社,114.371481,30.521051
美旅网,湖北,武汉,武汉,027,134****5652,江汉路步行街,江汉北路九运大厦,景点,旅行社,114.27887,30.58932
中国旅行社,湖北,武汉,武汉,027,51516690,中南路/洪山广场,中南路2号中建广场B座11楼K室,景点,旅行社,114.332397,30.535324
东湖梅园,湖北,武汉,武汉,027,87510179,东湖风景区,鲁磨路东湖磨山景区内,景点,植物园,114.402252,30.542519
易游天下国际旅行社,湖北,武汉,武汉,027,153****6715,腰路堤/建港,鹦鹉大道364号,景点,旅行社,114.265518,30.533048
好游汇旅游,湖北,武汉,武汉,027,4006607106,徐东大街,王家墩18号龙潭SOMO1栋,景点,旅行社,114.351878,30.584408
猪猪侠亲子嘉年华,湖北,武汉,武汉,027,85667666,六渡桥/汉正街,沿河大道1号沿江一号购物中心天街,景点,主题公园,114.288791,30.567449
海外旅游（集团）有限公司特种旅游部,湖北,武汉,武汉,027,85416698,武展商圈,单洞路18号聚银大厦1410室,景点,旅行社,114.283141,30.58329
华天国际旅行社有限公司,湖北,武汉,武汉,027,,纸坊,阳光大道1号附近,景点,旅行社,114.339951,30.369391
九峰国家森林公园,湖北,武汉,武汉,027,87639763,光谷/东湖高新区,九峰狮子峰特1号,景点,森林公园,114.495644,30.503559
湖北省海外旅游（集团）有限公司,湖北,武汉,武汉,027,137****7905,南湖花园,南湖花园建安街42号,景点,旅行社,114.319626,30.506856
汉口近代建筑群,湖北,武汉,武汉,027,62338069,六渡桥/汉正街,京汉大道823号,景点,历史建筑,114.300915,30.58083
湖北万达新航线国旅,湖北,武汉,武汉,027,,蔡甸城区,茂兴路6附14号,景点,旅行社,114.040452,30.571131
欢乐谷,湖北,武汉,武汉,027,,蔡甸城区,文昌街与正街南路交叉口西北40米,景点,游乐场,114.031384,30.583584
康辉旅游,湖北,武汉,武汉,027,,黎黄陂广场,百兴街56号,景点,旅行社,114.385648,30.875908
湖北万达新航线国旅,湖北,武汉,武汉,027,59416966,纸坊,妇联小区东南门旁,景点,旅行社,114.317476,30.354246
东方国际旅行社,湖北,武汉,武汉,027,180****1788,黄陂区,巨龙大道88号名流城市广场2期3号楼15楼1515室,景点,旅行社,114.277797,30.707727
佳兴广场,湖北,武汉,武汉,027,,纸坊,兴新街224号,景点,广场,114.309487,30.348546
湖北易游天下国际旅行社,湖北,武汉,武汉,027,86330377,余家头/四美塘,恩施街26号-附23号,景点,旅行社,114.398295,30.621165
宝中旅游国际旅行社有限公司,湖北,武汉,武汉,027,,汉阳大道,龙阳大道与龙阳三路交叉口南80米,景点,旅行社,114.209045,30.558575
海旅百事通国际旅行社,湖北,武汉,新洲区,027,86911678;189****3426,新洲区中心/邾城街,齐安大道431号附近（中国银行）,景点,旅行社,114.804131,30.847341
华天旅游,湖北,武汉,武汉,027,,余家头/四美塘,三角路水岸国际写字楼1号楼11楼,景点,旅行社,114.321411,30.575909
万达新航线国旅,湖北,武汉,武汉,027,87801955,光谷/鲁巷,高新大道69-1号附近,景点,旅行社,114.414148,30.497395
武汉天天国际旅行社,湖北,武汉,武汉,027,86644993,光谷/鲁巷,雄楚大道洪福家园,景点,旅行社,114.401246,30.497176
中国旅行社,湖北,武汉,武汉,027,189****4772,中南路/洪山广场,民主路668号附5,景点,旅行社,114.329028,30.544088
旅游百事通,湖北,武汉,武汉,027,89995589,光谷/鲁巷,东湖开发区民族大道555号,景点,旅行社,114.397041,30.492551
旅游百事通,湖北,武汉,武汉,027,87066180,南湖花园,书城路明泽丰华苑小区14栋2号商铺,景点,旅行社,114.330561,30.484671
海天会议,湖北,武汉,武汉,027,82824570;139****7876,江汉路步行街,民主一街与前进五路交叉口南40米,景点,景点/周边游,114.287689,30.580399
新世界,湖北,武汉,武汉,027,158****6331,武展商圈,宝丰街利北一村217号（东北人烤肉斜对面）,景点,步行街,114.266996,30.578616
宝中旅游,湖北,武汉,武汉,027,151****9142,光谷/鲁巷,关山创业街特一栋2单元1011室,景点,旅行社,114.413068,30.500368
武汉李庄古建筑博物馆,湖北,武汉,武汉,027,86411117;86411119,武钢厂区/武东,白玉山街张公山寨景区内,景点,博物馆,114.504051,30.588898
旅游百事通,湖北,武汉,武汉,027,88322218,石牌岭/街道口,中南国际城A2座2305号,景点,旅行社,114.328645,30.534599
中南国际旅游公司,湖北,武汉,武汉,027,84777778,钟家村,汉阳大道140号闽东国际商业广场F1层,景点,旅行社,114.265678,30.550901
武汉铁路国际旅行社,湖北,武汉,武汉,027,87321013,中南路/洪山广场,中南路街道中南路溢香铺子旁,景点,旅行社,114.336236,30.543096
宝中旅程国际旅行社,湖北,武汉,武汉,027,4000126092,武展商圈,解放大道武汉广场写字楼32楼3210,景点,旅行社,114.269705,30.580645
海外旅游,湖北,武汉,武汉,027,133****0452,武展商圈,任冬街武汉一初慧泉中学,景点,旅行社,114.284424,30.579664
湖北省中国旅行社,湖北,武汉,武汉,027,87320901,徐东大街,友谊大道545号才华街车站,景点,旅行社,114.345463,30.592703
喜鹊湖花海,湖北,武汉,汉南区,027,84735668,汉南区,湘口街五支沟S321省道,景点,植物园,113.832489,30.212479
意大利风情街,湖北,武汉,武汉,027,,光谷/鲁巷,光谷广场东光谷步行街,景点,步行街,114.408183,30.501681
海外旅游,湖北,武汉,武汉,027,51515161,石牌岭/街道口,梅苑小区地铁站A口步行290米,景点,旅行社,114.322871,30.529931
武昌廉政文化公园,湖北,武汉,武汉,027,88872090,司门口,解放路467号中华路小学旁,景点,文化公园,114.299919,30.550619
汉口火车站旅行社,湖北,武汉,武汉,027,85630881,汉口火车站,汉口火车站东1门(汉口火车站地铁站E口步行420米),景点,旅行社,114.258865,30.616533
二龙潭公园,湖北,武汉,武汉,027,,黄陂区,前川街道河塔街,景点,城市公园,114.368528,30.859421
武汉革命博物馆,湖北,武汉,武汉,027,88850322,司门口,红巷13号,景点,博物馆,114.300385,30.553652
康辉国际旅行社,湖北,武汉,武汉,027,85851185,港澳台风情街,解放大道1467号附1附近,景点,旅行社,114.288021,30.589781
菱角湖公园,湖北,武汉,武汉,027,83950748,唐家墩/菱角湖,唐家墩街道菱角湖路15号,景点,公园/广场,114.271965,30.608635
关山荷兰风情园,湖北,武汉,武汉,027,87538296,光谷/鲁巷,民族大道163号（光谷时间广场对面）,景点,公园/广场,114.3992,30.493919
中国国际旅行社,湖北,武汉,武汉,027,51515958,石牌岭/街道口,卓刀泉南路与虎泉街交叉口北100米,景点,旅行社,114.368336,30.51579
海峡旅行社,湖北,武汉,武汉,027,88018381,首义汇/阅马场,阅马场景观楼15A12室,景点,旅行社,114.307019,30.540129
中国青年旅行社,湖北,武汉,武汉,027,,武展商圈,解放大道914号,景点,旅行社,114.283493,30.585403
华宾商旅,湖北,武汉,武汉,027,81812628,纸坊,纸坊街道古驿道67号,景点,旅行社,114.318824,30.358184
中国国旅,湖北,武汉,武汉,027,186****9120,江汉路步行街,中山大道858号王府井百货7楼,景点,旅行社,114.2911,30.57961
鄂之旅国际旅行社,湖北,武汉,武汉,027,88933530;88991659,水果湖,珞南街武珞路717号兆富国际大厦1806,景点,旅行社,114.349412,30.528202
品川国际旅游有限公司,湖北,武汉,武汉,027,159****2662,楚河汉街,2-3街区歌笛桥下广场汉街驿站,景点,旅行社,114.339061,30.557941
武汉露营—篷客露营,湖北,武汉,武汉,027,84860997,光谷/东湖高新区,光谷创业街73号,景点,旅行社,114.434922,30.500083
大武汉旅游卡,湖北,武汉,武汉,027,87128338,黄陂区,农耕年华景区,景点,旅行社,114.466959,30.717669
武汉广场,湖北,武汉,武汉,027,152****4547,百步亭/二七,武汉广场一楼丸美专柜,景点,公园/广场,114.327408,30.627874
中国国旅（武汉）国际旅行社有限公司,湖北,武汉,武汉,027,135****3911,余家头/四美塘,红卫路街道118街辽宁街78号,景点,旅行社,114.383404,30.621468
入侵植物与生物安全教育专类园,湖北,武汉,武汉,027,,东湖风景区,鲁磨路中国科学院武汉植物园内（东南角）,景点,人文古迹,114.426544,30.542969
精益眼镜博物馆,湖北,武汉,武汉,027,,中南路/洪山广场,中南路特9号中南天紫广场a馆F1层,景点,博物馆,114.332726,30.537916
中国国旅,湖北,武汉,武汉,027,4001171177,钟家村,拦江路219号江涛大厦1307室（现广告鹦鹉花园）,景点,旅行社,114.267067,30.542797
汉商银座宝中旅游,湖北,武汉,武汉,027,159****5287,鹦鹉大道,汉阳公园旁沃尔玛超市出入口,景点,旅行社,114.268158,30.548931
海外旅游集团有限公司,湖北,武汉,武汉,027,131****8050,卓刀泉/虎泉,虎泉街87号（武汉大学wto学院1楼）,景点,旅行社,114.370871,30.514041
首义园,湖北,武汉,武汉,027,59803160,首义汇/阅马场,五库村11附4号附近,景点,更多景点/周边游,114.311739,30.540687
东湖牡丹园,湖北,武汉,武汉,027,86770705,岳家嘴/东亭,东湖路194号,景点,植物园,114.372999,30.573596
茶马古道,湖北,武汉,武汉,027,,鹦鹉大道,鹦鹉大道杨泗庙站422号附2号,景点,古道,114.263534,30.531044
世林庄园,湖北,武汉,武汉,027,,东西湖区,慈惠街石榴红村（西北角）,景点,动植物园,114.032053,30.598143
观音岛,湖北,武汉,武汉,027,,江夏大学城/庙山,中州社区,景点,自然风光,114.395521,30.405772
幸运乐游国际旅行社,湖北,武汉,武汉,027,158****8065,大花岭,江夏经济开发区大桥新区街道名城8090花园6栋413室,景点,旅行社,114.310862,30.414749
昕程国际旅游,湖北,武汉,武汉,027,153****1563,首义汇/阅马场,武珞路36号阅马场黄鹤楼景区东门1楼,景点,旅行社,114.308676,30.542026
星翔国际旅行社有限公司,湖北,武汉,武汉,027,86626877,石牌岭/街道口,平安路353号附近,景点,旅行社,114.3185,30.51529
易游天下,湖北,武汉,武汉,027,180****7612,余家头/四美塘,三阳路轻轨站旁锦江苑6-H,景点,旅行社,114.302837,30.601543
康辉旅行社,湖北,武汉,武汉,027,153****8350,纸坊,文华路水产局一楼,景点,旅行社,114.32368,30.355355
中国国旅,湖北,武汉,武汉,027,4001171177,硚口路,京汉大道341号1层,景点,旅行社,114.265946,30.573446
阿健旅游,湖北,武汉,武汉,027,153****8060;159****6598,硚口路,宝丰路海军工程大学一号门,景点,旅行社,114.252705,30.578375
湖北易旅行,湖北,武汉,武汉,027,4009646567,楚河汉街,汉街总部国际D座13A10室,景点,旅行社,114.346556,30.552659
湖北幸运乐游国际旅行社,湖北,武汉,武汉,027,153****5567,汉口火车站,发展大道222号华南国际广场A座写字楼19层1901-1910室,景点,旅行社,114.263752,30.615882
武汉大学旅行社,湖北,武汉,武汉,027,4006015175,水果湖,武汉大学校工会1楼,景点,旅行社,114.358357,30.533127
万达新航线,湖北,武汉,武汉,027,61009981;85924299,黎黄陂广场,双凤大道340号附近（东海岸小区旁）,景点,旅行社,114.384253,30.873317
牛牛de旅行,湖北,武汉,武汉,027,88018381,首义汇/阅马场,南方大厦8楼B座,景点,旅行社,114.308786,30.540177
康辉旅行社,湖北,武汉,武汉,027,186****7179,中南路/洪山广场,中南路中建广场C座26层,景点,旅行社,114.332932,30.534918
石门峰纪念公园,湖北,武汉,武汉,027,87635632;87635298,光谷/东湖高新区,石门峰路9号,景点,纪念公园,114.487757,30.513528
中南民大国际旅行社,湖北,武汉,武汉,027,67841622,光谷/鲁巷,民族大道华罗利广场,景点,旅行社,114.395871,30.483691
南湖幸福湾水上公园,湖北,武汉,武汉,027,,南湖花园,大华南湖公园世家2期商铺2-6-1-S2号,景点,公园/广场,114.338755,30.49704
中国国际旅行社,湖北,武汉,武汉,027,82767777,港澳台风情街,西马街道高雄路14号,景点,旅行社,114.286689,30.594959
汉阳会馆,湖北,武汉,武汉,027,153****0111,汉阳大道,龟山北路汉阳造广告文化创意产业园六栋,景点,博物馆,114.267933,30.556323
道观河风景区,湖北,武汉,新洲区,027,89530380,新洲区,徐铁线道观河风景旅游区,景点,自然风光,115.01267,30.864703
中国国旅,湖北,武汉,武汉,027,68833374,港澳台风情街,台北路220附10号,景点,旅行社,114.276969,30.600859
上海路天主堂,湖北,武汉,武汉,027,,江汉路/南京路,上海路16号,景点,宗教,114.295907,30.580257
中国心中国梦3D艺术画展全国巡展,湖北,武汉,武汉,027,83773348,古田路,江城壹号文化创意园10号楼2楼,景点,展览馆,114.211342,30.597404
糖果达令的艺想世界,湖北,武汉,武汉,027,87715040,石牌岭/街道口,武珞路珞珈创意体验城负一楼,景点,展览馆,114.355541,30.526451
汉口美国领事馆旧址,湖北,武汉,武汉,027,,客运港/江滩,中国湖北省武汉市江岸区一元街办事处沿江大道169号(近洞庭小路原银兴电影院)汉口江滩对面,景点,古代遗迹,114.303331,30.588723
东南航空国旅,湖北,武汉,武汉,027,,百步亭/二七,解放大道2229号（铁路文化宫门口）,景点,旅行社,114.319395,30.626505
东方马城神马乐园骑士俱乐部,湖北,武汉,武汉,027,83912121,金银湖,金银湖金南一路1号,景点,自然风光,114.207905,30.644196
畅游在线科技有限公司,湖北,武汉,武汉,027,180****5682,港澳台风情街,香港路23号,景点,旅行社,114.291112,30.59613
武汉万里行旅行社,湖北,武汉,武汉,027,4000279890;189****9721,徐东大街,徐东大街团结名居竹园1栋1单元1801,景点,旅行社,114.344787,30.583841
易游天下,湖北,武汉,武汉,027,81611211,纸坊,文华路教办隔壁（北华街地铁站B口步行150米）,景点,旅行社,114.323502,30.356242
烈火球城,湖北,武汉,武汉,027,84647876,王家湾,王家湾龙阳大道特6号摩尔城c栋4楼,景点,更多景点/周边游,114.208496,30.559015
湖北省海外旅游集团,湖北,武汉,武汉,027,138****6595,徐东大街,和平大道1028号才华名苑1栋3单元101室,景点,旅行社,114.340312,30.596462
武汉两江游览游船,湖北,武汉,武汉,027,88109920,司门口,临江大道江滩32号汉阳门码头,景点,城市观光,114.29394,30.548958
苏杭乌镇,湖北,武汉,武汉,027,88018382,石牌岭/街道口,付家坡长途客运站旁,景点,旅行社,114.327515,30.535415
要出发旅行网,湖北,武汉,武汉,027,4001181166,徐东大街,徐东大街158号（都市经典内）,景点,旅行社,114.355499,30.580431
中南国际旅游公司,湖北,武汉,武汉,027,83808088;185****0388,武胜路,荣华二路幸福一村21-22号,景点,旅行社,114.26559,30.570562
大革命烈士就义处,湖北,武汉,武汉,027,,江汉路步行街,中山大道与崇善路交汇处,景点,革命旧址,114.293489,30.585137
汉口日清洋行大楼,湖北,武汉,武汉,027,,江汉路/南京路,沿江大道131,景点,历史建筑,114.297103,30.576643
品川国际旅游有限公司,湖北,武汉,武汉,027,136****9405,六渡桥/汉正街,沿江大道69号长航大厦905号,景点,旅行社,114.294014,30.56959
柏泉农场,湖北,武汉,武汉,027,,东西湖区,西正街19号,景点,更多景点/周边游,114.125105,30.724192
琴台公园,湖北,武汉,武汉,027,,汉阳大道,琴台大道与琴台大道辅路交叉口西约140米,景点,公园/广场,114.2463,30.557315
武汉客厅·中国文化博览中心,湖北,武汉,武汉,027,65387880,东西湖区,金银潭大道宏图路8号,景点,展览馆,114.283173,30.669939
武汉市人民政府礼堂,湖北,武汉,武汉,027,,客运港/江滩,沿江大道187号,景点,历史建筑,114.3047,30.591841
高腊梅水库,湖北,武汉,武汉,027,,江夏区,安山镇金家湾,景点,现代建筑,114.311042,30.121682
三清观,湖北,武汉,新洲区,027,,新洲区,凤凰镇,景点,宗教,114.739868,30.918048
关监督公署旧址,湖北,武汉,武汉,027,,客运港/江滩,一元路5号,景点,古代遗迹,114.303372,30.592657
蔡甸消泗油菜花,湖北,武汉,武汉,027,,蔡甸区,泗通路消泗乡政府对面,景点,植物园,113.774378,30.316788
国际博览中心,湖北,武汉,武汉,027,84696948,四新,鹦鹉大道619号（国博中心北地铁站出入口步行150米）,景点,展览馆,114.241966,30.506788
江滩长江二桥景区,湖北,武汉,武汉,027,,余家头/四美塘,临江大道539号,景点,更多景点/周边游,114.323262,30.588334
武汉野战国防园,湖北,武汉,武汉,027,69703099,蔡甸区,104省道老市陈村曾家上头1号,景点,更多景点/周边游,113.97553,30.48183
东湖生态旅游风景区,湖北,武汉,武汉,027,86793760,东湖风景区,沿湖大道16号,景点,自然风光,114.411995,30.551414
黄鹤楼-荷风送香,湖北,武汉,武汉,027,,首义汇/阅马场,山坡特1号黄鹤楼景区内,景点,人文古迹,114.306436,30.543956
竹海,湖北,武汉,武汉,027,,东湖风景区,东湖路142号,景点,更多景点/周边游,114.361242,30.554432
襄河人家,湖北,武汉,武汉,027,,汉口火车站,后襄河北路后襄河公园内（西侧）,景点,植物园,114.253494,30.609058
东湖沙滩景区,湖北,武汉,武汉,027,4001992688,东湖风景区,沿湖路26号,景点,海滨沙滩,114.39343,30.56796
一元广场,湖北,武汉,武汉,027,,客运港/江滩,蔡锷路和沿江大道交叉口对面汉口江滩内,景点,公园/广场,114.306407,30.592827
敖包,湖北,武汉,武汉,027,,黄陂区,聂家岗武汉木兰草原内,景点,人文古迹,114.463339,30.965009
百草园,湖北,武汉,武汉,027,,解放公园/永清街,解放大道西200米,景点,公园/广场,114.302422,30.607403
张公山寨度假山庄景区,湖北,武汉,武汉,027,86411119,江夏区,武钢白玉山地区洪山区建设乡严西湖畔,景点,更多景点/周边游,114.266462,30.048571
九真桃源,湖北,武汉,武汉,027,69306396,蔡甸区,安堡路炉房村,景点,民俗文化村,113.943443,30.472969
万达新航线国旅,湖北,武汉,武汉,027,,港澳台风情街,高雄路25号1层,景点,旅行社,114.286729,30.594169
汉阳造文化创意产业园,湖北,武汉,武汉,027,84633316,汉阳造创意文化园,晴川街道龟山北路1号（琴台地铁站A口步行410米）,景点,创意园区,114.268364,30.556543
青扬十街,湖北,武汉,武汉,027,,八大家/红钢城,红钢三街与建设七路交叉口东140米,景点,观光街区,114.399826,30.639748
马途哒哒国际旅行社有限公司,湖北,武汉,武汉,027,88022220,西北湖,建设大道国贸新都a座,景点,旅行社,114.269433,30.594943
汉阳江滩公园,湖北,武汉,武汉,027,84813235,鹦鹉大道,滨江大道15号,景点,公园/广场,114.276107,30.540124
易游天下国旅,湖北,武汉,武汉,027,189****3364,王家湾,江汉二桥街桥西社区西南2门旁,景点,旅行社,114.210441,30.568791
黎黄陂路街头博物馆,湖北,武汉,武汉,027,,客运港/江滩,沿江大道162号,景点,博物馆,114.302307,30.586561
万达旅业万达新航线国旅,湖北,武汉,武汉,027,83897492,吴家山,四明路168号附近,景点,旅行社,114.141604,30.62494
喜鹊湖农庄,湖北,武汉,汉南区,027,84736777,汉南区,湘口街五支沟喜鹊湖农庄,景点,更多景点/周边游,113.822086,30.222419
峡州国旅,湖北,武汉,武汉,027,,司门口,中华路街办事处临江大道56-5号,景点,旅行社,114.296828,30.552198
湖北省中国青年旅行社,湖北,武汉,武汉,027,88116353,司门口,红巷常阳丽江城,景点,旅行社,114.298572,30.553712
徐东国旅,湖北,武汉,武汉,027,87838387,司门口,青石桥62号,景点,旅行社,114.300873,30.551643
石榴红村,湖北,武汉,武汉,027,83376272,东西湖区,慈惠街道知青路附近,景点,特色乡村,114.032706,30.597318
旅游百事通,湖北,武汉,武汉,027,83227771,吴家山,吴家山街道东吴大道1183号,景点,旅行社,114.15217,30.622578
湖北省海外旅游,湖北,武汉,武汉,027,159****4407,大花岭,江夏经济开发区大桥新区街道文化大道金樱街汉口学院图书馆2层,景点,旅行社,114.317006,30.414916
汤逊湖,湖北,武汉,武汉,027,,江夏区,经济开发区大桥新区街道大桥新区办事处湖北省武汉市江夏区文化大道金樱街,景点,自然风光,114.384003,30.44799
易游天下国旅,湖北,武汉,武汉,027,,西北湖,北湖西路6号,景点,旅行社,114.267324,30.602946
磨元城遗址,湖北,武汉,武汉,027,,黄陂区,经济开发区鼎鑫摩卡小镇,景点,古代遗迹,114.25129,30.705464
梁子湖龙湾半岛景区,湖北,武汉,武汉,027,87976688;87975670,梁子湖风景区,梁子湖大道特28号龙湾半岛,景点,更多景点/周边游,114.458731,30.241186
武汉东方马城  国际梦幻灯光节,湖北,武汉,武汉,027,85882572;85880008,常青花园,金银湖金南一路,景点,游乐场,114.225929,30.631903
湖北易游天下国旅,湖北,武汉,武汉,027,,黄陂广场,黄陂大道188号,景点,旅行社,114.370821,30.881041
辛亥革命博物院,湖北,武汉,武汉,027,88877172,首义汇/阅马场,武珞路1号,景点,纪念馆,114.306351,30.542295
喻家湖,湖北,武汉,武汉,027,,光谷/鲁巷,东湖生态旅游风景区,景点,自然风光,114.431337,30.523467
湖北省海外旅游集团,湖北,武汉,武汉,027,153****8881,八大家/红钢城,工业三路37付13号,景点,旅行社,114.402711,30.623469
康辉旅游,湖北,武汉,武汉,027,84766636,鹦鹉大道,五龙路水岸人家711号,景点,旅行社,114.250876,30.543286
阳光画廊,湖北,武汉,武汉,027,51118296;130****7085,港澳台风情街,劳动街道球场路52号花鸟市场四街17号,景点,美术馆,114.293473,30.600763
东湖游船,湖北,武汉,武汉,027,88913338,东湖风景区,烟霞路与松竹路交叉口汉街中心码头,景点,城市观光,114.381721,30.571753
易游天下国旅,湖北,武汉,武汉,027,139****4628,汉阳大道,墨水湖北路7号铺,景点,旅行社,114.225056,30.553686
东湖国家湿地公园,湖北,武汉,武汉,027,87442793,光谷/鲁巷,珞瑜东路619号吹笛景区内,景点,公园/广场,114.440976,30.529142
花乡茶谷旅游度假风景区,湖北,武汉,武汉,027,85092888,黄陂区,红岗山,景点,自然风光,114.502738,31.01147
异国风情园,湖北,武汉,武汉,027,86773706,东湖风景区,黄鹂路88号听涛景区内,景点,更多景点/周边游,114.377037,30.573132
绿地城欧洲小镇冰雪嘉年华,湖北,武汉,汉南区,027,,汉南区,汉洪高速汉南出口处,景点,主题乐园,114.063349,30.334669
高山流水,湖北,武汉,武汉,027,139****3631,蔡甸周边,五贤路（后官湖国家湿地公园）,景点,自然景观,114.066505,30.549213
新华农庄,湖北,武汉,武汉,027,87976188,梁子湖风景区,五里界街道梁子湖风景区北咀（梁子湖大道东侧）,景点,更多景点/周边游,114.448875,30.272795
武汉鸟语林,湖北,武汉,武汉,027,88865788,沌口,武汉经济开发区枫树三路延长线硃山湖大桥南岸,景点,动物园,114.132721,30.438206
海外旅游,湖北,武汉,武汉,027,,蔡甸城区,文兴路与汉马路交叉路口往北约50米,景点,旅行社,114.022397,30.578827
知音谷,湖北,武汉,武汉,027,69303030,蔡甸区,永安街炉房村知音·九真景区内,景点,自然风光,113.957321,30.476821
武汉中共中央机关旧址纪念馆,湖北,武汉,武汉,027,88185186,吉庆街/大智路,胜利街163号,景点,纪念馆,114.298426,30.587923
摩纳哥风情街,湖北,武汉,武汉,027,,光谷/东湖高新区,珞瑜东路22号恒大华府,景点,观光街区,114.442234,30.506464
木兰幸福庄园,湖北,武汉,武汉,027,189****8579,黄陂区,仙河店村大刘家湾,景点,动植物园,114.383133,31.111441
中国国旅,湖北,武汉,武汉,027,189****6818,欢乐大道/仁和路,华电小路与联盟路交叉口东南150米,景点,旅行社,114.375384,30.583252
湖北省美术院,湖北,武汉,武汉,027,88842565,大东门/小东门,中山路368号（螃蟹岬地铁站E口步行250米）,景点,美术馆,114.317236,30.549402
武汉美术馆,湖北,武汉,武汉,027,82602713,江汉路步行街,保华街2号,景点,美术馆,114.292999,30.58392
墨水湖公园,湖北,武汉,武汉,027,,汉阳大道,龙阳街道芳草路11号,景点,城市公园,114.227325,30.540625
首义文化区,湖北,武汉,武汉,027,,首义汇/阅马场,湖北剧院附近,景点,文化公园,114.30562,30.541061
铭成广场,湖北,武汉,武汉,027,,经开万达,三角湖路4号（体育中心地铁站D口步行470米）,景点,公园/广场,114.166794,30.507828
水龙吐珠,湖北,武汉,武汉,027,,沌口,车城东路188号,景点,景点/周边游,114.173994,30.474474
刘先村西张塆,湖北,武汉,新洲区,027,,新洲区,新李路与318国道交叉口东南220米,景点,特色乡村,114.679724,30.879342
大冶孔雀石艺术馆,湖北,武汉,武汉,027,,徐东大街,徐东大街30号徐东古玩城奇石馆25号,景点,美术馆,114.343493,30.587213
易游天下国际旅行社,湖北,武汉,武汉,027,132****1345,光谷/东湖高新区,玉合巷九峰三星苑4号正东方向60米,景点,旅行社,114.482311,30.502041
海航乐游,湖北,武汉,武汉,027,,解放公园/武汉天地,胜利街沈阳路幼儿园南侧,景点,旅行社,114.309449,30.603669
一席艺术空间,湖北,武汉,武汉,027,188****7755,客运港/江滩,京汉大道881号金地琅目1903D栋2楼1-2号,景点,美术馆,114.291763,30.591011
旅游百事通,湖北,武汉,武汉,027,87638066,洪山区,花山街杏园2楼,景点,旅行社,114.516267,30.522337
汉江湾体育公园,湖北,武汉,武汉,027,83300029,古田路,古田街道古田三路2附1号,景点,公园/广场,114.201827,30.585181
光谷精工科技园,湖北,武汉,武汉,027,,光谷/东湖高新区,东湖高新技术开发区大学园路长城园3路8号,景点,科技馆,114.392234,30.449925
磨山环保生态科技园,湖北,武汉,武汉,027,,东湖风景区,鲁磨路558号旁,景点,动植物园,114.407951,30.525576
鹦鹉苑,湖北,武汉,武汉,027,,汉阳大道,动物园路60号武汉动物园内,景点,动物园,114.243242,30.540235
湖北海外旅游集团,湖北,武汉,武汉,027,133****6335,鹦鹉大道,二环线名流公馆nk3号,景点,旅行社,114.249718,30.541776
解放公园兰园园艺展览中心,湖北,武汉,武汉,027,,解放公园/永清街,劳动街道解放大道1845号,景点,展览馆,114.304123,30.608316
TCL商用综合产品展示厅,湖北,武汉,武汉,027,,吴家山,西一路与市场西一路交叉口东南约80米,景点,展览馆,114.153261,30.613701
龙王尖,湖北,武汉,武汉,027,,黄陂区,李家集街珍珠岭,景点,自然风光,114.275478,31.079431
ALIVE MUSEUM艺术馆,湖北,武汉,武汉,027,59363333,楚河汉街,楚河汉街1号武汉中央文化旅游区楚河汉街二街区3层,景点,展览馆,114.339325,30.557837
企鹅,湖北,武汉,武汉,027,,常青花园,金银谭大道96号武汉海昌极地海洋世界极地动物展示区内,景点,博物馆,114.278811,30.664261
萤火虫主题公园,湖北,武汉,武汉,027,,武展商圈,解放大道696号武汉国际会展中心1楼东区,景点,主题乐园,114.2743,30.579666
慈航寺,湖北,武汉,新洲区,027,,武生院/工程学院,山河新村西南侧约290米,景点,宗教,114.535324,30.714464
中国科学院武汉植物园-游客中心,湖北,武汉,武汉,027,87510783;87510815,东湖风景区,东湖风景区植物园路特1号,景点,植物园,114.419899,30.542839
大风车创意美术馆,湖北,武汉,武汉,027,135****5420;133****8688,江汉大学,南国明珠一期7栋一单元101室,景点,美术馆,114.201057,30.541286
凤翔,湖北,武汉,武汉,027,,蔡甸周边,彭家山头58号西南方向110米,景点,更多景点/周边游,114.066202,30.548765
赏韵,湖北,武汉,武汉,027,,蔡甸周边,五贤路后官湖国家湿地公园,景点,更多景点/周边游,114.066386,30.549411
大千艺术廊,湖北,武汉,武汉,027,135****5948,纸坊,古驿道19号,景点,美术馆,114.320496,30.347996
金斯柯,湖北,武汉,武汉,027,,六渡桥/汉正街,友谊南路与大夹街交叉路口往东北约50米（满春街大夹社区）,景点,自然景观,114.283401,30.569101
八叠山生命公园,湖北,武汉,武汉,027,137****5391,江夏区,豹澥街道花山小区附近316国道,景点,公园/广场,114.555968,30.513664
寺庙纸香,湖北,武汉,新洲区,027,,新洲区中心/邾城街,齐安大道370-1号,景点,景点/周边游,114.80426,30.850397
太洲豹,湖北,武汉,武汉,027,,黄陂区,东汉正街,景点,动物园,114.327891,30.708571
归元圆觉殿,湖北,武汉,武汉,027,,钟家村,归元寺路归元禅寺,景点,人文古迹,114.260684,30.546704
信义公所,湖北,武汉,武汉,027,,客运港/江滩,一元街道洞庭街77号,景点,人文古迹,114.300551,30.587171
百工坊,湖北,武汉,武汉,027,,江腾苑,江堤中路11号,景点,博物馆,114.246574,30.530674
武汉知音号,湖北,武汉,武汉,027,4008005261;82878262,客运港/江滩,沿江大道汉口江滩内,景点,城市观光,114.313461,30.59573
乐游旅游,湖北,武汉,武汉,027,,常青南园,红旗渠路73号附近,景点,旅行社,114.254968,30.624748
青山江滩,湖北,武汉,武汉,027,,八大家/红钢城,临江大道,景点,公园/广场,114.382004,30.640166
民生轮船公司汉口公司,湖北,武汉,武汉,027,,江汉路步行街,鄱阳街7号,景点,人文古迹,114.292628,30.586445
老沙逊洋行仓库,湖北,武汉,武汉,027,,江汉路/南京路,洞庭街43号,景点,现代建筑,114.297901,30.580971
圣教书局,湖北,武汉,武汉,027,,江汉路/南京路,鄱阳街49号汉口景明大楼旧址旁,景点,更多景点/周边游,114.296783,30.583042
汉口平汉铁路局旧址,湖北,武汉,武汉,027,,客运港/江滩,胜利街174号,景点,古代遗迹,114.301435,30.59064
舵落口广场,湖北,武汉,武汉,027,83096686,吴家山,舵落囗大市场综合楼东3栋二楼（邮政银行旁）,景点,公园/广场,114.154613,30.612861
汉口江滩码头文化广场,湖北,武汉,武汉,027,,客运港/江滩,蔡锷路和沿江大道交叉口对面,景点,广场,114.305862,30.590376
汉口美最时洋行大楼,湖北,武汉,武汉,027,,客运港/江滩,一元路2号,景点,现代建筑,114.303471,30.592931
百家美术馆,湖北,武汉,武汉,027,,八大家/红钢城,欢乐大道198号附近,景点,美术馆,114.395958,30.594948
徕卡厅,湖北,武汉,武汉,027,,石牌岭/街道口,求是一路武汉大学,景点,景点/周边游,114.362,30.5253
汉口商业博物馆,湖北,武汉,武汉,027,138****0332,黄陂区,汉口北大道汉口北国际商品交易中心中心区广场,景点,博物馆,114.324956,30.706606
西班牙风情街,湖北,武汉,武汉,027,,光谷/鲁巷,关山街道珞雄路726号世界城光谷步行街2期,景点,步行街,114.404655,30.503288
永康里街头博物馆,湖北,武汉,武汉,027,,江汉路步行街,中山大道江汉路永康里（江汉路地铁站G口步行160米）,景点,博物馆,114.289588,30.577998
合气殿下苑,湖北,武汉,武汉,027,69543688,莲花湖大道,蔡甸大街214附9号中博康城新居底商,景点,更多景点/周边游,114.031743,30.571522
不多堂艺术馆,湖北,武汉,武汉,027,65389536,徐东大街,和平大道918号江尚天地4栋,景点,美术馆,114.339794,30.593804
政和广场,湖北,武汉,武汉,027,,吉庆街/大智路,中山大道707号,景点,公园/广场,114.295371,30.587041
辛亥首义烈士陵园,湖北,武汉,武汉,027,,武胜路,利济北路69号1门（汉正街地铁站D口步行410米）,景点,烈士陵园,114.270797,30.57222
德意风情街,湖北,武汉,武汉,027,,光谷/鲁巷,利嘉西路与加州阳光美食街交叉口东南150米,景点,步行街,114.406036,30.502953
武汉东湖学院世纪广场,湖北,武汉,武汉,027,,大花岭,厚德大道,景点,公园/广场,114.318436,30.423744
武汉理工大学-东区广场,湖北,武汉,武汉,027,87859251,雄楚大道,珞狮路165号,景点,公园/广场,114.353987,30.518503
界立方3艺术街区,湖北,武汉,武汉,027,,司门口,解放路365号,景点,步行街,114.298302,30.541553
汉口景明大楼,湖北,武汉,武汉,027,,江汉路/南京路,鄱阳街43号,景点,历史建筑,114.296561,30.582791
