名称,省份,真实城市,市县区,区号,电话,区域,地址,大分类,小分类,经度,纬度
陨石山自然保护区,辽宁,沈阳,沈阳,024,,浑南区,李相镇至姚千户镇,景点,自然风光,123.612121,41.646631
将军公园,辽宁,沈阳,沈阳,024,,北陵,北陵大街45-9号,景点,公园/广场,123.433132,41.834437
护国法轮寺,辽宁,沈阳,沈阳,024,,北陵,北塔街27号,景点,宗教,123.451363,41.830273
辽宁美术馆,辽宁,沈阳,沈阳,024,23848981,南湖公园/三好街,彩塔街38号工业展览馆,景点,美术馆,123.432684,41.773964
辽宁电视塔,辽宁,沈阳,沈阳,024,23936210,南湖公园/三好街,彩塔街1号,景点,高空观景,123.434189,41.782337
长安寺,辽宁,沈阳,沈阳,024,24847440,中街/故宫,皇城街道朝阳街长安寺巷6号（中街地铁站B1口步行180米）,景点,宗教,123.461633,41.803219
张学良旧居,辽宁,沈阳,沈阳,024,24850576;24842454,中街/故宫,朝阳街少帅府巷46号,景点,博物馆,123.457795,41.794051
百鸟公园,辽宁,沈阳,沈阳,024,,北行/辽大,崇山中路66号辽宁大学对面(近宁山路)百鸟园附近,景点,公园/广场,123.402395,41.829671
般若寺,辽宁,沈阳,沈阳,024,24812434,五爱市场,大南街般若寺巷8号,景点,宗教,123.459231,41.782456
慈恩寺,辽宁,沈阳,沈阳,024,24130182,五爱市场,大南街慈恩寺巷12号,景点,宗教,123.460564,41.783492
沈阳世博园,辽宁,沈阳,沈阳,024,88038035;88038036,世博园,双园路301号,景点,植物园,123.649387,41.862263
沈阳皇寺,辽宁,沈阳,沈阳,024,22531709,西塔/北市场,北三经街沈阳宾馆后面（皇寺街）,景点,宗教,123.427887,41.807164
太平寺,辽宁,沈阳,沈阳,024,,西塔/北市场,皇寺路太平里21号,景点,宗教,123.426279,41.807926
中共满洲省委旧址,辽宁,沈阳,沈阳,024,22724485,北站/市府,皇寺路福安巷3号,景点,革命旧址,123.424578,41.807729
青年公园,辽宁,沈阳,沈阳,024,23892220,奉天街沿线,青年大街111号（近文艺路）,景点,公园/广场,123.439229,41.780838
建设公园,辽宁,沈阳,沈阳,024,,重工街沿线,肇工北街108号（近建设西路）,景点,公园/广场,123.337581,41.806137
沈阳国家森林公园,辽宁,沈阳,沈阳,024,89778333,浑南区,马刚乡老寺沟,景点,森林公园,123.723335,42.021531
辉山风景区,辽宁,沈阳,沈阳,024,88750531,浑南区,辉山风景区内（东站）,景点,自然风光,123.654318,41.926968
体育公园,辽宁,沈阳,沈阳,024,,太原街,南三马路61号,景点,公园/广场,123.402795,41.783399
中山公园,辽宁,沈阳,沈阳,024,23456010,太原街,南京南街7号,景点,公园/广场,123.406237,41.785476
棋盘山冰雪大世界,辽宁,沈阳,沈阳,024,4000149996,浑南区,观棋路棋盘山国际旅游风景区内,景点,滑雪场,123.692363,41.937493
沈水湾公园,辽宁,沈阳,沈阳,024,157****6767,浑南新区,青年大街111号,景点,城市公园,123.418686,41.753296
长青公园,辽宁,沈阳,沈阳,024,24214361,长青街,泉园二路85号,景点,公园/广场,123.479069,41.77231
八一公园,辽宁,沈阳,沈阳,024,22829632,西塔/北市场,三纬路18号,景点,公园/广场,123.424582,41.802366
仙女湖公园,辽宁,沈阳,沈阳,024,,重工街沿线,沈辽西路17号,景点,公园/广场,123.335816,41.777287
辉山水库,辽宁,沈阳,沈阳,024,,大东区,沈铁公路,景点,现代建筑,123.515617,41.861609
无垢净光舍利塔,辽宁,沈阳,沈阳,024,,塔湾,塔湾街15巷45号,景点,历史建筑,123.380464,41.835144
北陵公园,辽宁,沈阳,沈阳,024,86901330,北陵,泰山路12号,景点,历史建筑,123.428888,41.851933
克俭公园,辽宁,沈阳,沈阳,024,,皇姑区,阿里山路8号,景点,公园/广场,123.404867,41.809783
万柳塘公园,辽宁,沈阳,沈阳,024,24144259,文艺路/文化路,先农坛路17巷,景点,公园/广场,123.464817,41.78053
沈阳“九·一八”历史博物馆,辽宁,沈阳,沈阳,024,88338981,东站,望花南街46号（望花南街）,景点,博物馆,123.467537,41.836349
南塔公园,辽宁,沈阳,沈阳,024,,文艺路/文化路,文萃路（近文萃苑）,景点,公园/广场,123.453304,41.765816
朱尔水库,辽宁,沈阳,沈阳,024,,大东区,文官街道先进街与文东街交叉口东北50米,景点,自然景观,123.492057,41.889797
龙王庙公园,辽宁,沈阳,沈阳,024,,南湖公园/三好街,文体西路107号,景点,公园/广场,123.404417,41.763695
鲁迅儿童公园,辽宁,沈阳,沈阳,024,23892744,南湖公园/三好街,文艺路2号方形广场（近东北设计院）,景点,公园/广场,123.423928,41.776511
南运河,辽宁,沈阳,沈阳,024,,小河沿,管城二街与小河沿路交叉口附近,景点,更多景点/周边游,123.478355,41.791672
科普公园,辽宁,沈阳,沈阳,024,,五里河,五里河街道五爱街52号（近文体东路）,景点,公园/广场,123.439971,41.761816
鲁迅公园,辽宁,沈阳,沈阳,024,,南市/马路湾,西滨河路6号,景点,公园/广场,123.421487,41.779203
大东公园,辽宁,沈阳,沈阳,024,,黎明广场,长安路85号,景点,公园/广场,123.496336,41.795649
清真南寺,辽宁,沈阳,沈阳,024,22726760,奉天街沿线,南清真路23号,景点,宗教,123.439468,41.802514
黎明公园,辽宁,沈阳,沈阳,024,,黎明广场,东塔街道珠林路63号,景点,公园/广场,123.505701,41.811372
兴华公园,辽宁,沈阳,沈阳,024,,铁西广场,兴华南街(,景点,公园/广场,123.364057,41.78797
铁西劳动公园,辽宁,沈阳,沈阳,024,,重工街沿线,肇工南街75号5单元6楼1门,景点,公园/广场,123.338048,41.786109
沈阳新乐遗址博物馆,辽宁,沈阳,沈阳,024,86130755,陵西,黄河北大街龙山路1号,景点,博物馆,123.415424,41.847486
康辉国际旅行社,辽宁,沈阳,沈阳,024,22815566,南市/马路湾,和平北大街69号,景点,旅行社,123.415951,41.793281
西关回民风味街,辽宁,沈阳,沈阳,024,22736301,北站/市府,市府大路383号西关回民大厅内,景点,步行街,123.439168,41.804076
抗美援朝烈士陵园,辽宁,沈阳,沈阳,024,86622109,陵东,陵东街上岗子1号（北陵公园东侧五里）,景点,烈士陵园,123.452082,41.85564
沈阳鸟岛,辽宁,沈阳,沈阳,024,88033900;88033929,东陵公园,东陵路195号（近东陵公园）,景点,自然风光,123.606785,41.826435
西塔,辽宁,沈阳,沈阳,024,,西塔/北市场,西塔街,景点,历史建筑,123.408701,41.805077
蓬瀛圣境,辽宁,沈阳,沈阳,024,,五里河,南塔街与南塔街80巷交叉口东南100米,景点,宗教,123.451461,41.765803
大佛寺,辽宁,沈阳,沈阳,024,24804423,五爱市场,大南街三段慈恩寺巷14号,景点,宗教,123.459716,41.78456
怀远门,辽宁,沈阳,沈阳,024,,中街/故宫,沈阳路2号,景点,人文古迹,123.448799,41.797755
中山广场,辽宁,沈阳,沈阳,024,,太原街,中国辽宁省沈阳市和平区,景点,公园/广场,123.410611,41.796975
东塔园,辽宁,沈阳,沈阳,024,,黎明广场,东塔街道东塔街2号,景点,更多景点/周边游,123.507345,41.797019
沈飞航空博览园,辽宁,沈阳,沈阳,024,86599602,三台子,陵北街1号,景点,博物馆,123.433387,41.864448
中国工业博物馆,辽宁,沈阳,沈阳,024,25702088,北二路,卫工北街14号,景点,博物馆,123.3552,41.821455
春秋旅游,辽宁,沈阳,沈阳,024,24345366,东中街,东顺城街137号,景点,旅行社,123.464753,41.793812
市府广场,辽宁,沈阳,沈阳,024,186****8889,北站/市府,青年大街1号,景点,广场,123.434115,41.804686
和平广场,辽宁,沈阳,沈阳,024,25225895,南市/马路湾,新兴街11号,景点,广场,123.404324,41.778416
怪坡国际滑雪场,辽宁,沈阳,沈阳,024,89730999;132****3927,沈北新区,清水台镇怪坡路80号,景点,滑雪场,123.649606,42.053579
关东影视城,辽宁,沈阳,沈阳,024,25511999,浑南区,棋盘山378号,景点,影视基地,123.702879,41.949514
罗士圈生态公园,辽宁,沈阳,沈阳,024,,砂山,玉屏二路钓鱼台七号南门对面,景点,公园/广场,123.388242,41.757911
长白岛森林公园,辽宁,沈阳,沈阳,024,,长白岛,南堤西路,景点,森林公园,123.38739,41.751621
辽宁大学-会议中心,辽宁,沈阳,沈阳,024,86864254,北行/辽大,崇山中路66号辽宁大学(近宁山路),景点,景点/周边游,123.403801,41.832529
沈阳国际旅行社,辽宁,沈阳,沈阳,024,159****8869,中街/故宫,中街路115号兴隆大家庭旅游超市,景点,旅行社,123.455275,41.800435
阳春园,辽宁,沈阳,沈阳,024,186****4346,砂山,砂阳路27号省妇婴医院附近,景点,公园/广场,123.395457,41.767099
卫工明渠,辽宁,沈阳,沈阳,024,,保工街,富海云天西北50米（卫工南街东）,景点,更多景点/周边游,123.343684,41.790252
吉祥街景观夜市,辽宁,沈阳,沈阳,024,,大东广场,洮昌街与联合路交叉口南20米,景点,夜市,123.470821,41.823145
彩电塔夜市,辽宁,沈阳,沈阳,024,,南湖公园/三好街,南一经街与南一经街144巷交口北50米路西,景点,夜市,123.433121,41.785217
太公岛度假村,辽宁,沈阳,辽中区,024,82150066,辽中区其他,潘乌公路小明星双语幼儿园西北侧约170米,景点,景点/周边游,123.012559,41.700269
枫露公园,辽宁,沈阳,沈阳,024,,大东广场,津桥街道联合路,景点,公园/广场,123.466926,41.819817
南运河带状公园,辽宁,沈阳,沈阳,024,22821999,彩电塔,风雨坛街道西滨河路28号,景点,公园/广场,123.43158,41.782394
康乐公园,辽宁,沈阳,沈阳,024,,铁西广场,安工街2号（铁西广场地铁站C口步行330米）,景点,公园/广场,123.372644,41.791524
砂山公园,辽宁,沈阳,沈阳,024,23371426,砂山,南京南街182号（隆轩御宫）,景点,公园/广场,123.389285,41.770464
金山公园,辽宁,沈阳,沈阳,024,,苏家屯客运站,桂花街,景点,公园/广场,123.333762,41.676944
龙泉山森林公园,辽宁,沈阳,沈阳,024,,浑南区,沈祝线旁,景点,森林公园,123.712665,41.678112
烈士塔公园,辽宁,沈阳,辽中区,024,,北一路,东环街267号,景点,公园/广场,122.74271,41.516139
怒江公园,辽宁,沈阳,沈阳,024,62610889,怒江北街,南十二西路1号,景点,公园/广场,123.392038,41.840389
苏家屯劳动公园,辽宁,沈阳,沈阳,024,89814247,苏家屯区政府,青松路,景点,公园/广场,123.348361,41.669937
黄海公园,辽宁,沈阳,沈阳,024,25301020,于洪广场,"洪湖南街（渤海路与洪湖南街交汇处,世代龙泽湾附近）",景点,公园/广场,123.312159,41.788004
碧塘公园,辽宁,沈阳,沈阳,024,,北行/辽大,长江街15号,景点,公园/广场,123.415548,41.820359
带状公园,辽宁,沈阳,辽中区,024,,辽中区其他,北环路与商业街交汇处,景点,公园/广场,122.736924,41.519085
沈阳国际建材展示馆,辽宁,沈阳,沈阳,024,,东中街,小河沿路城建东逸花园,景点,展览馆,123.482626,41.790176
沈阳誉湾旅行社,辽宁,沈阳,沈阳,024,62811203,南市/马路湾,十三纬路19号冶金大厦1105室,景点,旅行社,123.416925,41.783304
绿城旅行社,辽宁,沈阳,沈阳,024,62634909,铁西广场,建设东路57号爱都国际912室,景点,旅行社,123.377364,41.791799
友好旅行社,辽宁,沈阳,沈阳,024,22871919,太原街,民族南街66号温州城A5（近交通银行）,景点,旅行社,123.396231,41.791274
汇点国际旅行社,辽宁,沈阳,沈阳,024,,南市/马路湾,十一纬路82号皇城酒店公寓（近北五经街）,景点,旅行社,123.421455,41.790059
枫林旅行社,辽宁,沈阳,沈阳,024,62579045,奉天街沿线,奉天北街346号格林自由成A1701室,景点,旅行社,123.442026,41.808276
百信达旅行社有限公司,辽宁,沈阳,沈阳,024,88619693,中街/故宫,朝阳街238号科隆酒店2楼,景点,旅行社,123.459921,41.794495
国奥旅行社,辽宁,沈阳,沈阳,024,,苏家屯区政府,迎春街135号9门,景点,旅行社,123.342666,41.659196
康辉国际旅行社,辽宁,沈阳,沈阳,024,31670117,北行/辽大,黄河南大街68号3门,景点,旅行社,123.419739,41.832579
旅游集散中心,辽宁,沈阳,沈阳,024,25874777,铁西广场,建设东路33号,景点,旅行社,123.380535,41.789616
沈阳东方旅行社,辽宁,沈阳,沈阳,024,84825266,长青街,文化东路52号,景点,旅行社,123.471742,41.769191
金运之旅,辽宁,沈阳,沈阳,024,136****3961,南市/马路湾,和平南大街39号嘉环大厦,景点,旅行社,123.408755,41.783645
国际商务旅行社,辽宁,沈阳,沈阳,024,,北站/市府,北京街21号许兄弟大厦817室,景点,旅行社,123.43137,41.81002
美好时光旅行社,辽宁,沈阳,沈阳,024,23240651,太原街,中华路121号SOHO新天地1917室,景点,旅行社,123.410016,41.787726
中国青年旅行社,辽宁,沈阳,沈阳,024,130****9506,中街/故宫,中街路115号兴隆大家庭内（近沈阳故宫中心庙）,景点,旅行社,123.45565,41.79982
中国旅行社,辽宁,沈阳,沈阳,024,22844133;159****0123,西塔/北市场,南京北街109号和泰运恒国际大厦A座1305室,景点,旅行社,123.412339,41.798579
中国旅行社,辽宁,沈阳,沈阳,024,86852694,南市/马路湾,和平北大街94号星光大厦11层1101室,景点,旅行社,123.414836,41.792974
神州旅行社,辽宁,沈阳,沈阳,024,158****5858,北行/辽大,岐山中路1号东机大厦903室,景点,旅行社,123.427565,41.823325
长白山旅行社,辽宁,沈阳,沈阳,024,83959868,南湖公园/三好街,南湖街道三好街136号新世界丰盛商务大厦11楼,景点,旅行社,123.423104,41.758204
铁道国际旅行社,辽宁,沈阳,沈阳,024,23929923,西塔/北市场,哈尔滨路65号,景点,旅行社,123.424105,41.811585
沈阳铁道青年国际旅行社,辽宁,沈阳,沈阳,024,150****2931,铁西广场,贵和街小北三路3-3-15门,景点,旅行社,123.372553,41.802423
佳通旅行社,辽宁,沈阳,沈阳,024,,太原街,中山路111号,景点,旅行社,123.413999,41.797089
佳信旅行社,辽宁,沈阳,沈阳,024,,长青街,长青街35号万泉商务大厦1层,景点,旅行社,123.47456,41.78133
中国旅行社,辽宁,沈阳,沈阳,024,89101066,苏家屯区政府,枫杨路78号房产大厦(枫杨路)1楼左侧,景点,旅行社,123.345495,41.661381
青年国际旅行社,辽宁,沈阳,沈阳,024,,北站/市府,北站路112号瑞心东方酒店1136室,景点,旅行社,123.440485,41.818635
中国国旅,辽宁,沈阳,沈阳,024,22595707;22595717,南市/马路湾,南三经街71号,景点,旅行社,123.427635,41.783755
中国旅行社,辽宁,沈阳,沈阳,024,83251245;137****1425,南市/马路湾,十四纬路17号,景点,旅行社,123.426661,41.782991
中国旅行社总社,辽宁,沈阳,沈阳,024,31223325,北行/辽大,长江街商圈岐山中路50号,景点,旅行社,123.414107,41.823047
园林国际旅行社,辽宁,沈阳,沈阳,024,62467158,五爱市场,热闹路60号甲,景点,旅行社,123.450216,41.788266
好运旅行社,辽宁,沈阳,沈阳,024,89117766,苏家屯区政府,海棠街33号博宇大厦710室,景点,旅行社,123.34575,41.66409
沈阳书画院,辽宁,沈阳,沈阳,024,22515763,西塔/北市场,总站路115号建筑大厦附楼2层,景点,美术馆,123.428024,41.809844
沈阳科学宫,辽宁,沈阳,沈阳,024,23978049;23978016,五里河,青年大街201号,景点,科技馆,123.436226,41.761732
辽宁工业展览馆,辽宁,沈阳,沈阳,024,83939308,南湖公园/三好街,彩塔街38号(辽宁电视台旁)（工业展览馆地铁站C口旁）,景点,展览馆,123.433732,41.773052
辽宁省农业展览馆,辽宁,沈阳,沈阳,024,31025015,东陵路/沈阳农业大学,马官桥街道东陵路78号,景点,博物馆,123.550391,41.823036
沈阳金融博物馆,辽宁,沈阳,沈阳,024,24867711;24842454,中街/故宫,朝阳街少帅府巷48号,景点,博物馆,123.459822,41.794055
舍利塔滩地公园,辽宁,沈阳,沈阳,024,,塔湾,舍利塔街道塔湾街,景点,公园/广场,123.379973,41.834015
沈阳铁路陈列馆,辽宁,沈阳,沈阳,024,62077168;62077705,苏家屯区,山丹街8号,景点,博物馆,123.361474,41.682637
大法寺,辽宁,沈阳,沈阳,024,81748923;88573009,大东广场,大北街道八王寺街120号（近沈阳大学南门）,景点,宗教,123.461783,41.817711
沈阳城市规划展示馆,辽宁,沈阳,沈阳,024,31378969,浑南新区,五爱街156号,景点,陈列馆,123.441091,41.759723
中国旅行社,辽宁,沈阳,沈阳,024,86263688,南市/马路湾,三经街17号辽宁日报社西侧（近中山路）,景点,旅行社,123.425281,41.799519
大东广场,辽宁,沈阳,沈阳,024,,大东广场,大北关街36-1号,景点,广场,123.463927,41.818691
重型文化广场,辽宁,沈阳,沈阳,024,,北一路万达,兴华北街8号(,景点,广场,123.383164,41.812976
辽沈晚报文化广场,辽宁,沈阳,沈阳,024,,吉祥市场,北洮昌街8号-1附近,景点,广场,123.469486,41.824222
中街步行街,辽宁,沈阳,沈阳,024,31655128,中街/故宫,中街路与东顺城内街交叉口东40米,景点,步行街,123.464621,41.801572
夏芳园,辽宁,沈阳,沈阳,024,,小河沿,万泉街4号,景点,公园/广场,123.468345,41.79015
沈阳建筑大学商业街,辽宁,沈阳,沈阳,024,,浑南新区,浑南东路9号沈阳建筑大学内,景点,观光街区,123.517087,41.745137
太美旅游,辽宁,沈阳,沈阳,024,88613638,奉天街沿线,奉天大街346号格林自由成（近格林嚎森）,景点,旅行社,123.44214,41.808011
沈阳建筑大学建筑博物馆,辽宁,沈阳,沈阳,024,,浑南新区,五三街道浑南东路9号,景点,博物馆,123.515152,41.743851
保利·双河城公园,辽宁,沈阳,沈阳,024,,东陵路/沈阳农业大学,东陵街道东陵西路29号新宁街,景点,公园/广场,123.540545,41.809308
凯撒旅游沈阳分站,辽宁,沈阳,沈阳,024,31379689,文艺路/文化路,青年大街286号华润大厦A座1105室,景点,旅行社,123.434871,41.776973
营城子大街基督教堂,辽宁,沈阳,沈阳,024,,浑南区,营城子大街,景点,宗教,123.633009,41.714537
世博国际旅行社,辽宁,沈阳,沈阳,024,31689488,东中街,东顺城街17号共达大厦1303室（近中街新世界百货4部）,景点,旅行社,123.464762,41.803712
客运天天旅行社,辽宁,沈阳,沈阳,024,130****9629,北站/市府,北站路77号光达大厦C座15楼8号,景点,旅行社,123.437115,41.815585
旅游观光巴士,辽宁,沈阳,沈阳,024,66890630,北陵,黄河南大街105号辽宁大厦（近南风大剧院）,景点,城市观光,123.423464,41.839179
虎跃旅行社,辽宁,沈阳,沈阳,024,4006900556,北站/市府,友好街21-3号,景点,旅行社,123.441557,41.812307
中国旅行社,辽宁,沈阳,沈阳,024,135****5427,西塔/北市场,南京北街21号远东大厦11楼,景点,旅行社,123.42057,41.810333
名流旅行社,辽宁,沈阳,沈阳,024,66774405;88618711,东中街,万泉街道珠林路90号13门,景点,旅行社,123.483506,41.808956
沈阳客运天天旅行社有限公司,辽宁,沈阳,沈阳,024,66688799,北行/辽大,长江南街208号美联大厦1107（碧塘公园）,景点,旅行社,123.412671,41.818441
虎跃旅行社,辽宁,沈阳,沈阳,024,23418462;23419262,西塔/北市场,市府大路45号虎跃快捷酒店4层,景点,旅行社,123.413352,41.804212
虎跃旅行社,辽宁,沈阳,沈阳,024,62435888,中街/故宫,广宜街2号4门,景点,旅行社,123.446966,41.805486
爱新觉罗皇家博物院,辽宁,沈阳,法库县,024,87021111,法库县其他,大孤家子镇203国道半拉山村西南520米,景点,博物馆,123.308216,42.333071
1905文化创意园,辽宁,沈阳,沈阳,024,182****1905,北二路,兴华北街1905-8号门,景点,创意园区,123.382436,41.812444
四方蓝天国际旅行社,辽宁,沈阳,沈阳,024,182****2255,南市/马路湾,十三纬路39号格林SOHO大厦1604室,景点,旅行社,123.421878,41.784288
吉祥寺,辽宁,沈阳,法库县,024,,大卖场,兴法路33号,景点,宗教,123.416171,42.507335
皇寺广场,辽宁,沈阳,沈阳,024,,西塔/北市场,南京北街18号,景点,宗教,123.426717,41.807341
中国旅行社,辽宁,沈阳,沈阳,024,23875248,南市/马路湾,和平南大街43号,景点,旅行社,123.408264,41.783052
沈阳北国旅行社,辽宁,沈阳,沈阳,024,62422515,北站/市府,惠工广场,景点,旅行社,123.440134,41.813636
玩美假期旅行社,辽宁,沈阳,沈阳,024,31585880,南湖公园/三好街,三好街华强广场D座1206室,景点,旅行社,123.426914,41.762547
方家栏基督教会,辽宁,沈阳,沈阳,024,,长青街,方兴路6-2号3门,景点,宗教,123.497716,41.777036
领航旅行社,辽宁,沈阳,沈阳,024,136****1545,小白楼,华山路298号（小白楼）,景点,旅行社,123.395682,41.822082
周恩来少年读书旧址区,辽宁,沈阳,沈阳,024,62437085,中街/故宫,万泉街道大东路育才巷10号,景点,古代遗迹,123.466038,41.794926
中山路欧风街,辽宁,沈阳,沈阳,024,,太原街,广州街与桂林街交叉口东100米,景点,步行街,123.413143,41.797358
金运之旅,辽宁,沈阳,沈阳,024,96677,文艺路/文化路,文化路家乐福2楼,景点,旅行社,123.436533,41.770693
虎石台公园,辽宁,沈阳,沈阳,024,,虎石台,建设路与兴盛街交叉路口往东南约180米,景点,公园/广场,123.515021,41.942188
长寿园,辽宁,沈阳,新民市,024,,新民市其他,304国道附近,景点,更多景点/周边游,122.961753,42.00974
康辉国际旅行社有限公司,辽宁,沈阳,新民市,024,27622513,南转盘,站前大街123号,景点,旅行社,122.830729,41.986644
三道岗子乡基督教活动点,辽宁,沈阳,新民市,024,,新民市其他,郭三线基督教堂（郭三线）附近,景点,景点/周边游,123.122002,42.078751
好运旅行社,辽宁,沈阳,新民市,024,87515799,新民市中心城区,伯爵公园道1号,景点,旅行社,122.827751,41.989871
新开河公园,辽宁,沈阳,新民市,024,,新民市其他,东郊路与102国道交叉口南150米,景点,公园/广场,122.851114,42.003754
沈阳市新民城区基督教堂,辽宁,沈阳,新民市,024,,新民市其他,102国道,景点,宗教,122.823571,42.009873
新联旅行社,辽宁,沈阳,新民市,024,62278911;138****0606,新民市中心城区,站前大街98号向阳新村11号楼,景点,旅行社,122.826335,41.991735
农业百科园,辽宁,沈阳,新民市,024,,新民市其他,姜张线（沈阳三农博览园对面）,景点,科技馆,122.782657,42.137547
三圣寺,辽宁,沈阳,新民市,024,,新民市其他,姜张线,景点,宗教,122.784986,42.139299
新民基督教堂,辽宁,沈阳,新民市,024,,新民市其他,人民政府西侧约260米,景点,宗教,123.122,42.07875
海佛林,辽宁,沈阳,新民市,024,,新民市中心城区,中兴西路92-3号,景点,景点/周边游,122.824246,41.993206
三圣苑,辽宁,沈阳,新民市,024,,新民市其他,姜张线,景点,景点/周边游,122.783477,42.139374
湖滨公园,辽宁,沈阳,新民市,024,,新民市中心城区,湖滨街与湖滨西路交叉口东280米,景点,公园/广场,122.840338,41.993673
辽滨塔,辽宁,沈阳,新民市,024,,新民市其他,东北29公里处的辽滨村,景点,历史建筑,123.066186,42.136753
辽河东基督教福音堂,辽宁,沈阳,新民市,024,,新民市其他,基督教堂（304国道北）,景点,宗教,123.016681,41.960153
新民市烈士陵园,辽宁,沈阳,新民市,024,87853627,新民市其他,市社会福利院对面,景点,烈士陵园,122.841356,42.014537
潢南河带状公园,辽宁,沈阳,新民市,024,,新民市其他,中兴东路,景点,公园/广场,122.851684,42.002088
锡伯族家庙,辽宁,沈阳,沈阳,024,,西塔/北市场,皇寺路178号,景点,宗教,123.426689,41.807827
辽宁总站,辽宁,沈阳,沈阳,024,,西塔/北市场,总站路100号,景点,人文古迹,123.42683,41.810916
机电产品一条街,辽宁,沈阳,沈阳,024,,太原街,中华路2号,景点,步行街,123.397007,41.793865
沈阳旅行服务段,辽宁,沈阳,沈阳,024,,南市/马路湾,新兴街15号,景点,旅行社,123.406117,41.776954
光大国际旅行社,辽宁,沈阳,沈阳,024,23853777,太原街,南京南街34号沈铁文化活动楼203,景点,旅行社,123.402672,41.787072
东洋拓殖株式会社奉天支店旧址,辽宁,沈阳,沈阳,024,,太原街,中山路101甲,景点,古代遗迹,123.411805,41.796762
奉天警察署旧址,辽宁,沈阳,沈阳,024,,太原街,中山路106号,景点,古代遗迹,123.409823,41.79781
博曼广场,辽宁,沈阳,沈阳,024,31317887,西塔/北市场,西塔新开道敦化一路安图街3号,景点,广场,123.408603,41.805883
平安座旧址,辽宁,沈阳,沈阳,024,,太原街,民主路72号,景点,古代遗迹,123.398914,41.78785
清风海岸旅行社,辽宁,沈阳,沈阳,024,,西塔/北市场,市府大路55号年华国际大厦0725号,景点,旅行社,123.415067,41.804091
城建林,辽宁,沈阳,沈阳,024,,南湖公园/三好街,文体西路137号,景点,自然风光,123.399496,41.763704
领事馆绿地,辽宁,沈阳,沈阳,024,,南市/马路湾,嘉隆大厦a座1102号,景点,公园/广场,123.425487,41.784851
龙游旅行社有限公司,辽宁,沈阳,沈阳,024,,西塔/北市场,哈尔滨路58号房联大厦822号,景点,旅行社,123.425095,41.812289
康辉国际旅行社,辽宁,沈阳,沈阳,024,151****6281,于洪新城,南阳湖街166-11号附近,景点,旅行社,123.331181,41.742455
天马旅行社,辽宁,沈阳,沈阳,024,31503883,西塔/北市场,市府大路166-168号华姿国际大厦D-15-2,景点,旅行社,123.421268,41.805104
森林湖,辽宁,沈阳,沈阳,024,,和平区,驼峰街,景点,森林公园,123.3724,41.698065
刘少奇同志秘密居住地,辽宁,沈阳,沈阳,024,22724486,西塔/北市场,皇寺路福安巷3号,景点,更多景点/周边游,123.424709,41.807949
宝中旅游,辽宁,沈阳,沈阳,024,,南市/马路湾,云集东巷23号,景点,旅行社,123.421216,41.788716
车向忱旧居,辽宁,沈阳,沈阳,024,,太原街,太原街商圈南三马路27号,景点,名人故居,123.39895,41.78641
中国旅行社,辽宁,沈阳,沈阳,024,31326278;133****6168,西塔/北市场,北市场街道市府大路55号年华国际大厦102室,景点,旅行社,123.415214,41.803907
居士林,辽宁,沈阳,沈阳,024,24142553,五爱市场,大南街富教巷16至2号,景点,自然景观,123.460063,41.781745
老年旅行社,辽宁,沈阳,沈阳,024,22895992;22893579,南市/马路湾,北三经街51号,景点,旅行社,123.425004,41.795994
东三省官银号旧址,辽宁,沈阳,沈阳,024,81352539,中街/故宫,朝阳街21号（中街地铁站B1口步行150米）,景点,古代遗迹,123.461004,41.80289
皂角园,辽宁,沈阳,沈阳,024,,文艺路/文化路,滨河街道文艺路54号,景点,公园/广场,123.447616,41.775554
清盛京城德盛门瓮城遗址,辽宁,沈阳,沈阳,024,,五爱市场,大南街1号,景点,古代遗迹,123.460368,41.792708
沈阳市园林植物标本公园,辽宁,沈阳,沈阳,024,,五里河,南塔街道南塔西街与科普路交叉口西北150米,景点,植物园,123.443866,41.759848
泰达旅行社,辽宁,沈阳,沈阳,024,,长青街,文富路30号,景点,旅行社,123.467883,41.770987
辽宁康辉国际旅行社,辽宁,沈阳,沈阳,024,22945555,奉天街沿线,小西路与奉天街交叉口南50米,景点,旅行社,123.440251,41.800711
盛京旅游文化广场,辽宁,沈阳,沈阳,024,,中街/故宫,沈阳路与承德路交叉口东北20米,景点,公园/广场,123.450498,41.797838
捷旅假期,辽宁,沈阳,沈阳,024,,北站/市府,北站路77号光达大厦C座1单元18层,景点,旅行社,123.437129,41.815579
沈阳中意国际旅行社,辽宁,沈阳,沈阳,024,31663033,北站/市府,北站路112号瑞心东方酒店1-2层,景点,旅行社,123.440473,41.818614
中国国际旅行社,辽宁,沈阳,沈阳,024,88506060;88522199,北站/市府,北顺城路59号汉庭一楼,景点,旅行社,123.449396,41.806964
康辉旅游,辽宁,沈阳,沈阳,024,62219996,文艺路/文化路,文化东路52号,景点,旅行社,123.471847,41.769272
金运之旅,辽宁,沈阳,沈阳,024,,长青街,万柳塘路63号万泉商务中心F1层,景点,旅行社,123.473867,41.782004
辽宁和平国际旅行社出国签证中心,辽宁,沈阳,沈阳,024,22512855,北站/市府,团结路7-1号华府天地1号楼10-12号,景点,旅行社,123.432902,41.808252
世纪会堂,辽宁,沈阳,沈阳,024,,东陵路/沈阳农业大学,东陵路120号,景点,景点/周边游,123.565681,41.82304
光大旅行社,辽宁,沈阳,沈阳,024,,北站/市府,北站街道哈尔滨路128号华府天地3号楼2512室,景点,旅行社,123.432238,41.811778
好运旅行社,辽宁,沈阳,沈阳,024,88613233,中街/故宫,风雨坛街1号船舶大厦407室,景点,旅行社,123.449092,41.792841
基督教宁官朝鲜族礼拜堂,辽宁,沈阳,沈阳,024,,铁西区,丽佳幼儿园东南侧约260米,景点,宗教,123.278488,41.754248
工人会堂,辽宁,沈阳,沈阳,024,25610092,北二路,北二中路1号,景点,景点/周边游,123.37837,41.805496
界园,辽宁,沈阳,沈阳,024,,铁西区,开发二十二号路与四环路交叉路口往东北约140米,景点,公园/广场,123.213914,41.709987
中国国际旅行社,辽宁,沈阳,沈阳,024,62134555,兴隆大都汇,建设西路2号龙之梦大都汇B1,景点,旅行社,123.342934,41.804165
佳胜展览展示,辽宁,沈阳,沈阳,024,25442778,兴顺夜市,景星南街90号中城大厦2306,景点,展览馆,123.355802,41.790105
中国旅行社,辽宁,沈阳,沈阳,024,31087498,盛京商场,昆明湖街道沈辽西路27号兴隆大天地B1层,景点,旅行社,123.333145,41.778103
世纪庄园,辽宁,沈阳,沈阳,024,,铁西区,恩劲松南街南区9栋,景点,动植物园,123.053564,41.693954
远大湿地公园,辽宁,沈阳,沈阳,024,,铁西区,开发大路,景点,公园/广场,123.217588,41.76141
康辉旅游,辽宁,沈阳,沈阳,024,62644388;62644377,保工街,二环内北三中路23-1号,景点,旅行社,123.359491,41.809301
慈航寺,辽宁,沈阳,沈阳,024,,铁西区,东八路,景点,宗教,123.097537,41.630429
铁西规划展示馆,辽宁,沈阳,沈阳,024,,重工街沿线,重工北街64号,景点,陈列馆,123.329509,41.81493
辽宁国际商务旅行社,辽宁,沈阳,沈阳,024,25656897,铁西广场,南七东路29号3门（应昌街七马路路口西南角1楼门市）,景点,旅行社,123.369365,41.789465
康辉旅游,辽宁,沈阳,沈阳,024,,铁西广场,兴华街道兴华南街31号5门附近,景点,旅行社,123.369692,41.793602
熙湖,辽宁,沈阳,沈阳,024,,财富广场,昆明湖街道中央大街与南十三号路交叉口西北100米,景点,自然风光,123.243171,41.750222
铁西基督教堂,辽宁,沈阳,沈阳,024,,财富广场,曹后公路（新庭家园东南）,景点,景点/周边游,123.263297,41.742826
福安庙,辽宁,沈阳,沈阳,024,,铁西区,冶金一街,景点,宗教,123.041865,41.67828
腾飞公园,辽宁,沈阳,沈阳,024,,滑翔小区,腾飞二街,景点,公园/广场,123.358753,41.772896
细河U谷,辽宁,沈阳,沈阳,024,,铁西区,四环路与细河悠谷交叉口东10米,景点,公园/广场,123.21925,41.698829
中国旅行社,辽宁,沈阳,沈阳,024,186****1207,大东广场,滂江街22号龙之梦购物中心B2层红厅,景点,旅行社,123.487831,41.808002
黎明游园,辽宁,沈阳,沈阳,024,,黎明广场,东塔街沈阳市大东区二0二小学西南侧约240米,景点,公园/广场,123.507749,41.801419
辽宁光大国际旅行社,辽宁,沈阳,沈阳,024,88728810,东中街,津桥路2甲金香山大厦312室,景点,旅行社,123.465088,41.805262
杨宇霆公馆,辽宁,沈阳,沈阳,024,88847289,东中街,魁星楼路6-1w号附近,景点,人文古迹,123.465976,41.792721
大东基督教,辽宁,沈阳,沈阳,024,,大东广场,万泉街道东顺城街三自巷8号,景点,宗教,123.465489,41.798628
沈海园,辽宁,沈阳,沈阳,024,,东站,东站西货场对面,景点,公园/广场,123.482054,41.814736
怡林园,辽宁,沈阳,沈阳,024,,大东区,东望北街与东望街祁家西巷交叉口北260米,景点,公园/广场,123.524454,41.847714
中国旅行社,辽宁,沈阳,沈阳,024,24345212;183****1666,大东广场,津桥路31甲1-03二室,景点,旅行社,123.474678,41.804508
海外旅游总公司,辽宁,沈阳,沈阳,024,,东中街,小东路241号天阔华城4层408室,景点,旅行社,123.477116,41.804926
沈阳远东旅行社有限公司,辽宁,沈阳,沈阳,024,86626238,北陵,崇山东路40号,景点,旅行社,123.449729,41.833901
王明宇公馆,辽宁,沈阳,沈阳,024,22875263,东站,工农路辅路与辽沈一街交叉口东南80米,景点,人文古迹,123.476372,41.815441
金运之旅,辽宁,沈阳,沈阳,024,88646688,北陵,北陵大街51号,景点,旅行社,123.428951,41.838281
国家标准馆,辽宁,沈阳,沈阳,024,31512650,北陵,崇山东路61号（陵东街地铁站A口步行250米）,景点,展览馆,123.446945,41.832771
中国国际旅行社,辽宁,沈阳,沈阳,024,62650752;62650753,北行/辽大,昆山中路28号,景点,旅行社,123.422388,41.818521
冬青游园,辽宁,沈阳,沈阳,024,,塔湾,造化街道塔湾街27号,景点,公园/广场,123.374452,41.832767
中国国际旅行社,辽宁,沈阳,沈阳,024,62595888;62595666,苏家屯区政府,玫瑰街香杨路33号20号楼808室,景点,旅行社,123.345764,41.663954
四方台村文化广场,辽宁,沈阳,沈阳,024,,苏家屯区,清州街76-4号附近,景点,公园/广场,123.34919,41.613583
世纪国际旅行社,辽宁,沈阳,沈阳,024,29823835,苏家屯区政府,青松路18号16门,景点,旅行社,123.341374,41.667164
杨孟达村文化广场,辽宁,沈阳,沈阳,024,,苏家屯区,杨孟达村文化广场,景点,广场,123.221321,41.669442
康辉国际旅行社,辽宁,沈阳,沈阳,024,89123466,苏家屯区政府,香杨路20号楼,景点,旅行社,123.350751,41.658341
鹿鸣村植物园,辽宁,沈阳,沈阳,024,,苏家屯区,第二十中学(自然分校)东北侧,景点,植物园,123.670651,41.608561
誉湾旅行社,辽宁,沈阳,沈阳,024,138****2844,苏家屯客运站,葵松二路13号楼（近苏家屯门市部）,景点,旅行社,123.332452,41.671392
姚千村农民文化广场,辽宁,沈阳,沈阳,024,,苏家屯区,春光街东50米,景点,公园/广场,123.614639,41.536677
林苑旅行社,辽宁,沈阳,沈阳,024,89129885;89139885,苏家屯客运站,枫杨路143号,景点,旅行社,123.323279,41.658019
苏家屯画院,辽宁,沈阳,沈阳,024,,苏家屯区政府,枫杨路33号,景点,美术馆,123.350999,41.66179
森林自然保护区,辽宁,沈阳,沈阳,024,,苏家屯区,（水洞藏军洞风景区）,景点,森林公园,123.720415,41.603806
日俄会战碑日本碑,辽宁,沈阳,沈阳,024,,苏家屯区,魏家楼子村东烟龙山南北两个山头上,景点,人文古迹,123.450961,41.603191
新开河村文化广场,辽宁,沈阳,沈阳,024,,苏家屯区,望滨路南50米,景点,公园/广场,123.175752,41.636996
龙潭峪,辽宁,沈阳,沈阳,024,89778123,浑南区,国家森林公园内,景点,公园/广场,123.733418,42.030489
回龙岗革命公墓,辽宁,沈阳,沈阳,024,88071918,沈北新区,辉山街道畅阳路224号,景点,烈士陵园,123.55566,41.893995
北斗公园,辽宁,沈阳,沈阳,024,,新城子,福州路66号,景点,公园/广场,123.531734,42.043985
沈阳国际旅行社,辽宁,沈阳,沈阳,024,,新城子,太阳街36号,景点,旅行社,123.527493,42.047203
和平公园,辽宁,沈阳,沈阳,024,,道义,七星大街与蒲北路交汇蒲北路20号,景点,公园/广场,123.411251,41.937065
清水台清真寺,辽宁,沈阳,沈阳,024,,沈北新区,辉山北大街165号,景点,宗教,123.616507,42.019624
青年国际旅行社,辽宁,沈阳,沈阳,024,,新城子,太阳街福宁小区,景点,旅行社,123.527256,42.047553
南沟水库,辽宁,沈阳,沈阳,024,,沈北新区,辉山街道沈北路198号,景点,现代建筑,123.616001,41.913486
长河公园,辽宁,沈阳,沈阳,024,,新城子,虎石台北大街8号对面,景点,公园/广场,123.535553,42.049947
新城子基督教堂,辽宁,沈阳,沈阳,024,,新城子,银河街4号楼,景点,宗教,123.518864,42.062508
洋山民俗村,辽宁,沈阳,沈阳,024,,浑南区,大洋山森林公园附近,景点,古村古镇,123.694685,41.958085
孙家寨基督教,辽宁,沈阳,沈阳,024,,浑南区,营祝线启源艺术双语幼儿园东南侧约120米,景点,宗教,123.542649,41.700815
古城子镇基督教堂,辽宁,沈阳,沈阳,024,,浑南区,古张公路,景点,宗教,123.578441,41.742181
古陨石怪山,辽宁,沈阳,沈阳,024,,浑南区,李相街道沈李线,景点,自然风光,123.643471,41.614651
浑河堡教堂,辽宁,沈阳,沈阳,024,159****3210,浑南新区,世纪新城金帆西路8号,景点,宗教,123.441204,41.722204
陨石山森林公园,辽宁,沈阳,沈阳,024,,浑南区,沈李线,景点,森林公园,123.657626,41.612871
朝阳山生态文化景区,辽宁,沈阳,沈阳,024,24769276,浑南区,常沙线东50米,景点,自然风光,123.668086,41.72508
满族民俗博物馆,辽宁,沈阳,沈阳,024,,浑南区,石刘线东50米,景点,博物馆,123.642096,41.619393
莫子山公园,辽宁,沈阳,沈阳,024,,浑南新区,环山路,景点,城市公园,123.484852,41.670702
藏龙潭,辽宁,沈阳,沈阳,024,,浑南区,常沙线,景点,自然风光,123.668147,41.724376
浑南基督教堂,辽宁,沈阳,沈阳,024,,浑南区,棋望线附近,景点,宗教,123.726649,41.908453
马楼子村文化广场,辽宁,沈阳,沈阳,024,,浑南区,机场路,景点,广场,123.517914,41.635979
桃仙故里,辽宁,沈阳,沈阳,024,23793401,浑南区,桃仙街道三〇四国道宁路小学附近,景点,更多景点/周边游,123.526674,41.658359
神农科技观光园,辽宁,沈阳,沈阳,024,,浑南区,（沈阳棋盘山风景名胜区）,景点,动植物园,123.695793,41.942744
仙境湖,辽宁,沈阳,沈阳,024,,于洪区,后三线东50米,景点,自然风光,123.140163,41.939475
陵西基督教堂,辽宁,沈阳,沈阳,024,186****3932,陵西,陵西街55号,景点,宗教,123.409611,41.845962
长江园,辽宁,沈阳,沈阳,024,,北行/辽大,长江北街1-1号,景点,公园/广场,123.410204,41.840126
观音寺,辽宁,沈阳,沈阳,024,,荷兰村,白山路98号,景点,宗教,123.390993,41.859835
晚报文化广场,辽宁,沈阳,沈阳,024,,丁香湖,丁香湖路,景点,广场,123.337959,41.847035
中国旅行社,辽宁,沈阳,沈阳,024,155****1665,长江北街/黑山路,怒江北街,景点,旅行社,123.398411,41.866951
岔路南经基督教堂,辽宁,沈阳,沈阳,024,,于洪区,岔边线,景点,宗教,123.185753,41.865067
兴国念佛堂,辽宁,沈阳,沈阳,024,,于洪区,沈胡路爱过家园爱过村,景点,宗教,123.227075,41.829433
北陵基督教,辽宁,沈阳,沈阳,024,,国奥现代城,千山西路8-4号,景点,宗教,123.409703,41.878185
三山梅花鹿园,辽宁,沈阳,沈阳,024,89286633,于洪区,沈于线与青三线交汇处南行100米,景点,动物园,123.293728,41.97574
澳瑞展示中心,辽宁,沈阳,法库县,024,,法库县其他,兴工街东50米,景点,展览馆,123.399709,42.490649
叶茂台辽墓,辽宁,沈阳,法库县,024,25553725,法库县其他,叶茂台村西北山岗,景点,古代遗迹,122.863224,42.32668
石佛寺水库,辽宁,沈阳,法库县,024,,法库县其他,沈康高速,景点,宗教,123.433993,42.172132
二龙山公园,辽宁,沈阳,法库县,024,,法库县其他,吉祥街道兴法路,景点,公园/广场,123.40463,42.511135
康辉国际旅行社,辽宁,沈阳,法库县,024,130****4455,幸福花园,龙山东路与晓东街交叉路口东侧(佳帝华城西南侧)法库镇南尚品南苑5号02网点,景点,旅行社,123.427039,42.509929
财宫,辽宁,沈阳,法库县,024,,法库县其他,203国道,景点,宗教,123.346134,42.403164
二龙山革命烈士陵园,辽宁,沈阳,法库县,024,,法库县其他,龙山西路与边门街交叉口西700米路南,景点,烈士陵园,123.405859,42.510978
桃山,辽宁,沈阳,法库县,024,,法库县其他,孟家镇203国道,景点,自然风光,123.433569,42.531819
法库基督教堂,辽宁,沈阳,法库县,024,,法库县其他,G101,景点,宗教,123.121555,42.29091
猫五爷庙,辽宁,沈阳,法库县,024,,法库县其他,105省道,景点,宗教,123.644694,42.601839
小城子森林公园,辽宁,沈阳,康平县,024,,康平县其他,政府南侧,景点,森林公园,123.208411,42.888191
康平基督爱教堂,辽宁,沈阳,康平县,024,,中心街,中心街与小康路交叉口东北380米,景点,宗教,123.358923,42.71759
卧龙湖,辽宁,沈阳,康平县,024,,康平县其他,顺山路与滨湖一街交叉口西北400米,景点,自然风光,123.281996,42.744809
海印禅寺,辽宁,沈阳,康平县,024,,康平县其他,西岭街,景点,宗教,123.335608,42.741343
三宝宫,辽宁,沈阳,康平县,024,132****3949,中心街,中心街289号,景点,历史建筑,123.352757,42.746657
鹏宇旅行社有限公司,辽宁,沈阳,康平县,024,150****5222,中心街,西环路鼎鑫家园西门,景点,旅行社,123.349955,42.735515
草地自然保护区,辽宁,沈阳,康平县,024,,康平县其他,303省道,景点,自然风光,122.852264,42.662014
中国青年旅行社,辽宁,沈阳,辽中区,024,87825168,北一路,北一路55号,景点,旅行社,122.738172,41.512034
辽中基督教堂,辽宁,沈阳,辽中区,024,,辽中区其他,木四路,景点,宗教,122.923212,41.608042
小城子遗址,辽宁,沈阳,康平县,024,,康平县其他,彰桓线,景点,古代遗迹,123.599283,42.656033
卡力马天主堂,辽宁,沈阳,辽中区,024,,辽中区其他,133县道,景点,宗教,122.680238,41.534438
沈阳绿城旅行社,辽宁,沈阳,辽中区,024,137****1112,东环街,丽都新城西北1门北70米,景点,旅行社,122.730671,41.501041
三清观,辽宁,沈阳,辽中区,024,,辽中区其他,潘乌公路中国信合(杨士岗信用社)东北侧约230米,景点,宗教,122.99558,41.695127
杨黄线基督教堂,辽宁,沈阳,辽中区,024,,辽中区其他,杨黄线,景点,宗教,123.043161,41.637306
冷后教堂,辽宁,沈阳,辽中区,024,,辽中区其他,十大线辽中区冷子堡九年一贯制学校东侧约130米,景点,宗教,122.798011,41.703031
美好时光旅行社,辽宁,沈阳,辽中区,024,159****8824,东环街,张家湾体育场,景点,旅行社,122.737291,41.506421
满部户文化古镇展览馆,辽宁,沈阳,辽中区,024,,辽中区其他,106省道西50米,景点,展览馆,122.640791,41.604651
谢荣策烈士陵园,辽宁,沈阳,辽中区,024,,辽中区其他,华山路与188乡道东650米路北,景点,烈士陵园,122.874421,41.517519
八委游园,辽宁,沈阳,辽中区,024,,辽中区其他,蒲西街道东环街与南二路交叉口西北100米,景点,公园/广场,122.736934,41.508301
东湖公园,辽宁,沈阳,辽中区,024,,辽中区其他,滨水路与蒲杨街交叉路口往南约230米,景点,公园/广场,122.784947,41.511017
蒲河国家湿地公园,辽宁,沈阳,辽中区,024,27880311,辽中区其他,蒲东街西100米,景点,自然风光,122.751565,41.505051
永吉古寺,辽宁,沈阳,辽中区,024,87861633,辽中区其他,外环路,景点,宗教,122.766368,41.503701
长胜公园,辽宁,沈阳,辽中区,024,,辽中区其他,茨榆大街,景点,公园/广场,122.908991,41.52507
近海绿洲,辽宁,沈阳,辽中区,024,,北一路,蒲河大桥西头,景点,公园/广场,122.750761,41.515608
腰街清真寺,辽宁,沈阳,辽中区,024,,辽中区其他,106省道,景点,宗教,122.650508,41.649456
经纬客运有限公司旅游,辽宁,沈阳,沈阳,024,66605783;25739989,重工街沿线,重工南街132号,景点,旅行社,123.323343,41.780453
西中岛旅程天下,辽宁,沈阳,沈阳,024,31400806,奉天街沿线,奉天街346号格林自由城B座3楼,景点,旅行社,123.44185,41.808118
银狐旅行社,辽宁,沈阳,沈阳,024,89100099,五爱市场,风雨坛街138号奉天1号大厦1016室,景点,旅行社,123.443641,41.783761
魔幻汽车乐园,辽宁,沈阳,沈阳,024,186****4628,南市/马路湾,望湖北路南湖公园,景点,游乐场,123.411147,41.768997
中国青年旅行社,辽宁,沈阳,沈阳,024,138****5861;139****0947,南市/马路湾,北四经街28号,景点,旅行社,123.422192,41.793376
青年国际旅行社,辽宁,沈阳,沈阳,024,28118089,会展中心,蕙兰七街与银杏路交叉口东南50米,景点,旅行社,123.378025,41.681059
辽宁和平国际旅行社,辽宁,沈阳,沈阳,024,31560118;31306226,北站/市府,奉天街市府大路387号海馨龙宫一楼大厅,景点,旅行社,123.439954,41.804854
中国旅行社,辽宁,沈阳,沈阳,024,86083960,北行/辽大,黄河街道长江街北行海丽德B座（北行）,景点,旅行社,123.411979,41.828519
北一路金街,辽宁,沈阳,沈阳,024,31220208,北二路,兴华街与北一路交汇处西南方北一路万达广场二楼,景点,休闲街区,123.377762,41.813801
护国广慈寺,辽宁,沈阳,沈阳,024,,文艺路/文化路,南塔街71号,景点,宗教,123.451771,41.766425
康辉国际旅行社营业部,辽宁,沈阳,沈阳,024,,苏家屯区政府,枫杨路78号房产大厦8层,景点,旅行社,123.345627,41.661497
沈铁国际旅行社集团,辽宁,沈阳,沈阳,024,23853303,南市/马路湾,和平南大街18甲2号,景点,旅行社,123.40983,41.786143
沈阳爱旅商务服务有限公司,辽宁,沈阳,沈阳,024,87502222,东中街,珠林路88号6门,景点,旅行社,123.484636,41.809535
辽宁世纪国际旅行社,辽宁,沈阳,沈阳,024,22839800,西塔/北市场,北市场街道绥化西街18号（新洪记东北侧）,景点,旅行社,123.423128,41.812388
宫廷羽毛画展,辽宁,沈阳,沈阳,024,88719686,大东广场,北边城路15号1门,景点,美术馆,123.474148,41.815078
沈阳故宫旅行社,辽宁,沈阳,沈阳,024,24870672,中街/故宫,沈阳路171号故宫正门斜对面,景点,旅行社,123.455158,41.797468
红枫旅行社,辽宁,沈阳,沈阳,024,31675817,南市/马路湾,南文会街22号西南50米,景点,旅行社,123.429924,41.787853
康辉国际旅行社,辽宁,沈阳,沈阳,024,,兴隆大都汇,建设西路2号龙之梦大都汇B1,景点,旅行社,123.342743,41.804313
劳模园,辽宁,沈阳,沈阳,024,,重工街沿线,南十二西路与南十二西路21巷交汇处东北100米,景点,公园/广场,123.329341,41.790571
兴农合作社旧址,辽宁,沈阳,沈阳,024,,南市/马路湾,和平南大街43号,景点,古代遗迹,123.407699,41.782477
中国旅行社总社,辽宁,沈阳,沈阳,024,31225586,铁西广场,云峰北街58号,景点,旅行社,123.377769,41.793291
推驴网,辽宁,沈阳,沈阳,024,31595123,北行/辽大,长江街134号,景点,旅行社,123.411619,41.834235
辽宁国际商务旅行社,辽宁,沈阳,沈阳,024,188****7801,五里河,青年大街185-1号茂业金廊壹号公馆5层,景点,旅行社,123.435564,41.763864
大民屯镇文化广场,辽宁,沈阳,新民市,024,,新民市其他,102国道,景点,广场,122.952571,41.859383
沈阳市苏家屯区清真寺,辽宁,沈阳,沈阳,024,,苏家屯客运站,迎春街46号,景点,宗教,123.336769,41.676787
浑南区（沈阳高新区）规划展示馆,辽宁,沈阳,沈阳,024,83790099,新市府,莫子山路1号（莫子山公园、国际会议中心）,景点,陈列馆,123.481941,41.670275
宝石花旅行社有限公司,辽宁,沈阳,沈阳,024,188****6721,北一路万达,兴华北街55号华润置地国际N楼2502,景点,旅行社,123.38149,41.809541
辽宁和平国际旅行社,辽宁,沈阳,沈阳,024,62808900;22504688,北站/市府,北站路与迎宾街交叉口西40米,景点,旅行社,123.434659,41.816247
国际旅行社,辽宁,沈阳,沈阳,024,139****2572,滑翔小区,沈辽东路47号-1号2门,景点,旅行社,123.370909,41.781845
金土地旅行社,辽宁,沈阳,沈阳,024,130****4772,东中街,小东路金茂国际公寓12楼1215（新玛特对面）,景点,旅行社,123.464936,41.801112
沈阳大成旅行社有限公司三好分公司,辽宁,沈阳,沈阳,024,31585881,南湖公园/三好街,三好街华强广场D座1206室,景点,旅行社,123.426764,41.762104
常荫槐公馆,辽宁,沈阳,沈阳,024,,大东广场,天后宫路万寿巷5号,景点,人文古迹,123.458652,41.809602
朝鲜族北行基督教会,辽宁,沈阳,沈阳,024,,皇姑区,长江街25号皇姑综合楼,景点,宗教,123.412831,41.820091
宫女太监生活展览,辽宁,沈阳,沈阳,024,,北陵,北陵公园内,景点,展览馆,123.424774,41.844452
浑河晚渡公园,辽宁,沈阳,沈阳,024,,于洪新城,城东湖街道阳光路20号,景点,公园/广场,123.354611,41.746712
基督教北关教会,辽宁,沈阳,沈阳,024,159****5259,大东广场,大北关街58甲,景点,宗教,123.468881,41.817451
基督教皇姑教会,辽宁,沈阳,沈阳,024,,皇姑区,步云山路26巷72号,景点,宗教,123.409544,41.813724
美协鲁园艺术馆,辽宁,沈阳,沈阳,024,,南湖公园/三好街,三好街2-1号,景点,美术馆,123.427006,41.779006
南塔基督教会,辽宁,沈阳,沈阳,024,,浑南新区,长青南街15-2号北11门,景点,宗教,123.501855,41.749182
松山基督教会,辽宁,沈阳,沈阳,024,,国奥现代城,赤山路16-1号7门,景点,宗教,123.406555,41.872965
塔湾基督教会,辽宁,沈阳,沈阳,024,,塔湾,峨眉山路48-2号4门,景点,宗教,123.386523,41.827493
塔湾园,辽宁,沈阳,沈阳,024,,塔湾,太白山路与淮河街30巷交叉口北160米,景点,公园/广场,123.387271,41.8376
卧龙禅寺,辽宁,沈阳,沈阳,024,89758143,沈北新区,清水台镇怪坡风景区,景点,宗教,123.63738,42.064338
怡兴园,辽宁,沈阳,辽中区,024,,北一路,政府路与东环街交汇东侧,景点,公园/广场,122.739763,41.509853
友谊会议中心,辽宁,沈阳,沈阳,024,86151122,北陵,黄河北大街1号辽宁友谊宾馆2层,景点,景点/周边游,123.42067,41.847523
珍珠湖湿地自然保护区,辽宁,沈阳,新民市,024,,新民市其他,前当堡镇,景点,自然风光,122.885652,41.743846
圣火广场,辽宁,沈阳,沈阳,024,,浑南新区,五三街道富民南街与浑南中路交汇,景点,广场,123.47368,41.740226
海外国际旅行社,辽宁,沈阳,沈阳,024,,浑南新区,金卡路16号居然之家浑南店F2层,景点,旅行社,123.465736,41.736931
辽宁艺术中心,辽宁,沈阳,沈阳,024,,新市府,白塔街道新运河路223号,景点,美术馆,123.440502,41.667361
学城路基督教堂,辽宁,沈阳,沈阳,024,,浑南新区,学城路11号,景点,宗教,123.512406,41.749402
弥陀寺,辽宁,沈阳,沈阳,024,,浑南新区,塔东路9号,景点,宗教,123.425584,41.691548
沈阳国旅,辽宁,沈阳,沈阳,024,,浑南新区,营祝线营城子农贸市场东北侧约120米,景点,旅行社,123.518478,41.702809
白塔公园,辽宁,沈阳,沈阳,024,,浑南新区,浑南新区白塔堡,景点,公园/广场,123.425276,41.693979
名流旅行社,辽宁,沈阳,沈阳,024,31972234,北站/市府,惠工街217号德郡7号1812室,景点,旅行社,123.446301,41.816371
大运通国际旅行社,辽宁,沈阳,沈阳,024,82973984,奉天街沿线,青年大街51号商会总部大厦B座13楼,景点,旅行社,123.432706,41.79571
辽宁国际商务旅行社,辽宁,沈阳,沈阳,024,86234957,太原街,太原街街道温州城A5座1605室,景点,旅行社,123.394345,41.790355
广福寺,辽宁,沈阳,沈阳,024,,苏家屯区,白清姚千街道广福路50号,景点,宗教,123.737698,41.592348
北市场,辽宁,沈阳,沈阳,024,22734736,西塔/北市场,北市一街25号附近,景点,步行街,123.423915,41.808187
顺风旅行社,辽宁,沈阳,沈阳,024,138****9659,北站/市府,青年大街51号商会总部大厦11楼,景点,旅行社,123.432718,41.795728
辽宁和平国际旅行社,辽宁,沈阳,沈阳,024,14704044211,北陵,长江街经典生活,景点,旅行社,123.411974,41.828464
名流旅行社,辽宁,沈阳,沈阳,024,138****5501,北行/辽大,长江南街3号韩国新城,景点,旅行社,123.413433,41.814313
辽宁国际商务,辽宁,沈阳,沈阳,024,31935967,辽宁大学南校区,中乾大厦A座1105室,景点,旅行社,123.395314,41.832074
辽宁国际商务,辽宁,沈阳,沈阳,024,31935967,北站/市府,北站路146号嘉兴国际2223室,景点,旅行社,123.443814,41.820234
神舟旅行社,辽宁,沈阳,沈阳,024,62579098;137****6532,奉天街沿线,奉天街346号格林自由城B座15楼1512室,景点,旅行社,123.441916,41.807839
康辉国际旅行社,辽宁,沈阳,沈阳,024,24216966;24219299,长青街,长青街52甲27门（近泉源二路）,景点,旅行社,123.481267,41.774837
宋雨桂艺术馆,辽宁,沈阳,沈阳,024,83769000,长白岛,仙岛南路360号宋雨桂艺术博物馆,景点,美术馆,123.407539,41.734844
金土地旅行社,辽宁,沈阳,沈阳,024,88618958;188****9242,南市/马路湾,十一纬路169号1-30-9室,景点,旅行社,123.431375,41.791733
金飞马旅行社,辽宁,沈阳,沈阳,024,24841345,大东广场,广宜街21号明城国际1319室,景点,旅行社,123.449441,41.805671
嘉华旅行社,辽宁,沈阳,沈阳,024,31301335,北站/市府,蕙工街205号恒基大厦,景点,旅行社,123.444073,41.815903
鑫欣基督教会,辽宁,沈阳,沈阳,024,31833319,正良,道义五街富源汇居,景点,宗教,123.39071,41.9159
海外国际旅行社,辽宁,沈阳,沈阳,024,86120899,陵西,黄河南大街108号丽阳酒店b座1楼,景点,旅行社,123.419076,41.840946
中国国旅,辽宁,沈阳,沈阳,024,,重工街沿线,建设中路启工二校北侧约100米,景点,旅行社,123.339223,41.796374
沈阳乐游国际旅行社,辽宁,沈阳,沈阳,024,31595255,太原街,和平北大街光大大厦12层,景点,旅行社,123.416204,41.793383
大石湖,辽宁,沈阳,沈阳,024,22852307,南市/马路湾,十一纬路169号富中大厦2705室,景点,旅行社,123.431292,41.791549
抚顺红河谷漂流一日游（友好）,辽宁,沈阳,沈阳,024,134****7357,北站/市府,市府广场,景点,旅行社,123.434131,41.804121
沈阳国旅,辽宁,沈阳,沈阳,024,133****0090,铁西广场,建设中路1号-1第一商城A座14楼09室,景点,旅行社,123.369552,41.793612
3D异度视界,辽宁,沈阳,沈阳,024,82209599,大东广场,滂江街22号龙之梦购物中心5层,景点,展览馆,123.487663,41.807373
辽宁中医药大学-博物馆,辽宁,沈阳,沈阳,024,31207190,北陵,崇山东路79号,景点,博物馆,123.433021,41.832061
孙中山纪念馆,辽宁,沈阳,沈阳,024,,南市/马路湾,中山公园内,景点,纪念馆,123.406843,41.786173
辽宁满运清风国际旅行社,辽宁,沈阳,沈阳,024,155****7726,北站/市府,北站路146号嘉兴国际大厦1409室,景点,旅行社,123.443842,41.820182
辽宁和平国际旅行社,辽宁,沈阳,沈阳,024,31821261,西塔/北市场,市府大路187号中国联通东侧,景点,旅行社,123.426619,41.804589
李官海滨旅游,辽宁,沈阳,沈阳,024,130****1412,太原街,中山路111号亚贸大厦1233室,景点,旅行社,123.414205,41.797135
浑河森林公园,辽宁,沈阳,沈阳,024,,浑南区,浑河桥抚顺市清原县湾甸子镇,景点,森林公园,123.727627,41.923357
平安金融集团旅行部——导游姜龙,辽宁,沈阳,沈阳,024,186****1075,东陵路/沈阳农业大学,东陵路天柱山庄,景点,旅行社,123.587036,41.826249
名流旅行社,辽宁,沈阳,沈阳,024,62883471;31200652,南市/马路湾,和平北大街69号总统大厦A座12楼,景点,旅行社,123.416819,41.793999
洛哈斯旅游,辽宁,沈阳,沈阳,024,86204819,北陵,北陵大街19号沈阳天地A座2719室,景点,旅行社,123.43093,41.82526
关帝庙,辽宁,沈阳,沈阳,024,,中街/故宫,朝阳街少帅府巷46号张氏帅府内,景点,宗教,123.45855,41.79503
康辉国际旅行社,辽宁,沈阳,沈阳,024,158****3285,重工街沿线,沈辽路27号盛京大天地负一层寻忆江南商业街5号,景点,旅行社,123.333344,41.77803
金运之旅,辽宁,沈阳,沈阳,024,176****2958,沈辽路万达,沈辽路79号茂业百货一楼,景点,旅行社,123.360825,41.780315
福卡斯旅行社总部,辽宁,沈阳,沈阳,024,138****1815,中街/故宫,北中街路中街上乘1栋907室,景点,旅行社,123.45889,41.803131
香格里拉梦公园,辽宁,沈阳,沈阳,024,,沈北新区,蒲北路,景点,公园/广场,123.613293,41.926377
望海寺山,辽宁,沈阳,法库县,024,,法库县其他,G203与S106交叉口东南方向894米,景点,景点/周边游,123.419794,42.4855
浑河西峡谷,辽宁,沈阳,沈阳,024,,苏家屯区,曹后路,景点,自然风光,123.234511,41.690072
地藏寺,辽宁,沈阳,沈阳,024,,苏家屯区,三块石景区内（二块石）,景点,宗教,123.453442,41.480393
五里河公园,辽宁,沈阳,沈阳,024,,浑南新区,沈水路与富民街交叉口西南角,景点,公园/广场,123.468086,41.757351
人体科学展览馆,辽宁,沈阳,沈阳,024,62215620,沈阳医学院,黄河北大街医学院,景点,展览馆,123.410331,41.890102
辽宁和平国际旅行社,辽宁,沈阳,沈阳,024,,南市/马路湾,北三经街67号,景点,旅行社,123.424641,41.782621
白清寨滑雪场,辽宁,沈阳,沈阳,024,31891166,苏家屯区,广福路69-1号,景点,滑雪场,123.720574,41.575617
沈阳国宾旅行社有限公司,辽宁,沈阳,沈阳,024,88609191,于洪广场,黄海路富禹大厦B座1006室,景点,旅行社,123.304614,41.793914
奉达公园,辽宁,沈阳,沈阳,024,,张士开发区,昆明湖街,景点,公园/广场,123.293464,41.77009
宣和艺术馆,辽宁,沈阳,沈阳,024,22595683,北站/市府,哈尔滨路118号华府天地购物中心一期一楼,景点,美术馆,123.433258,41.811531
凯撒旅游,辽宁,沈阳,沈阳,024,22795860;22795865,北站/市府,北京街7-1号,景点,旅行社,123.433184,41.807654
方家栏公园,辽宁,沈阳,沈阳,024,,长青街,方家栏社区方家栏路,景点,公园/广场,123.492197,41.775312
沈阳海外旅行社,辽宁,沈阳,沈阳,024,4000246677,浑南新区,"奥体万达广场2层2065A（浑南万达广场入口2楼,大玩家玩城旁）",景点,旅行社,123.460582,41.735402
展览馆（卓每)店西1-1006,辽宁,沈阳,沈阳,024,23944330,南湖公园/三好街,彩塔街38号工业展览馆,景点,博物馆,123.432308,41.772836
中国（沈阳）审判日本战犯法庭旧址陈列馆,辽宁,沈阳,沈阳,024,86841108,北陵,黑龙江街77号(近辽宁中医学院),景点,博物馆,123.435813,41.829263
沈阳金旅旅行社,辽宁,沈阳,沈阳,024,139****6178,保工街,南十二路27-8门,景点,旅行社,123.347573,41.786413
1939野战主题公园,辽宁,沈阳,沈阳,024,,浑南区,森林路与观棋路交叉口北340米,景点,公园/广场,123.674846,41.925336
苏家屯区城市规划馆,辽宁,沈阳,沈阳,024,,苏家屯区,沈水街道,景点,博物馆,123.291689,41.673076
沈阳国际旅行社有限公司,辽宁,沈阳,沈阳,024,25995889;185****5003,于洪广场,黄海路45号（新玛特）,景点,旅行社,123.305194,41.793994
沈阳小南天主教堂,辽宁,沈阳,沈阳,024,,五爱市场,南乐郊路40号,景点,宗教,123.452748,41.789638
金土地旅行社,辽宁,沈阳,沈阳,024,130****4772,太原街,万达新天地天籁座23楼,景点,旅行社,123.401526,41.788421
沈阳神舟旅行社,辽宁,沈阳,沈阳,024,133****6457;153****8711,大悦城,津桥路7-1天润广场1013号,景点,旅行社,123.467728,41.803543
青旅,辽宁,沈阳,沈阳,024,88618255,西塔/北市场,和平北大街14号,景点,旅行社,123.421894,41.802094
中国青年旅行社,辽宁,沈阳,沈阳,024,138****8531,太原街,太原街90号商贸国际B座1812室,景点,旅行社,123.397329,41.788099
招商国旅出国游服务大厅,辽宁,沈阳,沈阳,024,,南市/马路湾,4纬路美国领事馆对面,景点,旅行社,123.42679,41.783028
太原街,辽宁,沈阳,沈阳,024,,太原街,太原街地铁站,景点,观光街区,123.406429,41.789872
沈阳国际旅行社,辽宁,沈阳,沈阳,024,152****2521,北站/市府,朱剪炉街道市府大路290号摩根凯利大厦A座301室,景点,旅行社,123.440248,41.805582
塔湾兴顺夜市,辽宁,沈阳,沈阳,024,86586666,明廉,"明廉街道明廉路8号（食品公司公交站,老鸭坊旁边）",景点,夜市,123.370357,41.824752
天天假期旅行社,辽宁,沈阳,沈阳,024,138****5717,太原街,太原街欧亚联营1316,景点,旅行社,123.40564,41.78917
战友旅行社,辽宁,沈阳,沈阳,024,25670105,铁西广场,建设大路43号和谐大厦B座13楼,景点,旅行社,123.379294,41.789939
北国国际旅行社,辽宁,沈阳,沈阳,024,88526382,北站/市府,山东堡路11号奉天银座C座18层,景点,旅行社,123.442283,41.814093
大运通国旅,辽宁,沈阳,沈阳,024,25878705,铁西广场,新玛特超市负1层（兴华公园地铁站D2口步行420米）,景点,旅行社,123.369357,41.789451
爱周边旅行社,辽宁,沈阳,沈阳,024,31292151,北站/市府,奉天街格林自由城24楼,景点,旅行社,123.442034,41.808104
水世界门市,辽宁,沈阳,沈阳,024,,南市/马路湾,北六经街南市场街道宝环社区同义里小区西北侧约30米,景点,旅行社,123.418069,41.792349
罗曼松鼠湾,辽宁,沈阳,沈阳,024,25857777,艳粉地区,路官二街6号,景点,自然景观,123.337776,41.776176
釜山温泉,辽宁,沈阳,沈阳,024,31264818,浑南新区,沈营大街17-13甲-59门（世纪新城西门）,景点,温泉,123.441411,41.724095
宏亿皇寺艺术馆,辽宁,沈阳,沈阳,024,,西塔/北市场,北市场街道皇寺路99号,景点,纪念馆,123.427015,41.806585
辽宁国际商务旅行社,辽宁,沈阳,沈阳,024,25656897,北行/辽大,长江街皇姑商务大厦10层,景点,旅行社,123.413216,41.82215
怪坡风景区++太岁馆+迷宫+兵马俑场馆,辽宁,沈阳,沈阳,024,62579664,北站/市府,奉天街格林自由城B座309,景点,旅行社,123.441926,41.808207
中国国旅,辽宁,沈阳,沈阳,024,,于洪广场,黄海路17号附近,景点,旅行社,123.313055,41.793994
欢乐嘉年华,辽宁,沈阳,沈阳,024,151****2962,兴隆大都汇,建设西路2号龙之梦大都汇6层,景点,游乐场,123.345123,41.803799
辽宁省中国青年旅行社,辽宁,沈阳,新民市,024,27629877;138****5077,新民市其他,京哈公路大民屯综合市场,景点,旅行社,122.961139,41.858569
白清寨乡,辽宁,沈阳,沈阳,024,,苏家屯区,白清寨乡广福路200号,景点,人文古迹,123.684221,41.577071
山门寺,辽宁,沈阳,沈阳,024,,南湖公园/三好街,和平南大街130号（沈水湾公园内）,景点,宗教,123.400726,41.762331
长白山国际旅行社,辽宁,沈阳,沈阳,024,,南市/马路湾,十一纬路51号504室,景点,旅行社,123.420299,41.788969
水上步行,辽宁,沈阳,沈阳,024,,北陵,泰山路12号北陵公园内,景点,步行街,123.429207,41.844501
五洲国际工业博览城,辽宁,沈阳,沈阳,024,31956666;31958888,于洪区,红兴路东450米,景点,展览馆,123.28721,41.847073
兴工南街,辽宁,沈阳,沈阳,024,,兴工街/沈阳站西广场,兴工南街,景点,观光街区,123.379272,41.78483
新玛特广场,辽宁,沈阳,沈阳,024,,兴华公园,兴华南街37-1号,景点,公园/广场,123.367535,41.787955
万科四季花城·中央公园,辽宁,沈阳,沈阳,024,,万科四季花城,西江街93一6层,景点,公园/广场,123.391167,41.852654
地一大道北行商业街,辽宁,沈阳,沈阳,024,,北行/辽大,长江街与长江街22巷交叉口北60米,景点,观光街区,123.413203,41.820731
购物街,辽宁,沈阳,沈阳,024,189****4778,财富广场,十四号街3甲4号1门,景点,步行街,123.265927,41.754757
沈阳国际旅行社,辽宁,沈阳,沈阳,024,88613942,小北,北站街道小北关街十号甲沈阳国旅（近小北中山医院南走20米东西快速干道桥北路西小北刘一锅对面）,景点,旅行社,123.451881,41.811291
东关教堂,辽宁,沈阳,沈阳,024,24338975,东中街,东顺城街三自巷8号,景点,宗教,123.465546,41.798282
沈阳佰云意旅游咨询公司,辽宁,沈阳,沈阳,024,66817666,北一路万达,北一中路万达A座,景点,旅行社,123.383249,41.813034
辽宁光大国际旅行社,辽宁,沈阳,辽中区,024,87882353,北一路,中心街120号,景点,旅行社,122.730456,41.514696
善缘佛堂,辽宁,沈阳,沈阳,024,62696069,劳动公园,赞工街76号楼211室,景点,宗教,123.330929,41.781969
康辉旅游,辽宁,沈阳,沈阳,024,186****7276,东陵路/沈阳农业大学,新立堡路与新宁街交叉口旁,景点,旅行社,123.534778,41.809933
旅客暂休室,辽宁,沈阳,沈阳,024,,太原街,胜利南街2号沈阳站F1层,景点,旅行社,123.393357,41.792593
辽宁海峡国际旅行社,辽宁,沈阳,沈阳,024,153****9489,重工街沿线,重工南街50号,景点,旅行社,123.325621,41.794431
康辉旅游,辽宁,沈阳,沈阳,024,89645588,新城子,贵州路35号,景点,旅行社,123.525935,42.049185
沈阳二战盟军战俘营旧址陈列馆,辽宁,沈阳,沈阳,024,88765807,黎明广场,地坛街30-3号,景点,陈列馆,123.491846,41.809124
紫竹林观,辽宁,沈阳,沈阳,024,139****1311,文艺路/文化路,大南街285-2号,景点,景点/周边游,123.459403,41.781173
康辉旅游,辽宁,沈阳,沈阳,024,88731411,大东广场,津桥街道中学堂路与小什字街交叉口东70米路南,景点,旅行社,123.471769,41.809316
清初四塔,辽宁,沈阳,沈阳,024,,西塔/北市场,图们路20-1号西塔,景点,人文古迹,123.408611,41.805071
沈阳名流旅行社,辽宁,沈阳,辽中区,024,87802041;159****1711,近海新城,蒲西街道中心街103号,景点,旅行社,122.728945,41.507163
郑家洼子青铜短剑墓,辽宁,沈阳,沈阳,024,,于洪新城,大通湖街与仙女湖北路交叉口青铜文化园内（西侧）,景点,古代遗迹,123.326032,41.767141
沈阳（国家）数字艺术创意产业基地,辽宁,沈阳,沈阳,024,,辉山,竞业街与聚农路交叉口东北300米,景点,创意园区,123.573495,41.927427
中国国旅,辽宁,沈阳,沈阳,024,31312626,龙江广场,昆山中路2号,景点,旅行社,123.428386,41.819216
沈阳青旅,辽宁,沈阳,沈阳,024,88338041,大东区,北海街11-1号（合作街地铁站D口步行480米）,景点,旅行社,123.469962,41.830922
南源旅社,辽宁,沈阳,沈阳,024,23712358,和平区,迎春北街21号,景点,旅行社,123.350111,41.702521
康辉国际旅行社,辽宁,沈阳,沈阳,024,24856677,中街/故宫,朝阳街238号科隆酒店1楼,景点,旅行社,123.459846,41.794616
康辉国际旅行社,辽宁,沈阳,沈阳,024,66683746,国奥现代城,黄河北大街84号-4门,景点,旅行社,123.416548,41.870285
光大国际旅行社,辽宁,沈阳,沈阳,024,,西塔/北市场,南京北街南京南京1213号,景点,旅行社,123.412716,41.799136
康辉旅游公司,辽宁,沈阳,沈阳,024,,北陵,北陵大街51号,景点,旅行社,123.428882,41.838422
苏家屯区烈士陵园,辽宁,沈阳,沈阳,024,,苏家屯区,蛇山村附近,景点,烈士陵园,123.46727,41.546499
康辉旅游超市,辽宁,沈阳,沈阳,024,,西塔/北市场,政府大路168号华姿国际大厦15层D-15-2,景点,旅行社,123.422618,41.802969
马刚烈士陵园,辽宁,沈阳,沈阳,024,,沈北新区,马十线与杭州东路交口东南500米,景点,烈士陵园,123.690821,41.990943
沈阳青年国际旅行社,辽宁,沈阳,沈阳,024,151****9551,长青街,长青街121新生活广场1层,景点,旅行社,123.487137,41.770584
辽宁康辉国际旅行社有限公司,辽宁,沈阳,沈阳,024,31575282,滑翔小区,滑翔路城建花园东南侧,景点,旅行社,123.371944,41.770824
金运之旅铁西区建设东路门市祁部,辽宁,沈阳,沈阳,024,88642788,兴工街/沈阳站西广场,建设东路35号假日国际大厦一楼,景点,旅行社,123.379842,41.789807
辽宁省中国青年旅行社,辽宁,沈阳,沈阳,024,138****0028,中街/故宫,北顺城路11-14号14层,景点,旅行社,123.451062,41.804772
国际会议中心,辽宁,沈阳,沈阳,024,,张士开发区,沈阳经济技术开发区花海路28号附近,景点,景点/周边游,123.294138,41.768978
金运之旅,辽宁,沈阳,沈阳,024,,南市/马路湾,和平北大街中技大厦,景点,旅行社,123.416921,41.794621
辽宁海外国际旅行社,辽宁,沈阳,沈阳,024,135****6815,兴隆大都汇,建设西路2号龙之梦大都汇B1,景点,旅行社,123.342728,41.804325
盛京旅游,辽宁,沈阳,辽中区,024,31708822,北一路,北一路128号,景点,旅行社,122.727021,41.515081
沈阳青年国际旅行社,辽宁,沈阳,沈阳,024,89718966;158****0270,虎石台,建设北一路33号,景点,旅行社,123.514748,41.946758
沈阳青年国际旅行社,辽宁,沈阳,沈阳,024,,长客总站,崇山东路35-2号嘉丰写字楼,景点,旅行社,123.454022,41.832442
康辉旅行社,辽宁,沈阳,沈阳,024,,三台子,陵北街33号甲,景点,旅行社,123.426235,41.873335
南湖公园蝴蝶谷,辽宁,沈阳,沈阳,024,,南湖公园/三好街,文化路1号,景点,公园/广场,123.412801,41.771209
辽宁北国国际旅行社,辽宁,沈阳,辽中区,024,183****5275,北一路,城南人大家属楼7-1-1室,景点,旅行社,122.724356,41.515416
战友旅行社,辽宁,沈阳,康平县,024,87346777,中心街,康平客运站1楼,景点,旅行社,123.355152,42.736545
沈阳青年国际旅行社,辽宁,沈阳,新民市,024,87556666,新民市中心城区,辽河大街81号南转盘国税局对面,景点,旅行社,122.833302,41.989772
丁香湖公园,辽宁,沈阳,沈阳,024,,丁香湖,丁香湖路与环湖路交叉口西北角,景点,公园/广场,123.33514,41.854914
清真古教,辽宁,沈阳,沈阳,024,,奉天街沿线,药王庙路17号附近,景点,宗教,123.438522,41.796822
辽宁天天假期国际旅行社,辽宁,沈阳,沈阳,024,89116116,苏家屯客运站,香柏路5号1-1-1室,景点,旅行社,123.331572,41.661528
北国国际旅行社,辽宁,沈阳,沈阳,024,,北陵,陵东街69号,景点,旅行社,123.442025,41.838425
中国旅行社总社,辽宁,沈阳,新民市,024,27609345;155****9345,新民市中心城区,清真寺路农贸大厅南门对面,景点,旅行社,122.827085,41.992205
鲁艺油画雕塑院,辽宁,沈阳,沈阳,024,,荷兰村,松山西路78号附近,景点,美术馆,123.394028,41.868738
康辉旅游,辽宁,沈阳,沈阳,024,,于洪新城,南阳湖街142号5门,景点,旅行社,123.331259,41.750497
大运通国旅,辽宁,沈阳,沈阳,024,,劳动公园,卫工南街海兴花园,景点,旅行社,123.345634,41.796694
金运之旅,辽宁,沈阳,沈阳,024,,滑翔小区,凌空街道滑翔路18号,景点,旅行社,123.371938,41.770788
大运通国旅,辽宁,沈阳,沈阳,024,,保工街,沈辽中路52号4门每之购超市2楼,景点,旅行社,123.339441,41.779301
沈阳青年国际旅行社,辽宁,沈阳,沈阳,024,88484902,黎明广场,善邻路96-3号,景点,旅行社,123.506522,41.806292
海外国旅,辽宁,沈阳,沈阳,024,88511199,大东广场,广宜街21号明城国际大厦一层101室,景点,旅行社,123.449321,41.805497
四方蓝天旅行社,辽宁,沈阳,沈阳,024,66788582,苏家屯区政府,丽花街与青松路交叉口正南方向85米,景点,旅行社,123.342529,41.666489
瑞云旅游度假管理,辽宁,沈阳,沈阳,024,,北一路万达,兴华北街18甲千缘财富商汇1108室,景点,旅行社,123.38138,41.80929
中国国旅,辽宁,沈阳,沈阳,024,24111299;24085488,东陵路/沈阳农业大学,东陵路28-5号一号楼2单元,景点,旅行社,123.526671,41.815181
康辉国际旅行社,辽宁,沈阳,沈阳,024,31931028,于洪新城,沈辽路109号1门,景点,旅行社,123.325021,41.770759
韩国城南园,辽宁,沈阳,沈阳,024,,世博园,双园路301号沈阳世博园国际展园内,景点,植物园,123.653465,41.867432
名流旅行社,辽宁,沈阳,沈阳,024,,和泰馨城,沈大路156-4号-2门附近,景点,旅行社,123.293272,41.799842
紫云宫佛堂,辽宁,沈阳,沈阳,024,139****1509,和泰馨城,沈大路152-8-2门,景点,宗教,123.294071,41.80128
沈阳青年国际旅行社,辽宁,沈阳,沈阳,024,24802728,长青街,先农坛路17巷14号6-1-1室,景点,旅行社,123.467076,41.782116
沈阳青年旅行社,辽宁,沈阳,沈阳,024,136****7918,辉山,阳光温泉花园125-8-6室,景点,旅行社,123.594466,41.920566
鲁苑画廊,辽宁,沈阳,沈阳,024,139****9195,怀远门,中国辽宁省沈阳市沈河区沈阳路42号（怀远门地铁站B口步行260米）,景点,美术馆,123.450544,41.798
万泉公园,辽宁,沈阳,沈阳,024,31633832,东中街,万泉街1号,景点,公园/广场,123.474909,41.790008
南湖公园游乐场,辽宁,沈阳,沈阳,024,83862716;23844578,南湖公园/三好街,文化路1号,景点,游乐场,123.409625,41.768864
沈阳中山公园游乐场,辽宁,沈阳,沈阳,024,31656663,南市/马路湾,南京南街7号中山公园内（近马路湾）,景点,游乐场,123.4077,41.78611
畅游旅行社,辽宁,沈阳,沈阳,024,22966971,怀远门,大西路43号怀远商务大厦805,景点,旅行社,123.446828,41.796107
国旅,辽宁,沈阳,沈阳,024,31682581,龙江广场,哈尔滨路67号,景点,旅行社,123.424643,41.811563
窥海潜水俱乐部,辽宁,沈阳,沈阳,024,186****6060,陵东,金山南路9号东亚翰林世家20号楼2单元21层1室,景点,潜水,123.449577,41.847168
新世纪旅行社,辽宁,沈阳,沈阳,024,,皇姑区,长江街59号皇姑商务大厦,景点,旅行社,123.413446,41.822246
沈阳青年国际旅行社,辽宁,沈阳,沈阳,024,139****4320,中街/故宫,朝阳街139号1-1门,景点,旅行社,123.460198,41.794758
水族馆,辽宁,沈阳,沈阳,024,,三台子,黑山路10-22号,景点,动植物园,123.406934,41.869314
七星山,辽宁,沈阳,沈阳,024,,沈北新区,石佛寺乡七星山旅游风景区,景点,自然风光,123.335086,42.1317
海韵广场,辽宁,沈阳,沈阳,024,25115566,兴工街/沈阳站西广场,兴工北街64号-甲1号,景点,广场,123.389101,41.797881
国际旅行社,辽宁,沈阳,沈阳,024,31875885,南市/马路湾,和平南大街39号嘉环大厦1、3、15层,景点,旅行社,123.408527,41.783367
美国郡温泉,辽宁,沈阳,新民市,024,188****9562,美国郡温泉小区,美国郡（304国道旁距市内约35公里）,景点,温泉,123.087376,41.91565
中街,辽宁,沈阳,沈阳,024,4006171252;22818222,中街/故宫,皇城街道,景点,步行街,123.45926,41.800699
战友旅行社,辽宁,沈阳,沈阳,024,86083239,北行/辽大,中乾商务花园B座12层1213号,景点,旅行社,123.412247,41.824197
稻梦空间,辽宁,沈阳,沈阳,024,4006630277,沈北新区,兴隆台街道兴光村,景点,特色乡村,123.301351,42.076836
东北亚滑雪场,辽宁,沈阳,沈阳,024,89778333;152****2532,浑南区,老寺沟中寺路沈阳国家森林公园内,景点,滑雪场,123.726661,42.041008
城隍庙,辽宁,沈阳,沈阳,024,,中街/故宫,正阳街与北中街路交叉口东北约60米,景点,宗教,123.454128,41.803698
豫园老街,辽宁,沈阳,沈阳,024,23866987,中街/故宫,中街豫珑城西区一层,景点,步行街,123.456273,41.803664
沈阳故宫,辽宁,沈阳,沈阳,024,24843001,中街/故宫,沈阳路171号,景点,历史建筑,123.455576,41.798444
沈阳森林动物园,辽宁,沈阳,沈阳,024,88050366,浑南区,满堂街道棋盘山国际风景旅游区内,景点,动物园,123.683993,41.928501
光大国际旅行社,辽宁,沈阳,沈阳,024,31585880;31830985,南湖公园/三好街,南湖街道三好街华强电子世界-5楼,景点,旅行社,123.427111,41.762681
教育旅行社,辽宁,沈阳,沈阳,024,31972602;31972603,怀远门,沈阳路21号风华商住1-4-3号,景点,旅行社,123.449679,41.797479
银狐旅行社,辽宁,沈阳,沈阳,024,31523850;31200652,五里河,文萃路7号,景点,旅行社,123.432248,41.765098
夏翠园,辽宁,沈阳,沈阳,024,86906586,长客总站,小北关街与临河路交汇附近,景点,公园/广场,123.451793,41.823738
棋盘山风景区,辽宁,沈阳,沈阳,024,88050626;88050627,浑南区,向阳寺路棋盘山国际旅游风景区,景点,自然风光,123.675214,41.941889
大运通国际旅行社,辽宁,沈阳,沈阳,024,186****2499,西塔/北市场,哈尔滨路58号,景点,旅行社,123.425079,41.812259
长白岛足球主题公园,辽宁,沈阳,沈阳,024,,长白岛,沈水湾街道乐岛路12-17号,景点,城市公园,123.413307,41.7486
远洋旅行社,辽宁,沈阳,沈阳,024,31329021;31329024,南湖公园/三好街,永安路与三好街交叉口西北80米,景点,旅行社,123.426947,41.769157
沈阳怪坡风景区,辽宁,沈阳,沈阳,024,89758143;31982002,沈北新区,马刚街道拥屯村,景点,自然风光,123.637252,42.060455
蒲河岛湿地公园,辽宁,沈阳,新民市,024,,新民市其他,东升堡村,景点,自然风光,123.039851,41.807621
李官2日游,辽宁,沈阳,沈阳,024,88617170;88610192,北站/市府,奉天街格林自由城B座309,景点,旅行社,123.441825,41.80821
老边沟好运旅行社,辽宁,沈阳,沈阳,024,23255798,南市/马路湾,和平北大街156号1511室,景点,旅行社,123.413322,41.790802
辽宁天天假期国际旅行社,辽宁,沈阳,沈阳,024,4009903887,北行/辽大,长江街133号,景点,旅行社,123.412657,41.828827
中国旅行社总社（辽宁）有限公司,辽宁,沈阳,沈阳,024,133****8699,南市/马路湾,和平南大街43号（嘉环大厦南15米）,景点,旅行社,123.408378,41.783168
和平国际旅行社,辽宁,沈阳,沈阳,024,31225586,北站/市府,北京街19-2号汇宝国际公寓C座11楼1106室,景点,旅行社,123.441788,41.812952
满族民俗文化村,辽宁,沈阳,沈阳,024,,浑南区,沈李线附近,景点,民俗文化村,123.613699,41.652009
光大国际旅行社,辽宁,沈阳,沈阳,024,31351428,云峰街,云峰街62号东环国际大厦B座21层,景点,旅行社,123.377026,41.79242
砂山基督教会,辽宁,沈阳,沈阳,024,62122971,砂山,砂山街69号,景点,宗教,123.381834,41.763023
沈阳日报书画院,辽宁,沈阳,沈阳,024,22690838;22708822,南市/马路湾,北三经街67号,景点,美术馆,123.424883,41.793513
雨境体验展,辽宁,沈阳,沈阳,024,,北站/市府,朱剪炉街道卓展购物中心连廊,景点,展览馆,123.433449,41.808876
魔都幻境艺术视觉馆,辽宁,沈阳,沈阳,024,159****0821,东中街,新世界百货二期3楼,景点,博物馆,123.465324,41.804562
天天假期国际旅行社,辽宁,沈阳,沈阳,024,4009903887,沈辽路万达,沈辽路万达C座18楼（铁西金牛家乐福）,景点,旅行社,123.357553,41.781994
战友旅行社,辽宁,沈阳,沈阳,024,31568804,北站/市府,奉天街1-13-14号格林自由城b座3楼320室,景点,旅行社,123.441824,41.808014
联动时代（北京）科技发展有限责任公司,辽宁,沈阳,沈阳,024,159****4221,沈辽路万达,沈辽东路47-2号宏发国际1504室,景点,旅行社,123.36995,41.781873
天天假期国际旅行社,辽宁,沈阳,沈阳,024,66788498;66788499,兴工街/沈阳站西广场,兴工北街64甲-1海韵公寓1115号,景点,旅行社,123.389251,41.798121
南湖公园,辽宁,沈阳,沈阳,024,23886446;23844578,南湖公园/三好街,南湖街道文化路1号,景点,公园/广场,123.412499,41.770689
辽宁省博物馆,辽宁,沈阳,沈阳,024,22741193;22741770,新市府,智慧三街157号,景点,博物馆,123.460564,41.678055
久丽美术馆,辽宁,沈阳,沈阳,024,188****2195,苏家屯区,佟沟乡刘后地村富锦街72号,景点,美术馆,123.558002,41.581482
龙之梦旅游度假中心,辽宁,沈阳,沈阳,024,31390333;31982223,黎明广场,滂江街22号龙之梦购物中心8层,景点,旅行社,123.487953,41.807293
辽宁省科学技术馆,辽宁,沈阳,沈阳,024,85736666,浑南新区,智慧三街159号,景点,展览馆,123.460478,41.675594
木匠屯水库,辽宁,沈阳,沈阳,024,,大东区,G1京哈高速旁,景点,自然景观,123.516205,41.893365
沈阳广慧寺,辽宁,沈阳,法库县,024,,法库县其他,丁家房镇象牙河路,景点,宗教,123.188975,42.344704
油田公园,辽宁,沈阳,新民市,024,,新民市其他,沈兴街与花园路交叉口西南100米,景点,公园/广场,123.057613,41.927537
来胜教堂,辽宁,沈阳,沈阳,024,,苏家屯区,辽官线,景点,宗教,123.260723,41.630173
沈阳拉马章水库,辽宁,沈阳,法库县,024,,法库县其他,包家屯镇,景点,现代建筑,122.967744,42.481896
大志水库,辽宁,沈阳,沈阳,024,,大东区,前进街道,景点,现代建筑,123.540326,41.910786
沈阳农业会展中心,辽宁,沈阳,沈阳,024,,辉山,辉山街道明珠路1号,景点,景点/周边游,123.582997,41.912877
沈阳獾子洞水库,辽宁,沈阳,法库县,024,,法库县其他,獾子洞水库,景点,现代建筑,122.955461,42.369445
塔南公园,辽宁,沈阳,沈阳,024,,塔湾,塔湾街32号,景点,公园/广场,123.376683,41.8324
东北航空历史纪念馆,辽宁,沈阳,法库县,024,,法库县其他,十间房镇财湖机场内,景点,纪念馆,123.379131,42.388827
银狐旅行社大东分公司,辽宁,沈阳,沈阳,024,86083199,大东广场,天后宫路146号富莱国际商厦1009室,景点,旅行社,123.46104,41.810604
国际旅行社总社,辽宁,沈阳,沈阳,024,23264355,北站/市府,广宜街25号,景点,旅行社,123.432758,41.808428
中国国际旅行社,辽宁,沈阳,沈阳,024,,南湖公园/三好街,文化路58号805房间,景点,旅行社,123.431751,41.772117
华晨宝马铁西工厂,辽宁,沈阳,沈阳,024,84555656,铁西区,大潘街道宝马大道1号,景点,更多景点/周边游,123.169167,41.692879
绿城人家,辽宁,沈阳,沈阳,024,,世博园,双园路301号沈阳世博园中部地区展园内,景点,古村古镇,123.65391,41.8626
中国国旅,辽宁,沈阳,沈阳,024,130****2288,沈辽路万达,兴华街道南十三路与沈辽中路交叉口旁,景点,旅行社,123.354395,41.780755
大帅府秘书处,辽宁,沈阳,沈阳,024,,中街/故宫,朝阳街少帅府巷8号,景点,人文古迹,123.461351,41.792701
大运通国旅,辽宁,沈阳,沈阳,024,176****3740,皇姑屯,昆山中路193号211室,景点,旅行社,123.394372,41.821602
满清一条街,辽宁,沈阳,沈阳,024,,中街/故宫,步行街与沈阳路交叉口东北50米,景点,步行街,123.456915,41.797625
涌泉教会,辽宁,沈阳,沈阳,024,,重工街沿线,重工南街56号-1门,景点,宗教,123.326183,41.79194
鹿鸣艺术沙龙,辽宁,沈阳,沈阳,024,155****1281,保工街,兴顺街4甲1号2门,景点,美术馆,123.366588,41.803978
沈阳国际旅行社有限公司,辽宁,沈阳,沈阳,024,130****6886,北行/辽大,黄河南大街60号中建峰汇广场C座811室,景点,旅行社,123.419952,41.829532
金运之旅,辽宁,沈阳,沈阳,024,96677,于洪新城,汪河路99号碧桂园·银河商业广场F2层,景点,旅行社,123.345779,41.750973
金海乐园游乐场,辽宁,沈阳,沈阳,024,137****3104,浑南区,省级路棋牌山正门红绿灯右转3公里处,景点,游乐场,123.704718,41.933834
沈阳大学自然博物馆,辽宁,沈阳,沈阳,024,139****6662,大东广场,沈阳大学南校区体育场东北侧,景点,博物馆,123.455708,41.819812
英雄公园,辽宁,沈阳,沈阳,024,,陵东,金山路,景点,公园/广场,123.45446,41.853197
康平卧龙谷旅游集散中心,辽宁,沈阳,康平县,024,137****6615,康平县其他,彰桓线中国石化沈康加油站东北,景点,旅行社,123.40789,42.732414
于济川公馆,辽宁,沈阳,沈阳,024,,北站/市府,中山路196号,景点,展览馆,123.429008,41.800651
Ci sono生活艺术馆,辽宁,沈阳,沈阳,024,133****1500,南市/马路湾,十一纬路111号稻香村旁,景点,美术馆,123.42568,41.79044
东陵公园,辽宁,沈阳,沈阳,024,88031478,东陵路/沈阳农业大学,汪家街道东陵路210号（东陵路）,景点,古代遗迹,123.592799,41.839119
基督教西塔教堂,辽宁,沈阳,沈阳,024,,西塔/北市场,市府大路37号,景点,宗教,123.412866,41.804186
国旅,辽宁,沈阳,沈阳,024,150****8897,苏家屯客运站,桂花街258-106号西1门,景点,旅行社,123.335796,41.652136
国旅,辽宁,沈阳,沈阳,024,186****2512,苏家屯区政府,雪柳街1号5门,景点,旅行社,123.346727,41.670787
白鹤楼,辽宁,沈阳,法库县,024,139****7222;183****5270,法库县其他,白鹤大道与沈康高速交汇处,景点,更多景点/周边游,123.448566,42.499664
赐福堂,辽宁,沈阳,沈阳,024,66601177,陵东,鸭绿江街32-20号,景点,宗教,123.452859,41.844689
金运之旅,辽宁,沈阳,沈阳,024,96677,三台子,乐山西路博雅馨园,景点,旅行社,123.415441,41.866491
金运之旅,辽宁,沈阳,沈阳,024,96677,奉天街沿线,大西路天光(大厦)东侧约80米,景点,旅行社,123.442634,41.795483
金运之旅,辽宁,沈阳,沈阳,024,96677,云峰街,云峰北街云峰花园,景点,旅行社,123.378068,41.792808
金运之旅,辽宁,沈阳,沈阳,024,96677,北二路,云峰街北一东路63甲68门,景点,旅行社,123.386361,41.809391
金运之旅,辽宁,沈阳,沈阳,024,96677,吉祥市场,东北大马路113号乐都汇B1楼,景点,旅行社,123.48098,41.819696
金运之旅,辽宁,沈阳,沈阳,024,96677,苏家屯区政府,迎春街133号14门,景点,旅行社,123.342676,41.659166
金运之旅,辽宁,沈阳,沈阳,024,96677,重工街沿线,沈辽西路9号,景点,旅行社,123.334951,41.782941
八一双拥博物馆,辽宁,沈阳,沈阳,024,,西塔/北市场,广州街72号,景点,博物馆,123.413548,41.798614
足球之都博物馆,辽宁,沈阳,沈阳,024,,长白岛,南堤西路,景点,博物馆,123.388962,41.751432
杨城寨生态旅游区,辽宁,沈阳,沈阳,024,138****8761,苏家屯区,107省道杨城寨村西南980米,景点,自然风光,123.47755,41.48329
沈阳印记,辽宁,沈阳,沈阳,024,86893898,陵东,鸭绿江街10号,景点,旅游项目/观光项目,123.456477,41.837217
青旅,辽宁,沈阳,沈阳,024,,龙江广场,金廊商圈宁山东路,景点,旅行社,123.435211,41.827171
沈阳劳动模范纪念馆,辽宁,沈阳,沈阳,024,22565883,北站/市府,北清真路,景点,纪念馆,123.442175,41.804882
温泉宾馆,辽宁,沈阳,新民市,024,139****3819,美国郡温泉小区,中兴路美国郡,景点,温泉,123.084984,41.916617
三利生态农业观光园,辽宁,沈阳,沈阳,024,,沈北新区,S107（十大线）,景点,动植物园,123.676079,42.017219
沈阳新世界博览馆,辽宁,沈阳,沈阳,024,31619900,五里河,博览路2号甲2号,景点,展览馆,123.440246,41.750803
铁西清真寺,辽宁,沈阳,沈阳,024,,重工街沿线,重工北街63号,景点,宗教,123.329232,41.810982
太原街广场商业步行街,辽宁,沈阳,沈阳,024,,太原街,中华路70号,景点,步行街,123.401655,41.79369
孙恩同美术馆,辽宁,沈阳,沈阳,024,,东陵路/沈阳农业大学,东陵路10巷-1号,景点,美术馆,123.520567,41.814807
清浪湾温泉,辽宁,沈阳,辽中区,024,,辽中区其他,华泰路智慧树幼儿园(华泰路店)东南侧约140米,景点,温泉,122.887568,41.521098
大运通国际旅行社,辽宁,沈阳,沈阳,024,182****9567;136****0839,长青街,长青街50号（育鹏小学门口）,景点,旅行社,123.478865,41.776737
过格多肉植物体验园,辽宁,沈阳,沈阳,024,66787878,浑南区,沈李线南井村绿色美景花卉基地B区22层,景点,植物园,123.563393,41.709543
新民市文联书画院,辽宁,沈阳,新民市,024,,新民市中心城区,新华路35号,景点,美术馆,122.825504,42.000594
四方蓝天国际旅行社,辽宁,沈阳,沈阳,024,,北站/市府,北京街19-3号,景点,旅行社,123.433185,41.809515
大运通国旅,辽宁,沈阳,沈阳,024,,北站/市府,青年北大街19-2号汇宝国际公寓C座11层1106室,景点,旅行社,123.434028,41.809498
芊芊艺术培训,辽宁,沈阳,沈阳,024,151****4429,东站,新生二街,景点,美术馆,123.4843,41.825582
七马路居民健身广场,辽宁,沈阳,沈阳,024,,兴隆大都汇,南七中路82号,景点,公园/广场,123.34584,41.798828
福慧佛堂,辽宁,沈阳,新民市,024,150****4509,新民市其他,振兴六街13-4号3门,景点,景点/周边游,123.143719,41.790069
天地法缘堂,辽宁,沈阳,沈阳,024,136****2853,文艺路/文化路,般若寺巷与大南街富教巷交叉口西北60米,景点,历史建筑,123.460316,41.782756
铭扬佛堂,辽宁,沈阳,康平县,024,159****4546,中心街,华通利对面,景点,景点/周边游,123.352784,42.748776
汗王宫遗址陈列馆,辽宁,沈阳,沈阳,024,84181111,中街/故宫,中街盛京龙城,景点,陈列馆,123.456161,41.803764
万科中央公园,辽宁,沈阳,沈阳,024,,怒江北街,怒江北街辽宁大学北1000米,景点,公园/广场,123.391888,41.851648
中国同泽美术馆,辽宁,沈阳,沈阳,024,158****9858,中街/故宫,中街路268号益田假日世界五层,景点,美术馆,123.463478,41.803188
锡伯龙地创意农业产业园,辽宁,沈阳,沈阳,024,4006630277,沈北新区,兴光街,景点,创意园区,123.30199,42.077109
反腐倡廉展览馆,辽宁,沈阳,沈阳,024,29837096,浑南区,羊安五街大羊安村960号,景点,展览馆,123.382698,41.655432
经纬旅行社,辽宁,沈阳,沈阳,024,31983456,重工街沿线,重工南街132巷长客西站内一楼,景点,旅行社,123.325471,41.779911
久利展览展示,辽宁,沈阳,沈阳,024,62233211,南市/马路湾,南六经街7号3门南市百货后身,景点,展览馆,123.417853,41.787503
真有贺沉浸式潮玩MALL,辽宁,沈阳,沈阳,024,024-81324559,北站/市府,皇寺路99-1号,景点,休闲街区,123.426086,41.806969
溪水报恩寺,辽宁,沈阳,沈阳,024,86379033,四台子,黄河北大街206-562号附近,景点,宗教,123.383284,41.890216
辽宁海外国际旅行社,辽宁,沈阳,辽中区,024,158****4058,辽中区其他,茨榆大街88号,景点,旅行社,122.889496,41.511136
豫亲王府,辽宁,沈阳,沈阳,024,84181111,中街/故宫,中街盛京龙城西区一楼,景点,历史建筑,123.455864,41.803467
亲子脚踏船,辽宁,沈阳,沈阳,024,136****0771,长白岛,长白岛森林公园内,景点,更多景点/周边游,123.389089,41.752209
张强烈士墓,辽宁,沈阳,康平县,024,,康平县其他,303省道,景点,烈士陵园,123.009552,42.688748
烈士陵园,辽宁,沈阳,康平县,024,,康平县其他,小城子森林公园西北（小杨线西）,景点,烈士陵园,123.203731,42.889641
鸽子,辽宁,沈阳,沈阳,024,,浑南区,老寺沟沈阳国家森林公园动物园内,景点,动物园,123.736059,42.040415
浑南区革命烈士陵园,辽宁,沈阳,沈阳,024,,东陵路/沈阳农业大学,东湖新村附近（东陵路小学东）,景点,烈士陵园,123.58142,41.82106
辽西民俗文化收藏与交流私人会所,辽宁,沈阳,辽中区,024,,辽中区其他,富兴·湖畔欣城,景点,展览馆,122.772528,41.51125
奥林匹克生态公园,辽宁,沈阳,沈阳,024,,浑南新区,五三街道南堤中路与天赐街交叉口,景点,公园/广场,123.487068,41.752491
彩电塔,辽宁,沈阳,沈阳,024,23843333,南市/马路湾,南三经街60号甲,景点,高空观景,123.434814,41.783909
中华路地下购物街,辽宁,沈阳,沈阳,024,,太原街,中华路与兰州北街交叉口西北50米,景点,休闲街区,123.399452,41.79287
凯曼宫,辽宁,沈阳,沈阳,024,,沈北新区,新城子区清水台镇拥屯村沈阳怪坡风景区内,景点,景点/周边游,123.638113,42.068343
奉海铁路局旧址,辽宁,沈阳,沈阳,024,,东站,东站街1号,景点,历史建筑,123.501185,41.82363
张当村文化广场,辽宁,沈阳,沈阳,024,,苏家屯区,胡杨线西50米,景点,公园/广场,123.21187,41.656363
辽宁海外国际旅行社,辽宁,沈阳,沈阳,024,86863959,龙江广场,北陵大街26号甲1号,景点,旅行社,123.429574,41.827234
博雅公园,辽宁,沈阳,沈阳,024,,北陵,新乐街道黄河南大街111-4号正北方向80米,景点,公园/广场,123.423417,41.842072
能穿&博物馆,辽宁,沈阳,沈阳,024,,西塔/北市场,西塔街48号韩百商场B座1F层,景点,博物馆,123.410271,41.807095
沈阳国际旅行社津桥路,辽宁,沈阳,沈阳,024,188****5138,东中街,津桥路3-2号威士顿B座1317室,景点,旅行社,123.469921,41.804583
阳光一百凤凰街,辽宁,沈阳,沈阳,024,25251000,于洪新城,吉力湖一街与汪河路交叉口南60米,景点,步行街,123.358276,41.755321
塔湾兴顺夜市鲸鱼岛乐园,辽宁,沈阳,沈阳,024,159****0025,明廉,塔湾街与明廉路交叉口北60米,景点,游乐场,123.372211,41.822651
奉天纺纱艺术区,辽宁,沈阳,沈阳,024,,吉祥市场,北海街道辽沈二街如意五路23号,景点,创意园区,123.477922,41.815222
腾邦旅游,辽宁,沈阳,沈阳,024,29835677,苏家屯区政府,丽花街10号东6门,景点,旅行社,123.341638,41.665643
国宾旅行社,辽宁,沈阳,法库县,024,156****4999;135****4111,幸福花园,兴法路湖畔新城东侧约40米,景点,旅行社,123.426351,42.503491
海德·公园,辽宁,沈阳,沈阳,024,,北陵,陵东街109号-1,景点,公园/广场,123.442025,41.842668
吉顺隆丝房旧址,辽宁,沈阳,沈阳,024,,中街/故宫,中街路184号（中街地铁站出入口步行130米）,景点,古代遗迹,123.45886,41.801584
荷花湖度假公园,辽宁,沈阳,沈阳,024,67760387,东陵路/沈阳农业大学,东陵路210号东陵公园正门对面,景点,公园/广场,123.59425,41.82777
奉天邮务管理局旧址,辽宁,沈阳,沈阳,024,,西塔/北市场,市府大路157号,景点,古代遗迹,123.421743,41.804242
世博园蝴蝶谷,辽宁,沈阳,沈阳,024,180****5115,世博园,双园路301号,景点,自然风光,123.651366,41.869192
香草山基督教会,辽宁,沈阳,沈阳,024,158****1675,浑南新区,南堤中路9-20号附近,景点,宗教,123.48555,41.750417
中商国旅,辽宁,沈阳,沈阳,024,,黎明广场,黎明一街11号,景点,旅行社,123.496659,41.805109
中国国旅辽宁国际旅行社,辽宁,沈阳,沈阳,024,133****4424,吉祥市场,洮昌街锦联·左岸东南侧,景点,旅行社,123.472011,41.819451
途牛旅游,辽宁,沈阳,沈阳,024,31161319,北站/市府,北站路59号沈阳·财富中心E座18层1804室,景点,旅行社,123.435084,41.814504
金沙滩国家沙漠公园,辽宁,沈阳,康平县,024,31265555;182****7276,康平县其他,小杨线,景点,自然风光,123.191869,42.857922
浑南市民公园,辽宁,沈阳,沈阳,024,,浑南新区,南堤西路2号,景点,公园/广场,123.439285,41.742607
沈阳海洋探索中心,辽宁,沈阳,沈阳,024,31954000;186****7113,五里河,博览路2甲1号K11购物艺术中心三层,景点,海洋馆,123.437958,41.750046
清河半岛温泉度假酒店,辽宁,沈阳,沈阳,024,31853777;31853999,道义商圈,蒲南路20号,景点,温泉,123.432626,41.936496
朗朗钢琴广场,辽宁,沈阳,沈阳,024,,长白岛,南堤西路长白岛足球主题公园旁（近南堤西路与秀岛路交叉口）,景点,广场,123.421943,41.742089
鸟岛游乐场,辽宁,沈阳,沈阳,024,31979736,东陵路/沈阳农业大学,东陵路197号,景点,游乐场,123.586677,41.827735
途牛旅游,辽宁,沈阳,沈阳,024,188****9290,北二路,北二中路6号SB-19,景点,旅行社,123.376297,41.808662
三皇庙遗址,辽宁,沈阳,沈阳,024,,大东广场,东西快速干道入口与取意街交叉口西北50米,景点,古代遗迹,123.456352,41.810884
沈阳国旅,辽宁,沈阳,沈阳,024,31011600,黎明广场,和睦南一路28号,景点,旅行社,123.502031,41.806924
信朗之旅旅行社,辽宁,沈阳,沈阳,024,159****8325,龙江广场,辽河街16号,景点,旅行社,123.437993,41.825353
沈阳国际旅行社,辽宁,沈阳,沈阳,024,,龙江广场,巴山路和辽河街交叉口西走50米,景点,旅行社,123.437821,41.825331
南市场八卦街,辽宁,沈阳,沈阳,024,,南市/马路湾,十一纬路55号,景点,步行街,123.421172,41.789252
东陵郊野公园,辽宁,沈阳,沈阳,024,,东陵公园,东陵路210号（东陵路）,景点,公园/广场,123.592799,41.839119
伊顺文化艺术产业园,辽宁,沈阳,沈阳,024,,太原街,和平区中华路53号,景点,创意园区,123.403795,41.79118
红梅文创园,辽宁,沈阳,沈阳,024,23931939,兴隆大都汇,卫工北街44号,景点,创意园区,123.350475,41.811236
天下第一园,辽宁,沈阳,沈阳,024,,世博园,双园路301号沈阳植物园内,景点,更多景点/周边游,123.645581,41.864901
爱的十家园,辽宁,沈阳,沈阳,024,,重工街沿线,富工一街与建业路交叉口西60米,景点,宗教,123.333051,41.799151
丁香水巷,辽宁,沈阳,沈阳,024,,荷兰村,松山西路华润橡树湾-2期西侧约30米,景点,广场,123.357857,41.85904
西厢房,辽宁,沈阳,沈阳,024,,苏家屯区政府,翠柏路14号区政府,景点,更多景点/周边游,123.344216,41.664696
游览车北环线国际展园站,辽宁,沈阳,沈阳,024,,世博园,中马村双园路301号沈阳市植物园内,景点,公园/广场,123.656379,41.86718
社区建身广场,辽宁,沈阳,沈阳,024,,三台子,三台子街道蔷薇河街3号,景点,公园/广场,123.427408,41.877118
民意园,辽宁,沈阳,沈阳,024,,三台子,苗山路北区花园,景点,公园/广场,123.434448,41.88642
西七间楼,辽宁,沈阳,沈阳,024,,中街/故宫,沈阳路171号沈阳故宫内,景点,景点/周边游,123.455047,41.798018
铁道锦州警备犬之碑,辽宁,沈阳,沈阳,024,,大东区,望花南街46号九·一八历史博物馆内,景点,人文古迹,123.466961,41.834771
奉天记忆文化创意产业园,辽宁,沈阳,沈阳,024,31206666,保工街,北四中路22甲号,景点,创意园区,123.363683,41.803045
怡园,辽宁,沈阳,沈阳,024,,小河沿,东北路与北方街交叉口东南150米,景点,公园/广场,123.498485,41.790161
红谷温泉,辽宁,沈阳,沈阳,024,89542999,苏家屯区,佟沟街道沈本产业大道东150米,景点,温泉,123.560375,41.58337
沈阳国际旅行社,辽宁,沈阳,沈阳,024,131****3350,三台子,松山西路9号7门,景点,旅行社,123.415181,41.869201
沈阳青年国际旅行社,辽宁,沈阳,沈阳,024,159****0607,三台子,黄河北大街56-40号中粮广场8门8108门市,景点,旅行社,123.417288,41.856898
铁西冰雪大世界,辽宁,沈阳,沈阳,024,31209211,重工街沿线,重工北街66号铁西体育场内,景点,滑雪,123.326173,41.812382
2023年沈阳迎春灯会,辽宁,沈阳,沈阳,024,4000149996,浑南区,棋盘山378-105号,景点,展览馆,123.702112,41.950337
沈阳青旅法库门市部,辽宁,沈阳,法库县,024,151****1557,幸福花园,兴法路湖畔新城东侧约40米,景点,旅行社,123.427214,42.503154
凯撒旅游体验店,辽宁,沈阳,沈阳,024,,铁西广场,建设东路158号铁西万象汇F1层,景点,旅行社,123.372521,41.795171
甜程旅行网,辽宁,沈阳,沈阳,024,67850898,太原街,太原北街95号玖伍文化城2层,景点,旅行社,123.402245,41.79274
圣迹山,辽宁,沈阳,法库县,024,,法库县其他,中国辽宁省沈阳市法库县,景点,自然风光,122.854567,42.328113
刘鸿典建筑博物馆,辽宁,沈阳,沈阳,024,139****3550,新华广场,海口街39号,景点,博物馆,123.397924,41.772114
年轮艺术品收藏馆,辽宁,沈阳,沈阳,024,22820578,南市/马路湾,南一经街144巷10号,景点,展览馆,123.432906,41.784696
百菜园,辽宁,沈阳,沈阳,024,,世博园,高坎街道双园路301号沈阳植物园内,景点,植物园,123.657671,41.864891
盟军狙击手,辽宁,沈阳,沈阳,024,,世博园,高坎街道双园路301号沈阳植物园森林乐园内,景点,更多景点/周边游,123.652855,41.858971
尧桥古建,辽宁,沈阳,沈阳,024,,大东区,东望街20号D座,景点,古村古镇,123.519018,41.840388
沈阳两化融合展示中心,辽宁,沈阳,沈阳,024,83773086,浑南新区,上深沟村860-6沈阳国际软件园F9号楼1层101室,景点,展览馆,123.484651,41.694401
逍遥游国际旅行社有限公司,辽宁,沈阳,沈阳,024,158****3353,北站/市府,营口东路27号,景点,旅行社,123.425458,41.806068
红满天喷绘展示,辽宁,沈阳,沈阳,024,139****8908,皇姑区,闽江街10号9门,景点,展览馆,123.410882,41.812782
亿甲创业街,辽宁,沈阳,辽中区,024,,近海客运站,亿甲府第,景点,观光街区,122.773492,41.518112
溢香园,辽宁,沈阳,新民市,024,,新民市其他,南部新彰公路与304线交会口新民文化博览园,景点,植物园,122.780071,42.138941
文博园国际会展中心,辽宁,沈阳,新民市,024,,新民市其他,姜张线,景点,景点/周边游,122.782209,42.140793
地库铁门,辽宁,沈阳,沈阳,024,,中街/故宫,朝阳街少帅府巷48号沈阳金融博物馆地下金库内,景点,自然景观,123.459883,41.79402
沈阳和平杯世界足球公园,辽宁,沈阳,沈阳,024,,和平区,浑河站西街道滨水路南200米,景点,公园/广场,123.355995,41.739674
腾邦旅游,辽宁,沈阳,沈阳,024,66682772,皇姑屯,华山路怒江街294号1门,景点,旅行社,123.397081,41.821521
盛世国旅,辽宁,沈阳,沈阳,024,,皇姑区,华山街道昆山中路,景点,旅行社,123.416381,41.818284
中国青旅,辽宁,沈阳,沈阳,024,138****7713,大东广场,草仓路11号长福家园,景点,旅行社,123.465238,41.809683
铁锚1956文创园,辽宁,沈阳,沈阳,024,31048310,东中街,大东路47号,景点,创意园区,123.469481,41.796511
沈阳牡丹园,辽宁,沈阳,沈阳,024,189****0008,浑南区,满堂街道森林路108号华夏民俗村旁,景点,植物园,123.674847,41.911547
电瓶船,辽宁,沈阳,沈阳,024,,世博园,沈阳世博园海盗船附近,景点,更多景点/周边游,123.648831,41.858427
龙鱼世界,辽宁,沈阳,沈阳,024,,西塔/北市场,丹东路与北市二街交叉口东南100米,景点,动植物园,123.420373,41.805793
西配楼,辽宁,沈阳,沈阳,024,,北陵,泰山路12号北陵公园内,景点,人文古迹,123.4273,41.85193
三进院,辽宁,沈阳,沈阳,024,,中街/故宫,朝阳街少帅府巷46号张氏帅府内,景点,人文古迹,123.457941,41.794401
大学生创业创新平台,辽宁,沈阳,沈阳,024,,望花,望花中街142-1号附近,景点,创意园区,123.478359,41.867299
绿色生活展示馆,辽宁,沈阳,沈阳,024,,长青街,清泉街清泉社区,景点,展览馆,123.478076,41.775553
北国旅行社和平分公司,辽宁,沈阳,沈阳,024,,南市/马路湾,十三纬路19号辽宁冶金大厦9层,景点,旅行社,123.412934,41.785814
扬帆远航,辽宁,沈阳,沈阳,024,,世博园,双园路301号沈阳植物园内,景点,自然景观,123.657061,41.867508
东药供销公司-圆桌会议室,辽宁,沈阳,沈阳,024,,沈辽路万达,兴华南街56号,景点,景点/周边游,123.362095,41.783555
辽河文明,辽宁,沈阳,沈阳,024,,北站/市府,市府大路363号辽宁省博物馆内,景点,展览馆,123.435154,41.803304
芦花鸡,辽宁,沈阳,沈阳,024,,浑南区,103省道棋盘山风景区沈阳森林动物园小动物村,景点,动物园,123.686993,41.933243
后妃生活用品展,辽宁,沈阳,沈阳,024,,中街/故宫,沈阳路171号(近兴隆大家庭南侧)沈阳故宫内,景点,展览馆,123.455378,41.799168
北二台子村,辽宁,沈阳,沈阳,024,,于洪区,平罗街道,景点,更多景点/周边游,123.277943,41.967133
辽宁大学档案管理中心,辽宁,沈阳,沈阳,024,,辽宁大学南校区,崇山中路66号辽宁大学崇山校区内,景点,展览馆,123.40224,41.833171
辽宁中辽国际旅行社,辽宁,沈阳,沈阳,024,31836733,龙江广场,黄河南大街与宁山中路交叉口东北40米,景点,旅行社,123.420903,41.828143
启运园,辽宁,沈阳,沈阳,024,,世博园,双园路301号沈阳植物园内,景点,公园/广场,123.65667,41.867788
草原狼,辽宁,沈阳,沈阳,024,,浑南区,秀湖南路沈阳森林动物园内,景点,景点/周边游,123.680904,41.926307
中远国旅,辽宁,沈阳,沈阳,024,188****8670,长青街,先农坛路17巷19-1号,景点,旅行社,123.469212,41.781844
百年服饰展览馆,辽宁,沈阳,新民市,024,,新民市其他,大柳屯镇南部新彰公路与304线交会口侧新民文化博览园内,景点,陈列馆,122.780875,42.142753
气膜会展中心,辽宁,沈阳,沈阳,024,,北行/辽大,崇山中路103号皇姑勒思体育中心,景点,景点/周边游,123.406316,41.830101
北京光彩假日国际旅行社,辽宁,沈阳,沈阳,024,25386898,和泰馨城,东平湖街39-1号12门,景点,旅行社,123.288552,41.802802
辽河文明展第四展厅,辽宁,沈阳,沈阳,024,,北站/市府,朱剪炉街道市府大路363号博物馆辽河文明内,景点,展览馆,123.436065,41.803549
双峰翠水,辽宁,沈阳,沈阳,024,,浑南区,103省道棋盘山风景区向阳寺内,景点,更多景点/周边游,123.650778,41.933881
中国·法库特色产品交易展示中心,辽宁,沈阳,法库县,024,,法库县其他,金牛街东郡华府西侧约200米,景点,展览馆,123.435005,42.512814
辽宁省中年旅行社有限公司,辽宁,沈阳,沈阳,024,131****9166,苏家屯客运站,香柏路3号,景点,旅行社,123.331431,41.661481
影视拍摄展览馆,辽宁,沈阳,沈阳,024,,浑南区,103省道棋盘山风景区关东影视城内,景点,展览馆,123.704187,41.950452
辽宁古代农业陈列馆,辽宁,沈阳,沈阳,024,,东陵路/沈阳农业大学,S104（东陵路）,景点,陈列馆,123.549753,41.824123
绿洲神韵,辽宁,沈阳,沈阳,024,,世博园,双园路301号沈阳植物园内,景点,自然景观,123.646689,41.866758
生肖羊,辽宁,沈阳,沈阳,024,,沈北新区,拥屯村沈阳怪坡风景区内（东北角）,景点,动物园,123.640971,42.067101
般若讲堂,辽宁,沈阳,沈阳,024,,沈北新区,怪坡路80号沈阳怪坡风景区内,景点,宗教,123.63626,42.064688
信基沙溪酒店用品博览中心,辽宁,沈阳,沈阳,024,,北二路,兴华北街30号千缘·新财富大厦16层1609室,景点,展览馆,123.378272,41.804801
黔园,辽宁,沈阳,沈阳,024,,世博园,双园路301号沈阳世博园（西北角）,景点,公园/广场,123.646271,41.865981
静竹工控仪表广场,辽宁,沈阳,沈阳,024,138****2275,铁西区,沈辽西路168号21之11-12门,景点,公园/广场,123.219427,41.725867
康平革命烈士陵园,辽宁,沈阳,康平县,024,,中心街,中心路与向阳街交叉口东100米,景点,烈士陵园,123.359827,42.741738
地一大道北行商业街32号口部,辽宁,沈阳,沈阳,024,,北行/辽大,长江街131-110号,景点,步行街,123.412453,41.829218
黑美洲豹,辽宁,沈阳,沈阳,024,,浑南区,秀湖南路沈阳森林动物园内（北侧）,景点,动物园,123.685249,41.933596
妈妈石,辽宁,沈阳,沈阳,024,,浑南区,103省道棋盘山风景区内,景点,更多景点/周边游,123.654521,41.934282
文化创意产品展示中心,辽宁,沈阳,沈阳,024,,中街/故宫,沈阳路171号(近兴隆大家庭南侧)沈阳故宫内,景点,展览馆,123.454657,41.798223
抓娃娃机,辽宁,沈阳,沈阳,024,133****0466,奉天街沿线,青年大街55号沈阳百联购物中心F4层,景点,游乐场,123.433044,41.793011
丰盛国旅,辽宁,沈阳,沈阳,024,,南市/马路湾,十四纬路15号,景点,旅行社,123.424012,41.782512
游客服务中心,辽宁,沈阳,康平县,024,,康平博物馆,滨湖三街与顺山三路交叉口东南150米,景点,公园/广场,123.338589,42.730859
赵一荻故居,辽宁,沈阳,沈阳,024,24867711,中街/故宫,朝阳街少帅府北巷内,景点,名人故居,123.458829,41.794361
国家地理探险家中心,辽宁,沈阳,沈阳,024,82516116,五里河,南湖街道博览路2甲1号沈阳K11购物艺术中心2层,景点,主题乐园,123.43718,41.749557
如意门,辽宁,沈阳,沈阳,024,,浑南区,103省道棋盘山风景区关东影视城关帝庙内,景点,步行街,123.705464,41.950514
辽宁省博物馆-会议厅,辽宁,沈阳,沈阳,024,22741193,新市府,智慧三街157号,景点,景点/周边游,123.460455,41.678543
康平县地方史志馆,辽宁,沈阳,康平县,024,,康平博物馆,滨湖西四街与顺山三路交叉口西南100米康平博物馆附近,景点,博物馆,123.339706,42.730537
观音阁,辽宁,沈阳,沈阳,024,,于洪区,东平湖街(四代书香)350号17号楼4门,景点,宗教,123.293536,41.840616
盈科旅游沈阳东塔门市部,辽宁,沈阳,沈阳,024,156****4555,黎明广场,汇城建筑东北门旁（黎明广场地铁站D口步行440米）,景点,旅行社,123.506863,41.805383
民族风情大院,辽宁,沈阳,新民市,024,,新民市其他,大柳屯镇南部新彰公路与304线交会口侧新民文化博览园内,景点,历史建筑,122.782014,42.142747
宝塔寺,辽宁,沈阳,康平县,024,,康平县其他,郝官屯镇小塔子村,景点,宗教,123.606436,42.664276
秀水河子战役纪念馆,辽宁,沈阳,法库县,024,,法库县其他,秀西线与京沈线交叉口东北360米,景点,纪念馆,123.029121,42.362121
南小城子城址,辽宁,沈阳,康平县,024,,康平县其他,康小线,景点,古代遗迹,123.210543,42.891613
巴尔虎山自然公园,辽宁,沈阳,法库县,024,,法库县其他,肇工北街,景点,公园/广场,123.213372,42.517334
蓬瀛宫,辽宁,沈阳,沈阳,024,,浑南新区,南塔街97号,景点,宗教,123.451951,41.765731
七彩乐园,辽宁,沈阳,沈阳,024,86817777,虎石台,蒲河路98号尚柏奥莱2F层,景点,游乐场,123.464561,41.95602
军刀铺,辽宁,沈阳,沈阳,024,,浑南区,棋盘山378号关东影视城内（东北角）,景点,景点/周边游,123.703971,41.950391
蓝狐,辽宁,沈阳,沈阳,024,,沈北新区,杭州路83-3号怪坡风景区,景点,更多景点/周边游,123.630839,42.068999
观赏鸽,辽宁,沈阳,沈阳,024,,浑南区,小动物村,景点,动物园,123.687012,41.933
藏灵仙门市,辽宁,沈阳,沈阳,024,,三台子,梅江街与闾山东路交叉口东200米,景点,更多景点/周边游,123.412645,41.870895
太平车,辽宁,沈阳,沈阳,024,,中街/故宫,沈阳路171号(近兴隆大家庭南侧)沈阳故宫内,景点,景点/周边游,123.454387,41.798642
庆元昌布庄,辽宁,沈阳,沈阳,024,,浑南区,棋盘山378号关东影视城内,景点,景点/周边游,123.703461,41.950928
小熊猫,辽宁,沈阳,沈阳,024,,浑南区,103省道棋盘山风景区沈阳森林动物园内（东北角）,景点,更多景点/周边游,123.686748,41.931857
小熊猫,辽宁,沈阳,沈阳,024,,沈北新区,杭州路83-3号怪坡风景区内,景点,更多景点/周边游,123.629722,42.068636
北海教堂,辽宁,沈阳,沈阳,024,,东站,北海街99号2门（东北大马路地铁站D口步行280米）,景点,宗教,123.481037,41.822847
沈阳乐高探索中心,辽宁,沈阳,沈阳,024,31954000;186****7113,五里河,博览路2甲1号(K11购物艺术中心3层),景点,主题乐园,123.438179,41.74995
辽宁易乐宝旅游项目开发有限公司,辽宁,沈阳,沈阳,024,,东中街,东顺城街10号,景点,旅行社,123.464791,41.802471
中国国旅国际旅行社有限公司方明街门市部,辽宁,沈阳,沈阳,024,23454063,长青街,方明街22-1号,景点,旅行社,123.500951,41.775931
天骄国旅,辽宁,沈阳,沈阳,024,,西塔/北市场,安图街8-12号（老道口公交车站）,景点,旅行社,123.406812,41.807663
名人苑,辽宁,沈阳,新民市,024,,新民市其他,大柳屯镇南部新彰公路与304线交会口侧新民文化博览园内,景点,公园/广场,122.778581,42.140731
后苑,辽宁,沈阳,沈阳,024,,中街/故宫,沈阳路171号沈阳故宫（北侧）,景点,人文古迹,123.455684,41.799364
辽宁冨友软枣猕猴桃基地,辽宁,沈阳,沈阳,024,139****5071,苏家屯区,青鸟蓝莓采摘园,景点,更多景点/周边游,123.552966,41.530107
夸父追日,辽宁,沈阳,沈阳,024,,世博园,双园路301号沈阳植物园森林乐园内,景点,更多景点/周边游,123.64944,41.85841
卧龙湖水上乐园,辽宁,沈阳,康平县,024,27346222,康平县其他,西岭街78号6栋,景点,水上乐园,123.324337,42.738752
辽宁飞虎航空运动飞行营地,辽宁,沈阳,沈阳,024,139****5999,沈北新区,平望线千佛寺村西侧（近棋盘山北门）,景点,更多景点/周边游,123.659201,41.960701
云熙美术馆,辽宁,沈阳,沈阳,024,186****7055,三台子,百花山路31号5门（黄河北大街东60米，万科紫台北门旁）,景点,美术馆,123.417756,41.877931
集酷无动力儿童乐园,辽宁,沈阳,沈阳,024,156****7512;170****4000,沈北新区,怪坡路80号,景点,主题乐园,123.648947,42.055267
赤十字社支部旧址,辽宁,沈阳,沈阳,024,,西塔/北市场,中山路118号,景点,古代遗迹,123.412155,41.797481
沈阳国旅,辽宁,沈阳,沈阳,024,22522245,北站/市府,哈尔滨路58号房联大厦8层822室,景点,旅行社,123.424603,41.811624
三家子城址,辽宁,沈阳,康平县,024,,康平县其他,家屯镇李影匠窝堡村三家子西山坡上,景点,古代遗迹,123.029336,42.649446
城子沟遗址,辽宁,沈阳,康平县,024,,康平县其他,盖顶窝堡村城子沟屯北,景点,古代遗迹,123.032409,42.671299
孝子山,辽宁,沈阳,辽中区,024,,辽中区其他,新民屯镇东北六里余,景点,自然风光,123.055172,41.63059
泡子沿小城子城址,辽宁,沈阳,康平县,024,,康平县其他,东关屯街道泡子沿村,景点,古代遗迹,123.316541,42.661323
果虫滑车,辽宁,沈阳,沈阳,024,,世博园,双园路301号沈阳植物园内,景点,游乐场,123.650183,41.858083
激光战车城堡,辽宁,沈阳,沈阳,024,,世博园,双园路301号沈阳植物园森林乐园内,景点,游乐场,123.650321,41.858062
音乐飞碟,辽宁,沈阳,沈阳,024,,世博园,双园路301号沈阳植物园森林乐园内,景点,景点/周边游,123.649198,41.858698
南昌市豫章园,辽宁,沈阳,沈阳,024,,世博园,双园路301号沈阳世博园中部地区展园内,景点,公园/广场,123.654929,41.862489
郁金香,辽宁,沈阳,沈阳,024,,世博园,双园路301号沈阳植物园森林乐园内,景点,游乐场,123.653183,41.858983
八宝琉璃井亭,辽宁,沈阳,沈阳,024,,中街/故宫,沈阳路171号沈阳故宫内（东南角）,景点,更多景点/周边游,123.456281,41.797966
迷城历险,辽宁,沈阳,沈阳,024,,世博园,双园路301号沈阳植物园森林乐园内,景点,游乐场,123.652036,41.858743
旋风赛车,辽宁,沈阳,沈阳,024,,世博园,双园路301号世博园内,景点,更多景点/周边游,123.648583,41.858773
天津市翰海津门,辽宁,沈阳,沈阳,024,,世博园,双园路301号沈阳世博园中部地区展园内,景点,景点/周边游,123.65499,41.86137
郑州市商都记忆,辽宁,沈阳,沈阳,024,,世博园,双园路301号沈阳世博园中部地区展园内,景点,自然景观,123.653091,41.864441
漂球,辽宁,沈阳,沈阳,024,,北陵,泰山路12号北陵公园内,景点,游乐场,123.429013,41.844176
高空飞椅,辽宁,沈阳,沈阳,024,,世博园,世博园（沈阳市植物园）,景点,游乐场,123.648201,41.858001
张作霖早期办公场所,辽宁,沈阳,沈阳,024,,中街/故宫,朝阳街少帅府巷46号张氏帅府二进院内,景点,更多景点/周边游,123.45778,41.794206
奉天浪速高等女子学校旧址,辽宁,沈阳,沈阳,024,,中山广场/医大一院,北五马路41号,景点,古代遗迹,123.415418,41.796908
珠海市海怡园,辽宁,沈阳,沈阳,024,,世博园,双园路301号沈阳世博园中部地区展园内,景点,公园/广场,123.654349,41.86171
黑点科技虚拟现实科技馆,辽宁,沈阳,沈阳,024,,黎明广场,滂江街22号龙之梦购物中心负一层肯德基对面,景点,科技馆,123.487915,41.807095
北塔公园,辽宁,沈阳,沈阳,024,,长客总站,崇山东路49甲1号,景点,公园/广场,123.450916,41.828083
荷兰猪,辽宁,沈阳,沈阳,024,,沈北新区,杭州路83-3号怪坡风景区内,景点,更多景点/周边游,123.630642,42.069069
花脸鸭,辽宁,沈阳,沈阳,024,,浑南区,浑南区浑南区103省道棋盘山风景区沈阳森林动物园内,景点,更多景点/周边游,123.683729,41.93146
MERMAID,辽宁,沈阳,沈阳,024,,大东广场,东北大马路大北关街48号家乐福1层,景点,更多景点/周边游,123.467775,41.815372
携程旅游,辽宁,沈阳,沈阳,024,186****6708,五里河,青年大街173号佳兆业广场4层,景点,旅行社,123.436623,41.765778
头条胡同,辽宁,沈阳,沈阳,024,,中街/故宫,中街路168号,景点,观光街区,123.458336,41.801646
月月汤泉,辽宁,沈阳,沈阳,024,88511988,北站/市府,北站街道,景点,温泉,123.444767,41.813063
张学良和于凤至起居室,辽宁,沈阳,沈阳,024,,中街/故宫,皇城街道朝阳街少帅府巷46号张氏帅府大青楼内,景点,更多景点/周边游,123.457598,41.794418
佛龛供桌展示厅,辽宁,沈阳,沈阳,024,,长青街,东滨河路沈阳市第二十七中学东南侧约30米,景点,展览馆,123.462938,41.783108
法华寺,辽宁,沈阳,法库县,024,,法库县其他,龙山西路二龙山公园,景点,宗教,123.405702,42.511976
凯德俪锦城广场,辽宁,沈阳,沈阳,024,,沙岭镇,沙岭路与锦沙街交叉口东北150米,景点,公园/广场,123.195061,41.790737
万科运动公园,辽宁,沈阳,沈阳,024,,四台子,文大路231号东北角,景点,城市公园,123.39128,41.901072
辽宁光大国际旅行社,辽宁,沈阳,沈阳,024,138****4133,北陵,陵东街7号天酒店(沈阳省政府北陵公园店)东北侧,景点,旅行社,123.441886,41.844926
九方禾谷艺术馆,辽宁,沈阳,沈阳,024,23834222,浑南新区,临波路16-28号35幢3门（南堤西路与夹河街交叉口西南侧）,景点,美术馆,123.438747,41.739817
二·一三广场,辽宁,沈阳,沈阳,024,,浑南区,兴隆村卫生室,景点,公园/广场,123.690872,41.855228
佛仙堂,辽宁,沈阳,康平县,024,87333387,中心街,中心街金鑫花园(政府路)南侧约150米,景点,景点/周边游,123.352469,42.748129
珍珠鸡,辽宁,沈阳,沈阳,024,,沈北新区,老寺沟沈阳国家森林公园动物园内,景点,动物园,123.735809,42.040791
沈水幸福公园,辽宁,沈阳,沈阳,024,,苏家屯区,香堇街与香梨路交叉路口往南约150米,景点,公园/广场,123.307433,41.685266
沈阳青年国际旅行社,辽宁,沈阳,沈阳,024,150****3746,大东区,北海街联合路83号华润万家2楼,景点,旅行社,123.476368,41.836693
途牛旅游,辽宁,沈阳,沈阳,024,,正良,道义南大街8号华强广场2楼,景点,旅行社,123.406789,41.909069
VR科技馆,辽宁,沈阳,沈阳,024,159****7167,兴隆大都汇,建设西路龙之梦大都汇三楼,景点,科技馆,123.344902,41.803963
沈阳胡古涌泉饮品有限公司,辽宁,沈阳,沈阳,024,,苏家屯区,绿柏街,景点,景点/周边游,123.453178,41.529369
大运通国旅,辽宁,沈阳,沈阳,024,,中街/故宫,正阳街212号,景点,旅行社,123.453574,41.794794
莲池海会,辽宁,沈阳,沈阳,024,,浑南区,103省道棋盘山风景区向阳寺内,景点,景点/周边游,123.650389,41.933553
安途旅游,辽宁,沈阳,沈阳,024,,吉祥市场,辽沈一街2号附近,景点,旅行社,123.474151,41.821761
沈阳国旅,辽宁,沈阳,沈阳,024,136****2055,文艺路/文化路,热闹路99号,景点,旅行社,123.456361,41.787791
盛世平安国际旅行社,辽宁,沈阳,沈阳,024,158****4048,大东区,南卡门路65号10门,景点,旅行社,123.482466,41.836336
人民作家马加馆,辽宁,沈阳,新民市,024,,新民市其他,南部新彰公路与304线交会口侧新民文化博览园内,景点,景点/周边游,122.778443,42.140441
沈阳青年国际旅行社,辽宁,沈阳,沈阳,024,159****3157,浑南新区,文源街嘉华新城B9,景点,旅行社,123.489505,41.732557
中国锡伯族博物馆,辽宁,沈阳,沈阳,024,67969888,道义,蒲北路23号,景点,博物馆,123.416898,41.936844
营销体验馆,辽宁,沈阳,沈阳,024,,太原街,太原街中山路新荣中心A座,景点,科技馆,123.401026,41.795006
善缘佛堂,辽宁,沈阳,沈阳,024,156****8666,东陵路/沈阳农业大学,新立堡路新居街2号5门,景点,景点/周边游,123.537435,41.812568
大鹅艺术,辽宁,沈阳,沈阳,024,182****6565,塔湾,昆山西路中海寰宇天下A区东门北行100米（海王星辰楼上）,景点,美术馆,123.379549,41.826137
消防文化广场,辽宁,沈阳,沈阳,024,,北站/市府,北站东二路与敬宾街交叉口东40米,景点,广场,123.446394,41.818996
七彩阶梯音乐工作室,辽宁,沈阳,沈阳,024,138****5186,浑南新区,北文萃路20甲,景点,景点/周边游,123.444827,41.765967
紫云宫妙法堂,辽宁,沈阳,沈阳,024,,和泰馨城,迎宾路高架152-8号附近,景点,宗教,123.294067,41.801253
游客服务中心,辽宁,沈阳,沈阳,024,,中街/故宫,北顺城路123号盛京龙城1层,景点,公园/广场,123.455767,41.804241
优游谷儿童乐园,辽宁,沈阳,沈阳,024,,虎石台,兴虎街富城时代,景点,游乐场,123.521688,41.950558
锡伯族文化广场,辽宁,沈阳,沈阳,024,,沈北新区,兴隆台街道锡伯大街兴隆台村,景点,公园/广场,123.358683,42.061455
缘商店,辽宁,沈阳,沈阳,024,,浑南区,103省道棋盘山风景区辉山内,景点,景点/周边游,123.653951,41.928011
宏伟殿,辽宁,沈阳,沈阳,024,,于洪广场,东湖街8-2111号附近,景点,人文古迹,123.313858,41.799988
北国国际旅行社,辽宁,沈阳,沈阳,024,,苏家屯区政府,劳动公园北门,景点,旅行社,123.350286,41.666321
谋殿,辽宁,沈阳,沈阳,024,139****9159,文艺路/文化路,大南街慈恩寺小区239-1号,景点,人文古迹,123.459598,41.783278
信基沙溪酒店用品博览城,辽宁,沈阳,沈阳,024,024-31419999,道义,道义北大街59-1号,景点,展览馆,123.395729,41.949333
大运通国际,辽宁,沈阳,沈阳,024,,新华广场,南京南街176号112室,景点,旅行社,123.392573,41.773665
甜程旅行网,辽宁,沈阳,沈阳,024,24355056,东中街,小东路6号大悦城A馆3楼A3D21室,景点,旅行社,123.466509,41.802449
天缘石,辽宁,沈阳,沈阳,024,182****5228,浑南区,103省道棋盘山风景区辉山天缘台内,景点,更多景点/周边游,123.653958,41.927533
鱼人游 精致小众境外旅行定制,辽宁,沈阳,沈阳,024,185****2320,浑南新区,浑南西路12号万象九宜城负一层,景点,旅行社,123.451653,41.737408
沈北嬉雪花灯节,辽宁,沈阳,沈阳,024,89731555,道义商圈,道义街道时空西街西侧（紧邻地铁2号线蒲田路出口站）,景点,主题乐园,123.406907,41.953877
长白早夜市,辽宁,沈阳,沈阳,024,,长白岛,长白中路与长白一街交汇处路口北侧（长白岛西）,景点,夜市,123.382226,41.736638
图兰朵综艺广场,辽宁,沈阳,沈阳,024,22815888,南市/马路湾,和平北大街69号总统大厦C座,景点,公园/广场,123.416129,41.793401
古镇夜市,辽宁,沈阳,沈阳,024,,黎明广场,滂江街22号,景点,夜市,123.48875,41.807084
深井子文化广场,辽宁,沈阳,沈阳,024,,浑南区,金紫街东200米,景点,公园/广场,123.65995,41.787228
思堡特乐园,辽宁,沈阳,沈阳,024,176****7182,财富广场,沈辽西路139号,景点,游乐场,123.232254,41.730365
西塔民族文化街,辽宁,沈阳,沈阳,024,,南市/马路湾,西塔街与市府大路交叉口东北70米,景点,步行街,123.41057,41.80501
辽宁康辉国际旅行社,辽宁,沈阳,沈阳,024,159****6683,道义,道义北大街53-71号人杰湖地铁口b口,景点,旅行社,123.396658,41.936918
辽宁省名特优新产品展,辽宁,沈阳,沈阳,024,,东陵路/沈阳农业大学,东陵路78号,景点,博物馆,123.550806,41.821166
启蒙园,辽宁,沈阳,沈阳,024,,世博园,浑南区浑南区双园路301号沈阳世博园国际展园内,景点,自然景观,123.653271,41.86819
沈北七星公园,辽宁,沈阳,沈阳,024,,道义,物华街与蒲鸣路交叉口北280米,景点,公园/广场,123.410405,41.943105
圣同润国旅,辽宁,沈阳,沈阳,024,,沈辽路万达,沈辽路兴华南街万达广场C组团北一门,景点,旅行社,123.35877,41.783644
PADl沈阳NEMO国际潜水俱乐部,辽宁,沈阳,沈阳,024,138****0215,南市/马路湾,十三纬路南六经街30-1号楼,景点,潜水,123.417295,41.783835
菊文酒屋,辽宁,沈阳,沈阳,024,,浑南区,秀湖环路与旅游路交叉口南460米,景点,更多景点/周边游,123.702681,41.949121
寿夫人卧室,辽宁,沈阳,沈阳,024,,中街/故宫,朝阳街少帅府巷46号张氏帅府小青楼内,景点,博物馆,123.458304,41.794365
大运通国旅,辽宁,沈阳,沈阳,024,136****2561,新城子,贵州路56-7号富宸小区楼下盛京银行斜对面,景点,旅行社,123.523972,42.050632
米卡·美术馆,辽宁,沈阳,沈阳,024,31333580,重工街沿线,重工北街65号-2网店北四路玖城乐府北门,景点,美术馆,123.331421,41.809751
永安国旅,辽宁,沈阳,沈阳,024,139****7602,沈辽路万达,万达广场公寓B座（沈辽路地铁站B口步行120米）,景点,旅行社,123.359155,41.780995
红木艺术馆,辽宁,沈阳,沈阳,024,186****2567,浑南新区,长青南街2号,景点,美术馆,123.494323,41.747533
都市农庄,辽宁,沈阳,沈阳,024,82516111,浑南新区,博览路k11购物中心四层,景点,展览馆,123.437698,41.7505
工巢文创园,辽宁,沈阳,沈阳,024,,沈辽路万达,沈辽东路56号,景点,创意园区,123.366674,41.782237
辽宁和平国际旅行社,辽宁,沈阳,沈阳,024,,铁西广场,建设中路25号-5门附近,景点,旅行社,123.365021,41.796261
沈阳国旅,辽宁,沈阳,沈阳,024,153****9489,重工街沿线,南十西路富强综合市场东南侧约230米,景点,旅行社,123.325648,41.794378
沈阳国际旅行社,辽宁,沈阳,沈阳,024,131****7576,重工街沿线,南七西路肇工三校东北侧约60米,景点,旅行社,123.333566,41.800536
沈阳欧亚菲温泉水世界,辽宁,沈阳,新民市,024,87625555,新民市其他,230国道张家屯镇大河泡村,景点,水上乐园,123.018347,41.817582
中国国旅,辽宁,沈阳,沈阳,024,,兴工街/沈阳站西广场,爱工北街24-1号2门,景点,旅行社,123.381701,41.794931
康辉旅游,辽宁,沈阳,沈阳,024,156****8888,新华广场,南京南街100号汉庭酒店一楼,景点,旅行社,123.394514,41.774724
中国旅行社,辽宁,沈阳,沈阳,024,,皇姑区,黄河街道长江街9号豪登酒店1楼,景点,旅行社,123.412868,41.819862
携程旅游,辽宁,沈阳,沈阳,024,189****3398,铁西广场,北四东路40-2号,景点,旅行社,123.377651,41.796651
大运通国旅,辽宁,沈阳,沈阳,024,,北站/市府,哈尔滨路168号金融中心购物广场B1层,景点,旅行社,123.435402,41.812157
携程旅游,辽宁,沈阳,沈阳,024,131****3978,五里河,青年大街123号嘉里城负1层B26室,景点,旅行社,123.436325,41.775848
盈科旅游,辽宁,沈阳,沈阳,024,156****5966,西塔/北市场,北六马路33号,景点,旅行社,123.413961,41.799581
金碧海湾温泉酒店,辽宁,沈阳,沈阳,024,,丁香湖,广业西路11号,景点,温泉,123.329305,41.837685
华信国旅,辽宁,沈阳,沈阳,024,31332228,皇姑区,华山路298-1号,景点,旅行社,123.395749,41.822059
沈阳国旅,辽宁,沈阳,沈阳,024,187****3162,皇姑区,岐山中路91号附近,景点,旅行社,123.401268,41.824338
天圣鑫佛恩堂,辽宁,沈阳,沈阳,024,131****1446,皇姑区,天山路17号,景点,景点/周边游,123.401618,41.813968
辽宁国际商务旅行社有限公司,辽宁,沈阳,沈阳,024,139****3592,皇姑区,珠江街与昆山中路交叉路口北侧（珠江小区）,景点,旅行社,123.406859,41.821213
沈阳老字号博物馆,辽宁,沈阳,沈阳,024,24857023,中街/故宫,沈阳路135号,景点,博物馆,123.454455,41.797539
中国道教斗母宫,辽宁,沈阳,沈阳,024,,北站/市府,太清宫街8-2号楼1楼,景点,人文古迹,123.446625,41.804065
玉屏旅游,辽宁,沈阳,沈阳,024,132****5735,北站/市府,市府大路375号KFC对面海馨龙宫一侧附近一楼,景点,旅行社,123.438622,41.804872
沈阳国际旅行社,辽宁,沈阳,沈阳,024,185****4897,黎明广场,滂江街22号龙之梦购物中心B1(滂江街地铁站G口旁),景点,旅行社,123.487808,41.806934
鹏博瑞翔旅行社,辽宁,沈阳,沈阳,024,,黎明广场,滂江街22号龙之梦购物中心F4层,景点,旅行社,123.486076,41.806271
中国国旅,辽宁,沈阳,沈阳,024,,北一路万达,北一中路1号万达广场B1,景点,旅行社,123.379356,41.813908
中国国旅辽宁国际旅行社,辽宁,沈阳,沈阳,024,135****6815,兴隆大都汇,建设西路2号龙之梦大都汇B1,景点,旅行社,123.345551,41.803864
沈阳青旅,辽宁,沈阳,沈阳,024,,浑南新区,营盘西街17号万达广场(奥体店)B1室,景点,旅行社,123.459473,41.735214
陆陆福,辽宁,沈阳,沈阳,024,,中街/故宫,中街路115号兴隆大家庭3层,景点,游乐场,123.455757,41.800808
沈阳国际旅行社,辽宁,沈阳,沈阳,024,,重工街沿线,沈辽西路27号兴隆大天地B1层,景点,旅行社,123.332138,41.777508
携程旅游,辽宁,沈阳,沈阳,024,133****6040,北二路,北二中路6号星摩尔F2层,景点,旅行社,123.376213,41.80899
绮霞园,辽宁,沈阳,沈阳,024,23452020,南市/马路湾,南三经街嘉隆大厦东南侧约110米,景点,公园/广场,123.427156,41.784946
禅净慧堂,辽宁,沈阳,沈阳,024,,皇姑区,雪山路沈厂舍宅小区,景点,宗教,123.404556,41.821786
万国屋水吧,辽宁,沈阳,沈阳,024,138****2047,太原街,太原南街,景点,步行街,123.39879,41.79051
Memory box 固态回忆纪念馆,辽宁,沈阳,沈阳,024,155****3926;186****5620,保工街,保工北街45-2号,景点,纪念馆,123.358398,41.80653
康辉旅游,辽宁,沈阳,沈阳,024,,浑南新区,五三街道浑南中路10-7号,景点,旅行社,123.489401,41.744961
保安寺便民亭,辽宁,沈阳,沈阳,024,,南湖公园/三好街,保安寺街中国医科大学附属盛京医院(南湖院区)西北侧,景点,景点/周边游,123.424684,41.773944
携程旅游说走就走,辽宁,沈阳,沈阳,024,130****8040,沈辽路万达,沈辽路万达西行200米,景点,旅行社,123.354138,41.780778
北一经街排毒排寒排湿,辽宁,沈阳,沈阳,024,,青年大街,北一经街与七纬路交叉口西南60米,景点,更多景点/周边游,123.430594,41.797754
大运通国旅,辽宁,沈阳,沈阳,024,,小白楼,天山路247号附近,景点,旅行社,123.388076,41.817006
辽宁金爱蓝天旅行社,辽宁,沈阳,沈阳,024,130****8333,苏家屯区政府,朝鲜族中心小学东北门东南50米,景点,旅行社,123.342529,41.666489
仙海岛海洋生活馆,辽宁,沈阳,沈阳,024,,吉祥市场,东北大马路106号,景点,动植物园,123.478019,41.819739
铁西森林公园,辽宁,沈阳,沈阳,024,,铁西区,重工北街64号,景点,森林公园,123.321182,41.807726
康辉旅游,辽宁,沈阳,沈阳,024,,辽宁大学南校区,长江街138-21号9门,景点,旅行社,123.410639,41.836149
鱼人游精致小众境外旅行定制,辽宁,沈阳,沈阳,024,185****2319,浑南新区,沈水湾街道K11购物艺术中心B1层,景点,旅行社,123.438248,41.750919
沈阳失恋博物馆,辽宁,沈阳,沈阳,024,187****7955,中街/故宫,朝阳街168号星汇广场3楼,景点,博物馆,123.459419,41.799725
长青湾公园,辽宁,沈阳,沈阳,024,,浑南新区,金地棕榈岛西北,景点,公园/广场,123.515713,41.757793
辽宁和平国际旅行社有限公司,辽宁,沈阳,沈阳,024,,长青街,长青街121号新生活广场3层334室,景点,旅行社,123.498657,41.751568
北汤国际温泉小镇营销中心,辽宁,沈阳,沈阳,024,83709999,龙江广场,北陵大街6号-1门（岐山路地铁站A口步行330米),景点,温泉,123.428777,41.819467
康平西关农业主题公园,辽宁,沈阳,康平县,024,139****1145,康平县其他,罗家屯村,景点,公园/广场,123.173235,42.542535
携程旅游,辽宁,沈阳,沈阳,024,158****5099,北站/市府,青年大街1号市府恒隆广场3层351铺位,景点,旅行社,123.43335,41.802132
牧天下国际旅行社,辽宁,沈阳,沈阳,024,,兴工北街,克俭小区,景点,旅行社,123.40127,41.810567
中国国旅,辽宁,沈阳,沈阳,024,150****8858,浑南区,浑南区银卡东路1-1号2门,景点,旅行社,123.662349,41.819647
首府科创园智慧城市产业馆,辽宁,沈阳,沈阳,024,,皇姑区,陵东街道鸭绿江北街77-1号,景点,展览馆,123.460632,41.863972
辽宁携程旅游,辽宁,沈阳,沈阳,024,131****9896,皇姑区,长江街6号,景点,旅行社,123.412778,41.820138
沈阳国旅,辽宁,沈阳,沈阳,024,,南市/马路湾,南五马路嘉兴街21号,景点,旅行社,123.409319,41.776399
马总花园早夜市,辽宁,沈阳,沈阳,024,23730411,长白岛,长白一街与马总兵北巷交叉口西北40米,景点,夜市,123.381717,41.737983
携程旅游,辽宁,沈阳,沈阳,024,150****6622,浑南新区,金卡路16号华润万家二楼,景点,旅行社,123.46582,41.737011
沈阳青旅,辽宁,沈阳,沈阳,024,,三台子,黄河北大街78号华润万家超市2楼,景点,旅行社,123.415767,41.867997
沈阳国旅,辽宁,沈阳,沈阳,024,31279941,沈辽路万达,云峰北街34-1号,景点,旅行社,123.377019,41.792449
体育公园,辽宁,沈阳,沈阳,024,,长白岛,沈水湾街道南堤西路501号,景点,城市公园,123.414177,41.74844
沈阳湿地科普馆,辽宁,沈阳,康平县,024,,康平县其他,滨湖一街与示范路交叉口南150米,景点,科技馆,123.329904,42.726702
大运通国旅,辽宁,沈阳,沈阳,024,,铁西广场,建设中路52号百家装饰入口,景点,旅行社,123.364623,41.796463
藏经楼,辽宁,沈阳,沈阳,024,,浑南区,103省道棋盘山风景区向阳寺内,景点,人文古迹,123.650776,41.933706
摩克顿夜市,辽宁,沈阳,沈阳,024,67867878,新市府,莫园环路建国公馆,景点,夜市,123.481701,41.671871
携程旅游,辽宁,沈阳,沈阳,024,158****9506,于洪广场,黄海路17号2-1-1室,景点,旅行社,123.313219,41.794138
沈阳逍遥游国际旅行社,辽宁,沈阳,沈阳,024,132****2616,龙江广场,嫩江街50号4号楼4号门市,景点,旅行社,123.425172,41.823162
新东二街,辽宁,沈阳,沈阳,024,,大东兴隆,,景点,观光街区,123.50966,41.810265
四海四平梨树开原,辽宁,沈阳,沈阳,024,,于洪区,广业西路丁香市场西南侧约240米,景点,更多景点/周边游,123.309048,41.840728
动感世界镜宫,辽宁,沈阳,沈阳,024,,南湖公园/三好街,望湖北路4巷南湖公园（西南角）,景点,游乐场,123.409245,41.768485
岔海挠城址,辽宁,沈阳,康平县,024,,康平县其他,303省道,景点,人文古迹,123.25882,42.755368
休闲广场,辽宁,沈阳,沈阳,024,,三台子,三台子街道陵北街1号沈飞航空博览园内,景点,公园/广场,123.433251,41.864444
携程旅游,辽宁,沈阳,沈阳,024,159****0607,鸭绿江街,崇山东路18号皇姑万象汇商场负一层,景点,旅行社,123.459023,41.835171
雀猛美术馆,辽宁,沈阳,沈阳,024,,龙江广场,宁山东路18号,景点,美术馆,123.438249,41.830989
美食公园,辽宁,沈阳,沈阳,024,176****9607,虎石台,荣信·财富广场40甲1门,景点,公园/广场,123.520582,41.939527
众磊水魔方水上运动基地,辽宁,沈阳,沈阳,024,,沈抚示范区,香堤路199号,景点,水上项目/水上体验,123.637446,41.832276
日神广场,辽宁,沈阳,沈阳,024,,正良,济学路与毓秀路交叉口西80米,景点,公园/广场,123.414236,41.916986
海外国际旅行社,辽宁,沈阳,沈阳,024,,浑南新区,沈营大街587号上亿广场F1层,景点,旅行社,123.423332,41.691986
秋池汤泉,辽宁,沈阳,沈阳,024,83700077,新华广场,长兴街2号（肯德基旁）,景点,温泉,123.412471,41.776191
基督教会,辽宁,沈阳,沈阳,024,,兴隆大都汇,北四中路23号-3门,景点,景点/周边游,123.351601,41.806679
食字街口,辽宁,沈阳,沈阳,024,,大悦城,小东路大悦城旁,景点,夜市,123.468288,41.80239
辽牙军旅文化体验园,辽宁,沈阳,沈阳,024,31325656,苏家屯区,康宁营路3-45号,景点,主题公园,123.680866,41.560396
携程旅游,辽宁,沈阳,沈阳,024,88613638;88610192,中街/故宫,北顺城路11号,景点,旅行社,123.449301,41.805655
白鹈鹕,辽宁,沈阳,沈阳,024,,浑南区,秀湖南路沈阳森林动物园内,景点,动物园,123.683864,41.931524
大运通国旅,辽宁,沈阳,沈阳,024,83777997;186****0202,新华广场,南八马路137号正北方向78米,景点,旅行社,123.402061,41.778201
新民文化博览园复兴之路图片展,辽宁,沈阳,新民市,024,,新民市其他,南部新彰公路与304线交会口侧,景点,人文古迹,122.778707,42.140877
禾牧农业文创产业园,辽宁,沈阳,沈阳,024,,于洪区,沈胡路与旺港大街交叉路口往北约150米,景点,创意园区,123.245127,41.826844
鲨鱼飞翔,辽宁,沈阳,沈阳,024,,南湖公园/三好街,南湖街道南湖公园游乐场,景点,游乐场,123.410497,41.769295
沈阳财湖旅游度假区,辽宁,沈阳,法库县,024,,法库县其他,十间房镇李贝堡村,景点,自然风光,123.35919,42.400201
青玄宫,辽宁,沈阳,沈阳,024,130****4686,于洪广场,洪湖街21-2号5门附近,景点,人文古迹,123.311874,41.797024
大雄宝殿,辽宁,沈阳,沈阳,024,,望花区,王滨乡中华寺村中华寺景区内,景点,人文古迹,123.787376,41.766193
永安国旅,辽宁,沈阳,法库县,024,,幸福花园,湖畔北路与兴法路交叉口东南方向40米,景点,旅行社,123.427341,42.503931
薰衣草园,辽宁,沈阳,沈阳,024,,重工街沿线,重工北街50甲20号附近,景点,更多景点/周边游,123.33224,41.824566
浑河滨水慢道,辽宁,沈阳,沈阳,024,,沈阳建筑大学,深井子街道浑南西路10甲-3号,景点,观光街区,123.499553,41.75461
怒江夜市,辽宁,沈阳,沈阳,024,155****8384,怒江北街,西江街22号,景点,夜市,123.389091,41.843801
