名称,省份,真实城市,市县区,区号,电话,区域,地址,大分类,小分类,经度,纬度
郑州博物馆,河南,郑州,郑州,0371,67714993;67438090-8026,碧沙岗,林山寨街道嵩山南路168号（近绿城广场）,景点,博物馆,113.627411,34.745296
河南博物院,河南,郑州,郑州,0371,63511237;63511239,国贸360,农业路8号,景点,博物馆,113.672096,34.78822
河南省科学技术馆,河南,郑州,郑州,0371,65700365;65702211,国贸360,花园路53号,景点,科技馆,113.681234,34.781918
黄河博物馆,河南,郑州,郑州,0371,69556704;69556715,北大学城,花园北路与迎宾路交叉口,景点,博物馆,113.677808,34.871773
郑国车马坑遗址博物馆,河南,郑州,新郑市,0371,62672189;62680689,新郑市其他,文化路1号,景点,博物馆,113.736731,34.384159
郑州科学技术馆,河南,郑州,郑州,0371,67970900;67187043,碧沙岗,嵩山南路32号,景点,科技馆,113.627164,34.745882
郑州市动物园,河南,郑州,郑州,0371,65738095,国贸360,文化路街道花园路103号（关虎屯地铁站A口步行120米）,景点,动物园,113.684955,34.789288
碧沙岗公园,河南,郑州,郑州,0371,67882871,碧沙岗,嵩山北路与建设东路交叉口东南角,景点,城市公园,113.630452,34.751449
郑州市人民公园,河南,郑州,郑州,0371,66222219,火车站/二七广场,北二七路97号,景点,城市公园,113.662968,34.761399
铝城公园,河南,郑州,上街区,0371,68923592,上街区,济源路59号,景点,城市公园,113.298755,34.812138
五一公园,河南,郑州,郑州,0371,66687406,碧沙岗,文化宫路68号,景点,城市公园,113.617935,34.753647
紫荆山公园,河南,郑州,郑州,0371,65953180,人民路/紫荆山,金水路108号,景点,城市公园,113.687709,34.761936
大河村遗址博物馆,河南,郑州,郑州,0371,53306575;65692110,国家森林公园/北龙湖,中州大道与连霍高速交叉口东南800米,景点,古代遗迹,113.700026,34.84268
官渡古战场,河南,郑州,中牟县,0371,,中牟县其他,城官渡桥村,景点,更多景点/周边游,114.047762,34.733035
黄帝宫,河南,郑州,新密市,0371,63111097,新密市其他,刘寨镇银基轩辕圣境旅游文化度假区,景点,历史建筑,113.540213,34.47983
黄河文化公园,河南,郑州,郑州,0371,68222228,黄河游览区,江山路黄河南岸1号,景点,自然风光,113.512813,34.953381
裴李岗遗址,河南,郑州,新郑市,0371,,新郑市其他,城西北约8公里裴李岗村西,景点,古代遗迹,113.656638,34.436398
商城遗址,河南,郑州,郑州,0371,66324705,人民路/紫荆山,商城路4号,景点,古代遗迹,113.687145,34.751512
少林寺景区,河南,郑州,登封市,0371,62745599;62745000,少林寺风景区,207国道旁,景点,宗教,112.949076,34.486349
嵩山风景名胜区,河南,郑州,登封市,0371,62745000;62745599,登封市其他,环山旅游公路与少室路交叉口,景点,自然风光,113.045751,34.490865
升达艺术馆,河南,郑州,郑州,0371,66349138,人民路/紫荆山,城东路113号,景点,美术馆,113.690687,34.759396
二七纪念塔,河南,郑州,郑州,0371,66966713;66959799,火车站/二七广场,二七路230号二七广场（二七广场地铁站D口步行60米）,景点,纪念馆,113.666496,34.75219
郑州海洋馆,河南,郑州,郑州,0371,63567402;63567403,陈砦,国基路86号,景点,海洋馆,113.658014,34.820058
东风渠滨河公园,河南,郑州,郑州,0371,,省电视台,东风路与花园路交叉口,景点,城市公园,113.689842,34.795956
绿荫公园,河南,郑州,郑州,0371,,东风路,东风路西段,景点,城市公园,113.642937,34.800697
禅宗少林音乐大典,河南,郑州,登封市,0371,62809111;62809222,登封市其他,207国道待仙沟景区内（距少林寺7公里、三皇寨10公里）,景点,旅游项目/观光项目,112.974823,34.478179
CBD广场,河南,郑州,郑州,0371,,郑东新区CBD,商务内环路中央公园1号国际商务会展中心,景点,广场,113.728668,34.769627
城隍庙,河南,郑州,郑州,0371,66341775,人民路/紫荆山,商城路4号,景点,宗教,113.686976,34.752046
康百万庄园,河南,郑州,巩义市,0371,64322766;64324004,巩义市其他,康店镇庄园路59号,景点,历史建筑,112.950813,34.762943
白沙水库,河南,郑州,登封市,0371,,登封市其他,044县道与237省道交叉口东北500米,景点,现代建筑,113.249288,34.345662
月季公园,河南,郑州,郑州,0371,,月季公园,西站路80号,景点,动植物园,113.629316,34.766924
河南康辉国际旅行社,河南,郑州,郑州,0371,189****0537,国贸360,文化路街道农业路与政七街交叉口省会中心A座12A02（近政七街）,景点,旅行社,113.688343,34.786834
长江国际旅行社,河南,郑州,郑州,0371,155****3936,升龙广场,大学路升龙国际B5-1-2701（中原东路口南侧）,景点,旅行社,113.642998,34.726335
左照公园,河南,郑州,上街区,0371,,铝城公园,淮阳路与许昌路交叉口向南500米,景点,城市公园,113.312448,34.801335
大象陶瓷博物馆,河南,郑州,郑州,0371,138****0628,人民路/紫荆山,顺河路36号,景点,博物馆,113.689345,34.76019
登封历史博物馆,河南,郑州,登封市,0371,,百货大楼/中天广场,西关街,景点,博物馆,113.032514,34.458105
浮戏山雪花洞风景名胜区,河南,郑州,巩义市,0371,64184187;64184999,巩义市其他,口五路西100米,景点,自然风光,113.170124,34.659769
河南自然博物馆,河南,郑州,郑州,0371,68108999,郑东新区CBD,金水东路18号,景点,博物馆,113.751955,34.765577
河南省美术馆,河南,郑州,郑州,0371,69166692,郑东新区CBD,如意湖街道商务内环路CBD1号,景点,美术馆,113.724602,34.769979
夹津口镇森林公园,河南,郑州,巩义市,0371,,巩义市其他,巩登路,景点,森林公园,113.006531,34.527801
凌秀公园,河南,郑州,郑州,0371,,橄榄城,长江路（近连云路）,景点,城市公园,113.672325,34.708321
绿城公园,河南,郑州,郑州,0371,,帝湖,郑州化工物流园斜对面,景点,公园/广场,113.606522,34.716564
汽车公园,河南,郑州,郑州,0371,65646819,经三路沿线,中州大道与北环路交叉口东北,景点,公园/广场,113.705577,34.814898
任长霞纪念馆,河南,郑州,登封市,0371,62862618,百货大楼/中天广场,观石街7号,景点,博物馆,113.040616,34.46489
嵩岳公园,河南,郑州,郑州,0371,,长江中路沿线,郑密路（中原百姓广场西北70米）,景点,城市公园,113.627274,34.704372
万山森林公园生态保护区,河南,郑州,荥阳市,0371,,荥阳市其他,232省道,景点,自然风光,113.327191,34.700911
樱桃沟景区,河南,郑州,郑州,0371,61773855;68596677,二七区,侯寨街道樱花路,景点,自然风光,113.595404,34.612518
永泰寺,河南,郑州,登封市,0371,62749087,登封市其他,207国道与巩登路交汇处北600米路东,景点,宗教,112.979242,34.519906
原日本驻郑州领事馆旧址,河南,郑州,郑州,0371,,火车站/二七广场,东三马路80号,景点,历史建筑,113.667717,34.742821
健康路夜市,河南,郑州,郑州,0371,,大石桥/体育场,黄河路93号院-1号楼,景点,夜市,113.66423,34.77411
郑州绿化博览园,河南,郑州,中牟县,0371,69682333;69682288,人民医院,郑汴物流通道与人文路交叉口西南角,景点,植物园,113.934558,34.752929
锦江旅行社,河南,郑州,巩义市,0371,64370000,星月时代广场,新兴路,景点,旅行社,112.984569,34.755058
净馨公园,河南,郑州,郑州,0371,,长途客运总站,碧云路与华中路交口西120米,景点,城市公园,113.663887,34.717049
郑州植物园,河南,郑州,郑州,0371,67888933,马寨镇,莲湖街道四环路与陇海西路交叉口东北角,景点,植物园,113.536609,34.735112
中原福塔,河南,郑州,郑州,0371,60609199,经开区,明湖街道航海东路1206号,景点,现代建筑,113.728702,34.723293
嵩阳公园,河南,郑州,登封市,0371,62874842,嵩阳公园,嵩阳路与大禹路交叉口,景点,城市公园,113.033622,34.47093
刘禹锡公园,河南,郑州,荥阳市,0371,,荥阳植物园,京城路与新310国道交叉口东南角,景点,纪念公园,113.415629,34.770144
河南康辉国际旅行社,河南,郑州,郑州,0371,155****5572,新世界百货,紫荆山路与东里路交叉口（招商银行）人民银行家属院2号楼1601室（近城北路）,景点,旅行社,113.681393,34.757924
金辉国际旅行社,河南,郑州,郑州,0371,132****0986,建文新世界,文化路黄河路交叉口东50米路北中孚大厦4楼K座（文化路东侧）,景点,旅行社,113.668509,34.774799
古树苑,河南,郑州,郑州,0371,,惠济区,新城街道开元路与天河路交叉口向北300米,景点,自然风光,113.614164,34.86809
小楼清真寺,河南,郑州,郑州,0371,,火车站/二七广场,解放路与民主路交叉口28号,景点,宗教,113.663414,34.753197
职工国际旅行社,河南,郑州,郑州,0371,136****5288,新世界百货,紫荆山路1号紫荆山商务1001（紫荆山地铁站D口旁）,景点,旅行社,113.681592,34.762752
太和国际旅行社,河南,郑州,郑州,0371,182****4967,新世界百货,紫荆山路东里路口紫金城12楼1206室,景点,旅行社,113.681501,34.757941
中心广场,河南,郑州,郑州,0371,,工大新校区,银屏路与银杏路交叉口西100米,景点,广场,113.558769,34.820572
新世纪广场,河南,郑州,中牟县,0371,159****2395;135****9178,新世纪广场,西环城路与青年西路交叉口南150米,景点,公园/广场,114.010677,34.724366
荥阳植物园,河南,郑州,荥阳市,0371,64931777,荥阳植物园,京城路街道京城路31号,景点,植物园,113.406266,34.770735
大海寺,河南,郑州,荥阳市,0371,,荥阳植物园,京城路,景点,宗教,113.410534,34.767575
三角公园,河南,郑州,郑州,0371,,火车站/二七广场,紫荆山路（近金城街）,景点,公园/广场,113.681374,34.728088
象棋公园,河南,郑州,荥阳市,0371,,荥阳植物园,京城路街道京城路27号,景点,城市公园,113.411692,34.770496
花园口旅游区,河南,郑州,郑州,0371,,黄河游览区,防汛拥军路与黄古线交叉口西北50米,景点,景点/周边游,113.67572,34.903561
成功广场,河南,郑州,荥阳市,0371,,荥阳植物园,京城南路31号,景点,广场,113.414905,34.772195
巩义博物馆,河南,郑州,巩义市,0371,66551416,宋陵公园,杜甫路街道杜甫路82号,景点,博物馆,112.988383,34.740117
中州国际旅行社,河南,郑州,郑州,0371,155****7972,儿童公园/凯旋门,桐柏路与陇海路交叉口凯旋门大厦A座1901室（近陇海路）,景点,旅行社,113.612601,34.735139
汉霸二王城,河南,郑州,荥阳市,0371,4009933990,荥阳市其他,广武镇东北广武山上,景点,历史建筑,113.453396,34.956626
河南杜甫故里,河南,郑州,巩义市,0371,56905566;56905601,巩义市其他,站街镇南瑶湾村,景点,名人故居,113.063304,34.794803
纪公庙,河南,郑州,郑州,0371,63591024,黄河游览区,314省道西150米,景点,宗教,113.530716,34.865726
二七广场,河南,郑州,郑州,0371,,火车站/二七广场,西大街21号,景点,广场,113.666369,34.751826
卢崖瀑布,河南,郑州,登封市,0371,62870768,登封市其他,嵩山国家风景名胜区中岳景区内,景点,自然风光,113.080986,34.479774
新郑博物馆,河南,郑州,新郑市,0371,62698808,轩辕故里,轩辕路西228号,景点,博物馆,113.722428,34.400158
虎牢关,河南,郑州,荥阳市,0371,64896976,荥阳市其他,汜水镇,景点,古代遗迹,113.205467,34.848767
金水河滨河公园,河南,郑州,郑州,0371,,宝龙城市广场/熙地港,东风东路与地秀街交叉口西北约160米,景点,城市公园,113.727409,34.790081
黄河国家湿地公园,河南,郑州,郑州,0371,56700258,黄河游览区,黄河大堤,景点,城市公园,113.653943,34.908049
郑州方特欢乐世界,河南,郑州,中牟县,0371,56928000;4001660006,刘集镇,刘集镇郑东新区人文路与郑汴物流通道交叉口西北300米,景点,主题乐园,113.929944,34.765897
尖岗水库,河南,郑州,郑州,0371,,二七区,侯寨街道凤鸣北路,景点,现代建筑,113.578491,34.670719
文博森林园,河南,郑州,郑州,0371,,二七区,侯寨街道郑密公路（近绕城高速）,景点,森林公园,113.567504,34.665694
郑州中梁旅行社有限公司,河南,郑州,上街区,0371,68110593,铝城公园,许昌路中段交警队对面,景点,旅行社,113.297668,34.802138
风国际旅行社,河南,郑州,郑州,0371,135****8267,金水路/省政府,政二街6-4号,景点,旅行社,113.684706,34.764988
中州国际旅行社,河南,郑州,郑州,0371,56605253,富田太阳城,富田太阳城大商超市北门东方美食街52号楼11层050室,景点,旅行社,113.712733,34.721363
香堤湾亲子温泉度假区,河南,郑州,荥阳市,0371,88553333;88556666,奥帕拉拉水公园,泽众路与桃贾路交叉口北500米路西,景点,温泉,113.451049,34.7568
郑风苑,河南,郑州,新郑市,0371,62677019,西亚斯大学,玉前路391号,景点,城市公园,113.761138,34.390214
康辉国际旅行社,河南,郑州,郑州,0371,88885105,二七万达,大学路政通路交叉口向西300米升龙世纪花园一区603室（政通路西侧）,景点,旅行社,113.637929,34.726073
重阳观,河南,郑州,上街区,0371,,上街区,310国道,景点,宗教,113.266072,34.782246
丰源旅行社,河南,郑州,郑州,0371,158****2219,西大街,紫荆山路与东大街交叉口东南角,景点,旅行社,113.682563,34.748064
丰源旅行社,河南,郑州,郑州,0371,158****2219,东风路,东风路轻工业学院向东100米,景点,旅行社,113.655597,34.799395
中岳景区,河南,郑州,登封市,0371,62850819;62745000,登封市其他,少林大道嵩山风景名胜区内,景点,自然风光,113.069065,34.484547
竹林长寿山景区,河南,郑州,巩义市,0371,64461789,巩义市其他,012乡道长寿山景区游客服务中心,景点,自然风光,113.124218,34.682265
凤凰山,河南,郑州,新密市,0371,69229110,新密市其他,伏羲山风景区管理委员会尖山下寺沟村,景点,自然风光,113.228258,34.586553
九里山,河南,郑州,新密市,0371,69245333,新密市其他,超化镇草庙村,景点,自然风光,113.391838,34.381044
古柏渡飞黄旅游区,河南,郑州,荥阳市,0371,86572222;86571111,荥阳市其他,王村镇樱花大道,景点,更多景点/周边游,113.230735,34.880755
旅游百事通,河南,郑州,郑州,0371,53753238,陈砦,丰庆路国基路向北500米右拐联购超市负一楼,景点,旅行社,113.650803,34.825014
郑州大学体育学院-校史馆,河南,郑州,郑州,0371,63631500,省体中心/裕华广场,银河路2号体育中心南区,景点,博物馆,113.62847,34.82712
惠济关帝庙,河南,郑州,郑州,0371,,黄河游览区,黄河大堤路,景点,宗教,113.596451,34.902088
大河广场,河南,郑州,郑州,0371,,惠济区,开元路8号,景点,广场,113.616815,34.866529
东岳天齐庙,河南,郑州,郑州,0371,,北大学城,花园口立交与大河路交叉口南160米,景点,宗教,113.678893,34.878669
颧雀楼,河南,郑州,郑州,0371,,黄河游览区,思念·果岭国际社区（沿黄快速通道）,景点,历史建筑,113.515442,34.910976
红光寺,河南,郑州,郑州,0371,,黄河游览区,大河路,景点,宗教,113.517075,34.870895
春之旅旅行社,河南,郑州,上街区,0371,138****7058,铝城公园,中心路118号,景点,旅行社,113.298065,34.806185
华中旅行社,河南,郑州,上街区,0371,68115665,上街区,新安路3-12号,景点,旅行社,113.302825,34.813245
清真女寺,河南,郑州,郑州,0371,,新世界百货,清真寺街130号,景点,景点/周边游,113.678513,34.754932
列子故里,河南,郑州,郑州,0371,,郑东新区,列子大街,景点,古村古镇,113.826057,34.740223
商陶花海,河南,郑州,郑州,0371,,康桥商务广场,城东路226号,景点,植物园,113.690677,34.744187
中国旅行社,河南,郑州,郑州,0371,155****1950,西大街,紫荆山路紫燕华庭,景点,旅行社,113.682434,34.749554
委公园,河南,郑州,郑州,0371,,西大街,管城街48号（西大街地铁站D口步行480米）,景点,城市公园,113.676903,34.753414
军旅旅行社有限公司,河南,郑州,郑州,0371,,西大街,西大街198号瑞贝卡酒店公寓1115,景点,旅行社,113.675525,34.749875
康辉旅行社,河南,郑州,郑州,0371,68263977;68263059,人民路/紫荆山,城东路94号(商城路和城东路交叉口)华亿大厦1楼,景点,旅行社,113.691772,34.751497
书院游园,河南,郑州,郑州,0371,,西大街,书院街5号院,景点,公园/广场,113.682579,34.745621
康辉旅行社,河南,郑州,郑州,0371,63863611,康桥商务广场,郑汴路39号康桥商务广场写字楼5楼506室,景点,旅行社,113.695715,34.746623
逸心公园,河南,郑州,郑州,0371,,富田太阳城,港湾路南50米,景点,城市公园,113.705528,34.715828
海外国际旅行社有限公司,河南,郑州,郑州,0371,65786320,康桥商务广场,郑汴路39号康桥商务612号,景点,旅行社,113.694664,34.746609
五州健康公园,河南,郑州,郑州,0371,,汽车东站,中周路与永平路交叉口东北,景点,城市公园,113.750626,34.741585
青龙山魏长城遗址,河南,郑州,郑州,0371,,经开区,东三环高架与陇海快速路出口交叉口西南100米,景点,古代遗迹,113.784406,34.733456
河南中青国际旅行社,河南,郑州,郑州,0371,53309701,康桥商务广场,康桥花园(北门内右手边)16号楼一楼,景点,旅行社,113.694679,34.746597
河南旅游集团,河南,郑州,郑州,0371,65941009,金水路/省政府,金水路2号丽晶大厦,景点,旅行社,113.694796,34.764355
紫薇园,河南,郑州,郑州,0371,,曼哈顿广场/英协路,商城东路与玉凤路交汇处东南角,景点,公园/广场,113.71251,34.752111
经纬广场,河南,郑州,郑州,0371,65951659,金水路/省政府,花园路街道纬四路20-1号,景点,广场,113.696396,34.76815
夕阳红旅行社,河南,郑州,郑州,0371,65909994;65925527,金水路/省政府,政三街5号石化大厦10层1001室,景点,旅行社,113.683394,34.765315
郑州美好国旅,河南,郑州,郑州,0371,187****0322,大石桥/体育场,文化路112号文化嘉园10楼1001D室（任寨北街口）,景点,旅行社,113.666499,34.771027
友谊旅行社有限公司,河南,郑州,郑州,0371,,火车站/二七广场,二七路与西里路交叉路口西北侧,景点,旅行社,113.666642,34.761062
长城旅行社,河南,郑州,郑州,0371,65991708,人民路/紫荆山,人民路街道紫荆山路1号紫荆山商务,景点,旅行社,113.681628,34.762766
马庄清真寺,河南,郑州,郑州,0371,,东建材,百福街与商鼎路交叉路口往东南约50米,景点,宗教,113.737297,34.754211
红白花公园,河南,郑州,郑州,0371,,郑东新区CBD,商务内环路与众意西路交叉口东侧,景点,城市公园,113.722778,34.773834
青少年科技中心,河南,郑州,郑州,0371,63385119,国贸360,政七街13号,景点,科技馆,113.687823,34.782402
中国旅行社总社河南有限公司,河南,郑州,郑州,0371,65598609;66938182,曼哈顿广场/英协路,纬五路49号院10号,景点,旅行社,113.697829,34.771725
文化公园,河南,郑州,郑州,0371,,正弘中心,文化路与文劳路交叉口向南90米路东,景点,文化公园,113.668098,34.804192
东风旅行社有限公司,河南,郑州,郑州,0371,,建文新世界,任寨北街6号云鹤大厦302室,景点,旅行社,113.669529,34.770617
金水清真寺,河南,郑州,郑州,0371,,柳林刘庄,魏河南路附近,景点,宗教,113.682182,34.837788
郑州大观音寺,河南,郑州,郑州,0371,150****2291,柳林刘庄,国基路与渠东路交叉口北100米路东,景点,宗教,113.666321,34.822346
豪门温泉酒店,河南,郑州,郑州,0371,60129933,东建材,十里铺街与永平路交叉口向西50米,景点,温泉,113.729895,34.737761
中国旅行社,河南,郑州,郑州,0371,,东建材,祭城路街道祥盛街soho新干线C座109室,景点,旅行社,113.743805,34.761124
轩辕堂,河南,郑州,郑州,0371,,郑东新区CBD,会展中心地铁站E2口步行310米,景点,景点/周边游,113.728867,34.7696
河南印象旅行社有限公司,河南,郑州,郑州,0371,,金水路/省政府,黄河路132号天一大厦B座19层1905号,景点,旅行社,113.704545,34.774195
河南大学校友书画院,河南,郑州,郑州,0371,,丰业广场/千盛广场,天明路4号院,景点,美术馆,113.654938,34.781238
郑东新区湿地公园,河南,郑州,郑州,0371,,郑东新区CBD,商务外环路（中央商务区地铁站G1口步行150米）,景点,城市公园,113.727767,34.778134
土地庙,河南,郑州,郑州,0371,,高新区,中原西路（阳光花苑西）,景点,宗教,113.571347,34.744233
牛砦清真寺,河南,郑州,郑州,0371,,冉屯路/五龙口,桐柏路街道桐柏北路89号,景点,宗教,113.616089,34.766155
河南省山水地质旅行社有限公司,河南,郑州,郑州,0371,67722927,碧沙岗,互助路21号,景点,旅行社,113.61697,34.750141
中原清真寺,河南,郑州,郑州,0371,,马寨镇,富民路,景点,宗教,113.547676,34.712013
石佛清真寺,河南,郑州,郑州,0371,138****4130,科学大道,科学大道62号,景点,宗教,113.578812,34.810478
五星广场,河南,郑州,郑州,0371,,科学大道,科学大道100号（郑州大学地铁站C口步行490米）,景点,广场,113.535599,34.80904
西十里铺清真寺,河南,郑州,郑州,0371,67529016,月季公园,桐柏路西十里铺交汇处,景点,宗教,113.622414,34.768749
莲花公园,河南,郑州,郑州,0371,,瑞达路沿线,莲花街与迎春街交叉口东北150米,景点,城市公园,113.568367,34.819897
科学公园,河南,郑州,郑州,0371,,科学大道,科学大道与檀香路交叉口,景点,城市公园,113.531235,34.806301
中岳书画院,河南,郑州,郑州,0371,,长城康桥华城,陇海路62号,景点,展览馆,113.633763,34.736093
旅游百事通,河南,郑州,郑州,0371,68591919,二七区,侯张线裕隆南都水岸东北侧约40米,景点,旅行社,113.590896,34.667846
嵩河山庄观光园,河南,郑州,郑州,0371,,二七区,G3001郑州绕城高速,景点,景点/周边游,113.527568,34.663425
花园街清真寺,河南,郑州,郑州,0371,,火车站/二七广场,德化街78号,景点,宗教,113.666045,34.749743
武英里清真寺,河南,郑州,郑州,0371,,长途客运总站,航海路与碧云路交叉口航海中路21号,景点,宗教,113.667046,34.720177
二七区文化艺术广场,河南,郑州,郑州,0371,,升龙广场,交通路8号,景点,广场,113.647652,34.730415
农博园,河南,郑州,郑州,0371,68593277,二七区,侯寨尖岗村,景点,植物园,113.58212,34.68552
郑州烈士陵园,河南,郑州,郑州,0371,68953720,二七区,丹青路11号,景点,烈士陵园,113.623235,34.705798
滨河公园,河南,郑州,郑州,0371,,长城康桥华城,兴华北街8号,景点,公园/广场,113.635628,34.74329
涵秀园,河南,郑州,郑州,0371,,郑铁体育中心,小赵寨街2号,景点,城市公园,113.659134,34.735355
康辉国际旅行社,河南,郑州,郑州,0371,67663359;182****5524,医学院,大学路与中原东路交叉口交通大夏,景点,旅行社,113.645614,34.747123
五云山山地生态公园,河南,郑州,上街区,0371,,上街区,中原西路五云山大道166号,景点,公园/广场,113.288572,34.734997
火神庙,河南,郑州,荥阳市,0371,,荥阳市其他,314省道,景点,宗教,113.453438,34.894257
基督教会李福音堂,河南,郑州,荥阳市,0371,,建业购物广场,站南东路,景点,宗教,113.395311,34.797298
魏岗村文化广场,河南,郑州,上街区,0371,,上街区,011县道北100米,景点,公园/广场,113.284567,34.772439
宝塔寺,河南,郑州,荥阳市,0371,,建业购物广场,工业路与站南东路交叉口西北50米,景点,宗教,113.405308,34.796768
老君堂文化广场,河南,郑州,荥阳市,0371,,荥阳市其他,汜水镇田门村附近,景点,公园/广场,113.219372,34.82914
李商隐公园,河南,郑州,荥阳市,0371,,奥帕拉拉水公园,中原西路与商隐路交汇处北500米路东,景点,纪念公园,113.448311,34.754836
大悲寺,河南,郑州,荥阳市,0371,,荥阳市其他,314省道北100米,景点,宗教,113.253174,34.87498
神母祠,河南,郑州,荥阳市,0371,,荥阳市其他,040县道西50米,景点,宗教,113.257738,34.635428
兴国寺,河南,郑州,荥阳市,0371,135****2112,荥阳市其他,中原路与桃贾路交叉口南1.5公里兴国寺村,景点,宗教,113.463214,34.735896
洞林湖,河南,郑州,荥阳市,0371,,荥阳市其他,贾峪镇新田大道,景点,自然风光,113.484781,34.671792
二郎庙,河南,郑州,荥阳市,0371,,荥阳市其他,刘河镇龙溪路东100米,景点,宗教,113.237894,34.630114
贺寨村群众文化活动广场,河南,郑州,荥阳市,0371,,荥阳市其他,X032（桃贾路）,景点,公园/广场,113.450421,34.823261
荥阳莲花寺,河南,郑州,荥阳市,0371,,荥阳市其他,辘轳沟附近,景点,宗教,113.361621,34.670635
同心路清真寺,河南,郑州,荥阳市,0371,,荥阳市其他,金寨村799号,景点,宗教,113.349028,34.823961
武庄文化广场,河南,郑州,上街区,0371,,上街区,安阳路二期1号楼,景点,广场,113.271264,34.832835
荥阳关帝庙,河南,郑州,荥阳市,0371,,荥阳市其他,关帝庙,景点,宗教,113.31401,34.851203
新田大道清真寺,河南,郑州,荥阳市,0371,,马寨镇,新田大道,景点,宗教,113.502586,34.716388
荥阳基督教堂,河南,郑州,荥阳市,0371,,建业购物广场,汜河路隆兴·御景阁西侧约100米,景点,宗教,113.412228,34.792709
广武路带状公园,河南,郑州,荥阳市,0371,,建业购物广场,广武路,景点,城市公园,113.399801,34.780532
木楼文化广场,河南,郑州,荥阳市,0371,,荥阳市其他,S314荥阳市王村镇第二小学南侧约190米,景点,公园/广场,113.309768,34.886798
郊段文化广场,河南,郑州,上街区,0371,,上街区,郊段路与金屏路交叉口东南300米,景点,公园/广场,113.309193,34.78841
楚河汉界古战场风景区,河南,郑州,荥阳市,0371,,荥阳市其他,天伦大道,景点,古代遗迹,113.472315,34.949602
宝翔广场,河南,郑州,荥阳市,0371,,海龙时代广场,索河路与荥泽大道交叉口西北150米,景点,广场,113.428116,34.787804
刘禹锡墓,河南,郑州,荥阳市,0371,,荥阳植物园,郑上路与310国道交叉口西南150米,景点,古代遗迹,113.417758,34.771488
中州桃花源风景名胜区,河南,郑州,新密市,0371,,新密市其他,西北部助泉寺村,景点,自然风光,113.205917,34.555757
金海岸旅行社,河南,郑州,新密市,0371,69816777;69825333,青屏广场,长乐路中强国际桂名园,景点,旅行社,113.365701,34.535912
神仙洞景区,河南,郑州,新密市,0371,69225888,新密市其他,尖山风景区成泉路040号县,景点,自然风光,113.282855,34.621066
密县县衙,河南,郑州,新密市,0371,69891989,新密市其他,城关镇衙门西街新密一高东侧,景点,历史建筑,113.368045,34.514609
天爷庙,河南,郑州,新密市,0371,,新密市其他,大隗镇029县道,景点,宗教,113.469231,34.439483
真金广场,河南,郑州,新密市,0371,,新密市其他,周甘路与顺火路交叉口西50米,景点,公园/广场,113.425986,34.465936
牛店广场,河南,郑州,新密市,0371,,新密市其他,二初中东北侧,景点,广场,113.265964,34.506424
羲皇公园,河南,郑州,新密市,0371,,新密市其他,030县道,景点,城市公园,113.462547,34.479645
清真寺,河南,郑州,新密市,0371,,新密市其他,017乡道北50米,景点,宗教,113.508189,34.45456
申氏宗祠,河南,郑州,新密市,0371,,新密市其他,004乡道附近,景点,宗教,113.494592,34.645006
葛沟村文化广场,河南,郑州,新密市,0371,,新密市其他,323省道东150米,景点,公园/广场,113.326149,34.446682
心之旅旅行社,河南,郑州,新密市,0371,69815323;150****1855,新密市政府,东大街与农业路交叉口天都商场三楼,景点,旅行社,113.387321,34.536648
李湾游览区,河南,郑州,新密市,0371,,新密市其他,316省道南100米,景点,更多景点/周边游,113.237569,34.500828
老君庙,河南,郑州,新密市,0371,,新密市其他,老君庙（郑登快速路南350米）,景点,宗教,113.483001,34.522603
新密清真寺,河南,郑州,新密市,0371,,新密市其他,开阳路72号,景点,宗教,113.377162,34.517458
伏羲山旅行社,河南,郑州,新密市,0371,69881611;69881622,新密市政府,开阳路518号,景点,旅行社,113.378864,34.535504
东大寺,河南,郑州,新密市,0371,,新密市其他,溱河路,景点,宗教,113.607446,34.538432
丰源旅行社有限公司,河南,郑州,新密市,0371,69818055;69818056,新密市政府,青屏街街道开阳路北段,景点,旅行社,113.379486,34.538086
老君洞,河南,郑州,新密市,0371,,新密市其他,翠玉避暑山庄内,景点,自然景观,113.200159,34.561335
石河生态公园,河南,郑州,巩义市,0371,136****9901,巩义市其他,河洛路与石河路交叉口东南100米,景点,城市公园,113.005648,34.755408
桥沟老君庙,河南,郑州,巩义市,0371,,巩义市其他,老君庙（310国道北）,景点,宗教,113.063072,34.726286
浅井村文化广场,河南,郑州,巩义市,0371,,巩义市其他,浅井村附近,景点,公园/广场,113.084796,34.613233
大王庙,河南,郑州,巩义市,0371,,巩义市其他,郑东新区237省道,景点,宗教,113.064307,34.831776
金运旅行社,河南,郑州,巩义市,0371,64351888;64398999,星月时代广场,新华路256号新华书店院内2层,景点,旅行社,112.983812,34.754072
铁生沟冶铁遗址,河南,郑州,巩义市,0371,,巩义市其他,237省道南50米,景点,古代遗迹,113.041296,34.619492
永昭陵,河南,郑州,巩义市,0371,64571899,宋陵公园,杜甫路84号,景点,古代遗迹,112.985938,34.744181
立佛寺,河南,郑州,巩义市,0371,,巩义市其他,人民路工商新村西侧约130米,景点,宗教,112.969059,34.751195
青龙禅寺,河南,郑州,巩义市,0371,,巩义市其他,北山口镇310国道,景点,宗教,113.000269,34.715285
巩义关帝庙,河南,郑州,巩义市,0371,,巩义市其他,007乡道北50米,景点,宗教,113.130578,34.767998
桐乐园,河南,郑州,巩义市,0371,152****0563,体育馆,桐本路与陇海路交叉口朗曼假日广场1楼,景点,城市公园,112.992569,34.744709
宋陵永昌陵,河南,郑州,巩义市,0371,,巩义市其他,永安路与076乡道交叉口北150米,景点,古代遗迹,112.960422,34.661884
常香玉故里,河南,郑州,巩义市,0371,183****8028,巩义市其他,314省道,景点,名人故居,113.046919,34.812659
豫西抗日先遣支队司令部旧址,河南,郑州,巩义市,0371,,巩义市其他,237省道,景点,历史建筑,113.08568,34.609549
郑新路清真寺,河南,郑州,新郑市,0371,,新郑市其他,清真寺（郑新快速通道东340米）,景点,宗教,113.719075,34.556805
龙王清真寺,河南,郑州,新郑市,0371,,新郑市其他,人民路40号-72号,景点,宗教,113.860512,34.456955
古禅寺,河南,郑州,新郑市,0371,,新郑市其他,千户寨,景点,宗教,113.542848,34.337315
东岳庙,河南,郑州,新郑市,0371,,新郑市其他,X029与双鹤四街交叉路口往东北约170米,景点,景点/周边游,113.839215,34.447555
心连心旅行社,河南,郑州,新郑市,0371,62675087;62675077,炎黄广场,人民路西段189号,景点,旅行社,113.740343,34.395177
福寿园,河南,郑州,新郑市,0371,63361448,龙湖广场/升达大学,双梅路1号（107国道与双湖大道交叉口西500米）,景点,纪念公园,113.678218,34.610368
郑韩故城,河南,郑州,新郑市,0371,,轩辕故里,郑新路与子产路交叉口南40米,景点,古代遗迹,113.728709,34.411011
皇帝古枣园,河南,郑州,新郑市,0371,159****5690,新郑市其他,古枣园艺术幼儿园西北侧约70米,景点,植物园,113.786509,34.552209
海洋世界,河南,郑州,登封市,0371,186****1080,百货大楼/中天广场,东关街登封市直属第一初级中学南侧约40米,景点,海洋馆,113.032944,34.457154
迎仙公园,河南,郑州,登封市,0371,,登封市其他,嵩阳街道中岳大街与阳城路交叉口路东,景点,城市公园,113.059985,34.456473
嵩山地质博物馆,河南,郑州,登封市,0371,6274897,登封市其他,嵩岳街西1号,景点,博物馆,113.029359,34.482338
革命烈士纪念馆,河南,郑州,登封市,0371,158****6288,登封市其他,中岳大街161号,景点,纪念馆,113.018744,34.461694
阮村文化广场,河南,郑州,登封市,0371,,登封市其他,344村道北50米,景点,公园/广场,112.84865,34.391445
登封中国国际旅行社,河南,郑州,登封市,0371,62877038,登封市其他,大禹路西段203号郑大体校对面,景点,旅行社,113.027241,34.468681
罗汉堂,河南,郑州,登封市,0371,,登封市其他,少林大道北100米,景点,宗教,113.079488,34.455238
大路北文化游乐广场,河南,郑州,登封市,0371,,登封市其他,064乡道刘子沟,景点,广场,113.209393,34.463863
河南中国旅行社,河南,郑州,登封市,0371,,客运总站,阳城路1号,景点,旅行社,113.055702,34.451562
西关清真寺,河南,郑州,登封市,0371,,登封一中/国际商贸城,登封大道与洧河路交叉口西240米,景点,宗教,113.015515,34.453174
清凉寺,河南,郑州,登封市,0371,,登封市其他,少林服务区,景点,景点/周边游,112.932667,34.451711
南岳庙,河南,郑州,登封市,0371,,登封市其他,G207,景点,宗教,112.982571,34.371901
大禹园,河南,郑州,登封市,0371,,嵩山一号,嵩阳街道大禹路与守敬路交叉口路西,景点,城市公园,113.053084,34.466651
会善寺,河南,郑州,登封市,0371,83039899,登封市其他,六公里嵩山南麓积翠峰下,景点,宗教,113.005154,34.491804
中国厨房文化博物馆,河南,郑州,中牟县,0371,60862000,白沙镇,新安路10号,景点,博物馆,113.904774,34.700285
郑州市中牟县西关清真寺,河南,郑州,中牟县,0371,,中牟大厦,民族路管道三公司第三生活小区东北侧约80米,景点,宗教,114.022641,34.726345
中牟烈士陵园,河南,郑州,中牟县,0371,,中牟大厦,青年西路12号,景点,烈士陵园,114.02324,34.723192
河南康辉国际旅行社,河南,郑州,中牟县,0371,62100018;62100959,中牟大厦,建设南路53号,景点,旅行社,114.017352,34.723732
万胜清真寺,河南,郑州,中牟县,0371,,中牟县其他,中牟服务区,景点,宗教,113.998642,34.840406
康清池水上乐园,河南,郑州,中牟县,0371,,百乐汇购物广场,冷藏保鲜协会东南门北90米,景点,水上乐园,114.012291,34.736794
高皇寺,河南,郑州,中牟县,0371,62356656,中牟县其他,(街道)前段村高皇寺路001号,景点,宗教,113.94491,34.537262
东关社区文化活动广场,河南,郑州,中牟县,0371,,中牟县其他,东关南街与青年东路交叉路口东北侧（光荣院东侧）,景点,公园/广场,114.039343,34.722594
东湖,河南,郑州,中牟县,0371,,中牟县其他,郑开大道,景点,自然风光,114.147054,34.767397
河南康辉国际旅行社,河南,郑州,郑州,0371,66293757;66293758,西大街,裕鸿花园C栋7层（东大街地铁站D口步行100米）,景点,旅行社,113.681021,34.748721
中青旅行社,河南,郑州,郑州,0371,4001588006,西大街,紫荆山路60号金成国贸大厦16层1618号,景点,旅行社,113.681323,34.752172
巩义市鸿鑫旅行社,河南,郑州,巩义市,0371,64391000,星月时代广场,新华路街道新华路老干部活动中心三楼（巩义市武装部）,景点,旅行社,112.983805,34.751135
康辉国际旅行社,河南,郑州,郑州,0371,68272738,富田太阳城,航海东路北魏庄西街两侧郑州旅游职业学院内,景点,旅行社,113.697473,34.724113
河南旅游集团,河南,郑州,巩义市,0371,,星月时代广场,新华路248号,景点,旅行社,112.984106,34.753346
康辉旅行社,河南,郑州,郑州,0371,155****1983,经三路沿线,中州大道与林科路交叉口非常国际6号楼单元503室,景点,旅行社,113.703064,34.790607
康辉国际旅行社分社,河南,郑州,巩义市,0371,60325588,体育馆,桐本路安乐街口,景点,旅行社,112.993708,34.743398
快修一条街,河南,郑州,郑州,0371,134****2898,沙门/汽配,国基路55号,景点,步行街,113.678619,34.819499
百事通旅游汝河路服务网点,河南,郑州,郑州,0371,68833995,儿童公园/凯旋门,汝河路8号,景点,旅行社,113.598871,34.732681
河南中国旅行社,河南,郑州,新郑市,0371,62688101,庆都生活广场,人民路黄帝像东北角鑫港快捷酒店一楼大厅,景点,旅行社,113.748755,34.395745
百事通旅游公司,河南,郑州,荥阳市,0371,67329022,荥阳图书馆,万山路161号,景点,旅行社,113.384939,34.785251
旅院旅行社,河南,郑州,郑州,0371,68272738,富田太阳城,郑州旅游职业学院院内,景点,旅行社,113.69754,34.72407
御窑阁汝瓷艺术馆,河南,郑州,郑州,0371,159****8898;150****3963,金水路/省政府,政一街纬二路26号院,景点,美术馆,113.687095,34.767155
新铜雀湾温泉酒店,河南,郑州,郑州,0371,65675880,曼哈顿广场/英协路,金水路与英协路交叉口北100米路东,景点,温泉,113.718498,34.764533
城外城博物馆,河南,郑州,郑州,0371,68953233;155****6448,帝湖,长江西路西三环交叉口南100米路西,景点,博物馆,113.612564,34.70808
黄淮艺术博物馆,河南,郑州,郑州,0371,,东建材,兴荣街17号,景点,博物馆,113.747839,34.757499
稼祥商业广场,河南,郑州,新密市,0371,,迎客松购物广场,大学南路与平安街交叉口西150米,景点,广场,113.648108,34.52256
春秋阁景区,河南,郑州,巩义市,0371,,巩义市其他,益家窝村,景点,历史建筑,112.935734,34.714981
当代艺术馆,河南,郑州,郑州,0371,,裕达国贸,伊河路12号,景点,美术馆,113.625343,34.742882
二祖庵,河南,郑州,登封市,0371,,登封市其他,少林寺旅游景点常住院对面的少室山钵盂峰顶,景点,宗教,112.937358,34.489342
古荥汉代冶铁遗址,河南,郑州,郑州,0371,63592996,黄河游览区,古须北路79号,景点,古代遗迹,113.533974,34.875572
京汉铁路工人大罢工史迹陈列馆,河南,郑州,郑州,0371,66966789;55090650,火车站/二七广场,钱塘路商业街82号,景点,陈列馆,113.666451,34.746075
康辉国际旅行社,河南,郑州,郑州,0371,55331815;55331817,儿童公园/凯旋门,陇海路与桐柏路交叉口向东50米升龙金中环财富中心A座3401室,景点,旅行社,113.613247,34.738007
青龙山后寺河风景区,河南,郑州,巩义市,0371,,巩义市其他,焦桐高速,景点,自然风光,113.030173,34.707504
世博会河南纪念馆,河南,郑州,郑州,0371,,郑东新区CBD,商务外环路8号世博大厦1层,景点,纪念馆,113.718391,34.772928
太室阙,河南,郑州,登封市,0371,62872569,登封市其他,颍河路,景点,古代遗迹,113.074301,34.450549
新通桥游园,河南,郑州,郑州,0371,,健康路/零零茂,金水路与文化路交叉口,景点,城市公园,113.667213,34.764668
永定陵,河南,郑州,巩义市,0371,,巩义市其他,蔡庄北1公里310国道旁,景点,古代遗迹,112.980682,34.703139
竹园,河南,郑州,郑州,0371,,科学大道,枫杨街道翠竹街与银屏路交叉口西150米,景点,公园/广场,113.556648,34.817913
自然博物馆,河南,郑州,郑州,0371,,北大学城,文化路与英才街郑州师范学院西门院内,景点,博物馆,113.645669,34.866399
启明广场,河南,郑州,郑州,0371,,经开区,明湖街道经济开发区明湖街道航海路与朝凤路南100米,景点,广场,113.732384,34.720257
荥阳黄河纪念公园,河南,郑州,荥阳市,0371,85212223,荥阳市其他,兴榴大道高村乡枣树沟村,景点,纪念公园,113.353938,34.946931
郑州华海旅行社,河南,郑州,郑州,0371,65571660,经三路沿线,政七街纬五路交叉口向西50米路南物华大酒店21楼2188室,景点,旅行社,113.686056,34.771514
雁鸣湖恐龙谷凌云温泉,河南,郑州,中牟县,0371,62322777;62322555,雁鸣湖镇,雁鸣大道国家农业公园内,景点,温泉,114.080646,34.856607
宋哲宗永泰陵,河南,郑州,巩义市,0371,,巩义市其他,乡八陵村村南,景点,古代遗迹,112.91391,34.652754
穴道墓,河南,郑州,新密市,0371,,新密市其他,未来大道,景点,古代遗迹,113.336264,34.514264
郑庄公冢,河南,郑州,新密市,0371,,新密市其他,尚庄村东南,景点,古代遗迹,113.627521,34.458782
河南中州国际旅行社,河南,郑州,郑州,0371,86165811,大石桥/体育场,优胜南路26号国奥商务,景点,旅行社,113.6666,34.767073
康辉国际旅行社,河南,郑州,登封市,0371,85033111,百货大楼/中天广场,中岳大街与菜园路交汇处西100米路北,景点,旅行社,113.041802,34.458132
康辉国际旅行社,河南,郑州,郑州,0371,53363368,东风路,南阳新村街道东风路与南阳路交叉口天旺广场,景点,旅行社,113.636291,34.795525
新郑市郑国车马坑景区,河南,郑州,新郑市,0371,62680689,新郑市其他,文化路1号,景点,古代遗迹,113.735824,34.38428
中国旅行社,河南,郑州,郑州,0371,88888456,人民路/紫荆山,紫荆山路1号紫荆商务1118室（近紫荆山公园）,景点,旅行社,113.681602,34.762741
鸡冠山,河南,郑州,荥阳市,0371,,荥阳市其他,梅河口市西南方的吉乐乡,景点,自然风光,113.285792,34.626045
中州国际旅行社,河南,郑州,郑州,0371,65392868;155****3990,建文新世界,黄河路经八路交叉口经津大厦,景点,旅行社,113.669263,34.776767
阳光旅行社,河南,郑州,郑州,0371,62694765,黄河游览区,北环路惠济桥村东,景点,旅行社,113.591702,34.890404
新大陆旅行社,河南,郑州,郑州,0371,55023748,火车站/二七广场,大同路93号格林兰大酒店一楼,景点,旅行社,113.662853,34.745703
豫中旅国际旅行社,河南,郑州,郑州,0371,133****8613,二七万达,大学路航海路交叉口二七万达12B座1736室,景点,旅行社,113.643563,34.717358
河南中州国际旅行社,河南,郑州,郑州,0371,63320237;181****6209,碧沙岗,嵩山北路20号,景点,旅行社,113.627828,34.750228
中国青年旅行社,河南,郑州,郑州,0371,63812548,大石桥/体育场,金水路95号兴达通苑A座306室,景点,旅行社,113.664529,34.763997
榆林云岩寺,河南,郑州,郑州,0371,,经三路沿线,紫金山路（近东明路）,景点,宗教,113.689814,34.796021
咸阳唐家民居民俗博物馆,河南,郑州,郑州,0371,135****2112,经三路沿线,紫金山路东明路,景点,博物馆,113.689964,34.796204
康辉旅行社,河南,郑州,郑州,0371,55903680;150****5536,儿童公园/凯旋门,陇海路与桐柏路交叉口凯旋门大厦c座22楼2203室（近桐柏路）,景点,旅行社,113.612527,34.735177
云翔航旅,河南,郑州,郑州,0371,87071836,碧沙岗,嵩山北路59号,景点,旅行社,113.62988,34.75992
河南海外旅游有限公司红专路营业网点,河南,郑州,郑州,0371,158****1080,经三路沿线,红专路与政六街交叉口西南角荣华商务7楼720室,景点,旅行社,113.682559,34.781459
河南省中国旅行社有限公司,河南,郑州,郑州,0371,67719997,新世界百货,建设路和嵩山路交叉口西北角,景点,旅行社,113.682432,34.749555
郑风生态牡丹园,河南,郑州,中牟县,0371,65727711;65727377,白沙镇,凤栖路保利罗兰香谷对面,景点,植物园,113.90664,34.712911
旅游百事通,河南,郑州,郑州,0371,63355558,人民路/紫荆山,紫荆山路与金水路交叉口紫荆山商务楼7楼701室,景点,旅行社,113.682701,34.764153
河南富景旅行社,河南,郑州,郑州,0371,66380881,金水路/省政府,东明路顺河路好如家快捷酒店10楼1005室,景点,旅行社,113.699805,34.759485
郑州南环公园,河南,郑州,郑州,0371,,二七区,南四环与大学南路交叉口东北角,景点,城市公园,113.647469,34.666573
河南海外旅行社,河南,郑州,郑州,0371,134****7383,冉屯路/五龙口,煤仓北街5号（农业路与桐柏路交叉口向南200米路西）,景点,旅行社,113.616528,34.772478
裴李岗村李氏祠堂,河南,郑州,新郑市,0371,,新郑市其他,X029与Y008交叉口西南方向160米,景点,人文古迹,113.659398,34.435923
中国旅行社总社河南有限公司,河南,郑州,郑州,0371,65578087,郑东新区CBD,黄河南路与熊耳河路交叉口,景点,旅行社,113.745046,34.769235
中国青年旅行社,河南,郑州,郑州,0371,65786102,国贸360,花园路与丰产路国贸4号楼3单元2608,景点,旅行社,113.679878,34.784168
青屏广场,河南,郑州,新密市,0371,,青屏广场,西大街与雪花街交叉口（金博大购物中心）,景点,广场,113.367953,34.535434
柏茂庄园,河南,郑州,巩义市,0371,64188788,巩义市其他,新中村,景点,历史建筑,113.197543,34.696023
天宇旅游,河南,郑州,郑州,0371,65831999,金水路/省政府,紫荆山金水路交叉口河南饭店南门口,景点,旅行社,113.681068,34.764188
天宇旅游,河南,郑州,郑州,0371,65831999,升龙广场,嵩山南路238号国际旅游大厦3楼,景点,旅行社,113.627769,34.716862
康辉国际旅行社,河南,郑州,郑州,0371,55331816,二七万达,大学路航海路交叉口二七万达2号院,景点,旅行社,113.6435,34.717724
行者无疆俱乐部-旅游百事通,河南,郑州,郑州,0371,63461848;180****6986,橄榄城,南三环与连云路交叉口东南角,景点,旅行社,113.671658,34.697778
中青国际旅行社,河南,郑州,郑州,0371,55637712,金水路/省政府,经六路纬一路索克豫发大厦A座605,景点,旅行社,113.675133,34.766111
鸿雁国际旅行社,河南,郑州,巩义市,0371,69596299;64373499,星月时代广场,新华路与新兴路交叉口向西十米三新广场,景点,旅行社,112.983033,34.755643
都游吧旅游网,河南,郑州,郑州,0371,181****8161,大石桥/体育场,经八路街道文化路与优胜北路交叉口西北角,景点,旅行社,113.665752,34.769506
河南海外旅行社,河南,郑州,郑州,0371,63718128;135****7546,中原万达,中原中路万隆广场7层,景点,旅行社,113.59034,34.747747
河南和信国际旅行社,河南,郑州,郑州,0371,63367226,经三路沿线,经三路广电南路格林融熙国际7楼（近广电南路）,景点,旅行社,113.693083,34.805359
要出发周边游,河南,郑州,郑州,0371,4001181166,新世界百货,紫荆山路东里路人民银行家属楼1号楼1803室,景点,旅行社,113.681779,34.758731
嵩阳景区,河南,郑州,登封市,0371,62830518,登封市其他,太室路与少室路交叉口北50米,景点,自然风光,113.035902,34.499282
鸿雁国际旅行社,河南,郑州,登封市,0371,62931333,嵩阳公园,颍河路50号,景点,旅行社,113.031821,34.467011
鑫隆温泉酒店,河南,郑州,郑州,0371,86532222,长江中路沿线,兴华南街与南三环交叉口南100米路东,景点,温泉,113.633239,34.697235
源博旅行社,河南,郑州,郑州,0371,67613000;67100139,碧沙岗,建设路与百花路交叉口西北角鑫苑国际广场1号楼543室,景点,旅行社,113.623247,34.755607
中青国际旅行社,河南,郑州,郑州,0371,69118526;188****9543,西大街,紫荆山路与东大街交叉口向西200米路北福华大厦B座17楼C室（二七广场）,景点,旅行社,113.681326,34.752176
中州国际旅行社,河南,郑州,郑州,0371,86601700,中原万达,中原路华山路中原万达广场写字楼B座一楼大厅（近2号门）,景点,旅行社,113.601044,34.747013
中青国际旅行社有限公司,河南,郑州,郑州,0371,189****9223,国贸360,农业路政七街省汇中心B座2603室,景点,旅行社,113.687684,34.786764
海外旅行社,河南,郑州,郑州,0371,134****7383,碧沙岗,建设路鑫苑国际广场1单元709室,景点,旅行社,113.623,34.7554
鸿雁国际旅行社,河南,郑州,新密市,0371,151****2551;186****3232,新密市政府,溱水路与北密新路交叉口向东18米路南,景点,旅行社,113.396972,34.541752
旅视旅游,河南,郑州,郑州,0371,65938013;65938011,国贸360,花园路丰产路交叉口国贸A座806室,景点,旅行社,113.681351,34.784882
康辉旅行社,河南,郑州,郑州,0371,63366101;185****5710,二七万达,航海中路163号鼎盛时代大厦6层616号,景点,旅行社,113.643502,34.717642
康辉旅行社,河南,郑州,郑州,0371,130****5981,郑州大学,兴华北街与绿城广场南路丹尼斯负一楼,景点,旅行社,113.630009,34.745581
河南省海外旅游有限公司,河南,郑州,郑州,0371,55225797,陈砦,丰庆路街道丰庆路中方园小区(西区)50号楼6单元603室,景点,旅行社,113.648581,34.813088
豫中旅国际旅行社,河南,郑州,郑州,0371,56052030,升龙广场,政通路66-7号升龙商业广场F2层,景点,旅行社,113.643013,34.725479
河南中港国际旅行社有限公司,河南,郑州,登封市,0371,135****3939,登封市其他,洧河路650号,景点,旅行社,113.040867,34.449467
海外旅行社重渡沟二日游,河南,郑州,郑州,0371,55050237,郑州东站,东风南路,景点,旅行社,113.768683,34.760443
亚泰国际旅行社,河南,郑州,郑州,0371,63711818,锦艺城/王府井,桐柏北路113号院鑫苑都市公寓3号楼7层,景点,旅行社,113.615179,34.770183
盛世天泉温泉酒店,河南,郑州,郑州,0371,66655066,郑东新区,心怡路与正光路交叉口东北角,景点,温泉,113.771075,34.773692
河南海外旅行社,河南,郑州,郑州,0371,134****7383;150****5481,冉屯路/五龙口,西湖春天小区38号楼3单元6层165号,景点,旅行社,113.609791,34.783031
康辉旅行社,河南,郑州,郑州,0371,66293301;66293302,国贸360,农业路与花园路交叉口向西200米,景点,旅行社,113.676296,34.785496
中青国际旅行社,河南,郑州,郑州,0371,69118136;158****8771,升龙广场,政通路交通路升龙世纪花园2区5号楼2411室,景点,旅行社,113.6434,34.718302
河南中青国际旅行社有限公司,河南,郑州,郑州,0371,137****2895,二七万达,大学路二七万达广场12A座11层1114室,景点,旅行社,113.643494,34.71809
郑州方特梦幻王国,河南,郑州,中牟县,0371,56928200,刘集镇,郑开大道与人文路交汇处南2公里,景点,主题乐园,113.925684,34.767104
河南中国旅行社,河南,郑州,郑州,0371,86556290,鑫苑鑫都汇,陇海中路庆丰街鑫苑现代城负一楼华润万家超市内,景点,旅行社,113.652126,34.736051
儿童公园,河南,郑州,郑州,0371,,儿童公园/凯旋门,陇海西路与桐柏南路交汇处向西250米路南,景点,公园/广场,113.610794,34.734974
曲梁水库,河南,郑州,新密市,0371,,新密市其他,曲梁镇曲梁水库花园,景点,现代建筑,113.601011,34.522011
大唐国旅,河南,郑州,巩义市,0371,186****6116,星月时代广场,人民路与建设路交叉口东100米路南,景点,旅行社,112.990021,34.749621
郑州国际会展中心,河南,郑州,郑州,0371,68089988,郑东新区CBD,如意湖街道郑东新区商务内环路中央公园1号,景点,展览馆,113.72918,34.772867
纳帕美景庄园,河南,郑州,郑州,0371,56995599,惠济区,北四环与师南路交叉口西150米,景点,更多景点/周边游,113.570387,34.860158
草坪广场,河南,郑州,郑州,0371,63799936,黄河游览区,黄河南岸86号思念果岭国际社区,景点,公园/广场,113.518977,34.912201
易谷河南文化艺术网商园,河南,郑州,郑州,0371,,省体中心/裕华广场,兴隆铺路48号,景点,创意园区,113.615532,34.812734
马渡乡村公园,河南,郑州,郑州,0371,,郑东新区,龙子湖办事处马渡村,景点,公园/广场,113.80252,34.869471
奥伦达部落五云山,河南,郑州,荥阳市,0371,67312222,荥阳市其他,城关乡中原西路五云山大道166号,景点,现代小镇,113.29887,34.751964
河南职工国际旅行社,河南,郑州,郑州,0371,60116572,西大街,东大街59号福华大厦B座9楼E室,景点,旅行社,113.682417,34.750697
中国旅行社总社,河南,郑州,郑州,0371,66868881,儿童公园/凯旋门,王府井百货（棉纺路桐柏路交叉口锦艺濠庭3号楼2单元2604室）,景点,旅行社,113.607901,34.73272
鑫荣·中央金地服装街,河南,郑州,中牟县,0371,,豫康新城,郑港七路鑫荣·中央金地公寓东50米,景点,步行街,113.855521,34.562801
碧源月湖公园,河南,郑州,郑州,0371,86638888,北大学城,文化路与开元路交汇处（北大学城）,景点,城市公园,113.637553,34.873215
河南鸿雁国际旅行社,河南,郑州,郑州,0371,68226209,金水路/省政府,经三路纬五路广汇国贸B1305室,景点,旅行社,113.692099,34.772329
魏巍故里,河南,郑州,郑州,0371,,西大街,管城街7-7号西北方向39米,景点,古村古镇,113.677334,34.750524
河南中青国际旅行社有限公司,河南,郑州,郑州,0371,65945111,金水路/省政府,政一街7号石化大厦8楼,景点,旅行社,113.687145,34.767255
将军寨,河南,郑州,巩义市,0371,,巩义市其他,郑州巩义公川村,景点,古村古镇,113.018961,34.551911
旅游百事通,河南,郑州,郑州,0371,133****7889,东建材,商鼎路与十里铺街交叉口向南200米路东,景点,旅行社,113.730153,34.753133
河南中青国际旅行社,河南,郑州,巩义市,0371,85603088,宋陵公园,新华路216号,景点,旅行社,112.983745,34.748509
众惠旅游,河南,郑州,新郑市,0371,,领秀城,陶文路新郑·领秀城底商,景点,旅行社,113.749437,34.402811
塔林,河南,郑州,登封市,0371,62745599,少林寺风景区,少林寺西400米处的,景点,古代遗迹,112.937317,34.503477
连天峰,河南,郑州,登封市,0371,,登封市其他,嵩山少林景区三皇寨景区内,景点,自然景观,112.933576,34.470146
启母阙,河南,郑州,登封市,0371,62830518,嵩山一号,太室路与少室路交叉口北50米嵩阳景区,景点,人文古迹,113.047845,34.473123
中佛殿,河南,郑州,登封市,0371,,登封市其他,永泰寺内（东北角）,景点,宗教,112.979318,34.52026
密县城隍庙,河南,郑州,新密市,0371,,新密市其他,密县西街十字街西二十米处,景点,宗教,113.367768,34.513266
普贤殿,河南,郑州,登封市,0371,,少林寺风景区,西北15公里处的嵩山少室山下嵩山少林风景区少林寺内（西北角）,景点,景点/周边游,112.940805,34.507751
大风车3d科技体验馆,河南,郑州,郑州,0371,66229168,大石桥/体育场,5D影院人民公园西门内,景点,科技馆,113.660579,34.762349
六祖堂,河南,郑州,登封市,0371,,少林寺风景区,207国道嵩山少林风景区少林寺内,景点,宗教,112.941151,34.506533
天一航空主题飞行基地,河南,郑州,郑州,0371,4009990925,中原区,科学大道与白松路交叉口北1公里,景点,更多景点/周边游,113.490466,34.815046
海外国际旅行社有限公司,河南,郑州,郑州,0371,,裕达国贸,工人路116-3号,景点,旅行社,113.620671,34.741001
中港国际旅行社,河南,郑州,上街区,0371,68119933,铝城公园,理想名家3号楼M1室,景点,旅行社,113.311789,34.80306
永安陵,河南,郑州,巩义市,0371,,巩义市其他,永安南路,景点,古代遗迹,112.968149,34.662769
中州国际旅行社代理点,河南,郑州,郑州,0371,,金水路/省政府,政三街与花园路辅路交叉口东120米,景点,旅行社,113.683508,34.765246
贝克旅行社,河南,郑州,巩义市,0371,64367777,星月时代广场,人民路92号贝克大酒店,景点,旅行社,112.985941,34.750216
宋神宗永裕陵,河南,郑州,巩义市,0371,,巩义市其他,八陵村附近,景点,古代遗迹,112.921591,34.648501
世界行旅行社,河南,郑州,郑州,0371,159****1751,建文新世界,任砦北街1号2号楼6单元10层156号,景点,旅行社,113.668391,34.770851
豫中旅紫荆山营业部,河南,郑州,郑州,0371,4000517665,新世界百货,紫荆山路与商城路交叉口向北100米路西华林新时代广场5楼0522室,景点,旅行社,113.681599,34.755472
康辉国际旅行社国贸广场营业部,河南,郑州,郑州,0371,66372318,国贸360,花园路农业路国贸新领地4号楼2单元1103室,景点,旅行社,113.682511,34.785301
河南康辉国际旅行社郑州文化路第二门市部,河南,郑州,郑州,0371,63861571;187****5406,国贸360,文化路街道丰产路与文化路交叉口东南角世纪城东塔12层B座,景点,旅行社,113.672351,34.781811
金辉国际旅行社有限公司,河南,郑州,新郑市,0371,60296007,新郑金苑小区,新华路小高庄大街10号路西,景点,旅行社,113.745351,34.387971
东运河游船观光,河南,郑州,郑州,0371,,郑东新区CBD,如意湖文化广场旁,景点,城市观光,113.725792,34.775314
河南金城国际旅行社宝中旅游,河南,郑州,新郑市,0371,62581561;152****7363,新郑机场,薛店大道,景点,旅行社,113.799976,34.495056
康辉国际旅行社,河南,郑州,郑州,0371,65937008,东风路,天明路86号,景点,旅行社,113.640062,34.802092
店连店国际旅行社,河南,郑州,郑州,0371,,西大街,紫荆山路兴达国贸18层,景点,旅行社,113.681634,34.751133
邪无寺,河南,郑州,郑州,0371,186****5238,金水区,唐人街文化广场A237,景点,景点/周边游,113.719706,34.754596
天然宝艺术馆,河南,郑州,郑州,0371,,二七万达,嵩山南路249-8号,景点,美术馆,113.628487,34.714573
天地人和国际旅行社,河南,郑州,登封市,0371,62966789;62965678,百货大楼/中天广场,中越大街与菜园路交叉口华天大酒店一楼,景点,旅行社,113.042646,34.458016
北辰国际旅行社,河南,郑州,郑州,0371,,农科路酒吧街,农业路政七街省汇中心a座2609号,景点,旅行社,113.688334,34.786824
郑州青屏旅行社,河南,郑州,新密市,0371,69822606;69221666,新密市政府,行政路9号（青屏宾馆院内）,景点,旅行社,113.391284,34.537894
天天旅行网,河南,郑州,郑州,0371,4000077365,福都生活广场,航海路未来路交叉口向北300米路西未来名家1号楼8楼022室,景点,旅行社,113.705836,34.724376
中国青年旅行社,河南,郑州,郑州,0371,136****9050,金水区,金水路建发大厦505,景点,旅行社,113.669524,34.765374
河南旅游集团有限公司,河南,郑州,郑州,0371,68262810,经三路沿线,顺河路3号,景点,旅行社,113.693938,34.760138
月光天鹅湖艺术中心,河南,郑州,新密市,0371,62940111;62940222,新密市政府,东大街与农业路交叉口西南角金霖商厦5楼,景点,创意园区,113.387272,34.53604
中州国际旅行社,河南,郑州,郑州,0371,63320237,碧沙岗,嵩山路与建设路交叉口天龙大厦,景点,旅行社,113.627448,34.753614
猩猩馆,河南,郑州,郑州,0371,,国贸360,灵长动物区,景点,动物园,113.68587,34.787873
康辉国际旅行社,河南,郑州,郑州,0371,63881116,大石桥/体育场,大石桥街道南阳路大石桥SOHO广场A座1409室（南阳路工商银行附近）,景点,旅行社,113.654803,34.76522
中国旅行社,河南,郑州,郑州,0371,55600733,中原万达,中原路171号中原万达写字楼B座1121室,景点,旅行社,113.600964,34.747006
康辉国际旅行社,河南,郑州,郑州,0371,139****7843,新世界百货,紫荆山路阳光铭座A座22层2203室（近商城路）,景点,旅行社,113.682441,34.755181
旅游百事通,河南,郑州,郑州,0371,139****7734,升龙广场,政通路66-7号升龙商业广场F2层,景点,旅行社,113.641968,34.725327
康辉国际旅行社,河南,郑州,郑州,0371,66382228;66316663,大上海城,二七路金博大B座27楼2702室,景点,旅行社,113.666282,34.755002
河南康辉国际旅行社,河南,郑州,郑州,0371,159****3565,大石桥/体育场,金水路与二七路交叉口向西200米路南兴达通苑4楼122室,景点,旅行社,113.664327,34.763937
丰源旅行社,河南,郑州,郑州,0371,56761145,柳林刘庄,花园路宏明路汉飞城市公园1期8号楼3单元1102,景点,旅行社,113.677277,34.825107
文博公园,河南,郑州,郑州,0371,,国贸360,农业路1号,景点,城市公园,113.674522,34.788288
海外国际旅行社有限公司,河南,郑州,郑州,0371,88889990,东风路,南阳路226号富田大厦815室,景点,旅行社,113.635383,34.795018
中国国际旅行社,河南,郑州,郑州,0371,65852318,国贸360,农业路与花园路交叉口向东50米路南豫博大厦西座16楼河南国旅,景点,旅行社,113.683526,34.786117
华商温泉国际酒店,河南,郑州,新郑市,0371,62569727,龙湖广场/升达大学,龙湖镇107国道与双湖大道交叉口向南100米路东,景点,温泉,113.683961,34.607787
国际旅行社,河南,郑州,郑州,0371,63364977,大石桥/体育场,南阳路315-5号（大石桥地铁站C口步行220米）,景点,旅行社,113.653359,34.767059
民族抗战英雄郭兰纪念馆,河南,郑州,新郑市,0371,132****6101,新郑市其他,八千乡楼刘村,景点,纪念馆,113.837137,34.334577
旅游百事通,河南,郑州,郑州,0371,180****1816,东风路,东风路与南阳路交叉口向西200米路北（富田丽景北门正对面）,景点,旅行社,113.631103,34.800083
郑州梵高星空错觉艺术馆,河南,郑州,郑州,0371,156****9334,大上海城,东太康路28号大上海城南门4层,景点,展览馆,113.669487,34.755909
娘娘庙,河南,郑州,新郑市,0371,62651160,新郑市其他,中国河南省郑州市新郑市辛店镇刘弯村,景点,宗教,113.812836,34.593001
凯撒旅游,河南,郑州,郑州,0371,86565950;4006066666,万象城,民主路10号华润万象城F1层,景点,旅行社,113.662262,34.754562
中海国际旅行社,河南,郑州,郑州,0371,56700258,大石桥/体育场,文化路112号文化嘉园1401室,景点,旅行社,113.666821,34.770123
银基黄帝宫御温泉,河南,郑州,新密市,0371,56516820;4000178178,新密市其他,大鸿路1号银基国际旅游度假区内（郑栾高速轩辕丘出口西5公里）,景点,温泉,113.549905,34.481837
雁鸣蟹岛亲子戏雪场,河南,郑州,中牟县,0371,185****3050,中牟县其他,雁鸣湖镇小店村雁鸣蟹岛西门,景点,滑雪场,114.080661,34.82463
西泰山村千稼集,河南,郑州,新郑市,0371,85901916;85901919,新郑市其他,会盟大道与泰山路交叉口西南角,景点,民俗文化村,113.640196,34.579341
乐游户外运动俱乐部,河南,郑州,郑州,0371,87533789,火车站/二七广场,紫荆山南路街道紫荆山路金城街棕榈泉18号楼1872室,景点,旅行社,113.680437,34.725021
卢店广场夜市,河南,郑州,登封市,0371,,登封市其他,少林大道与龙泉路交叉口西60米,景点,夜市,113.145126,34.458591
滨黄河森林公园,河南,郑州,郑州,0371,,黄河游览区,黄河大堤南,景点,森林公园,113.561401,34.907673
古柏渡丰乐樱花园,河南,郑州,荥阳市,0371,86571111;86572222,荥阳市其他,南水北调穿黄口区域,景点,植物园,113.238089,34.875121
天健湖公园,河南,郑州,郑州,0371,,中原区,枫香街与创新大道交叉口,景点,城市公园,113.482801,34.816446
科教公园,河南,郑州,郑州,0371,,国家森林公园/北龙湖,中州大道杨金路131号公交车河村站,景点,公园/广场,113.745728,34.845119
凤河公园,河南,郑州,中牟县,0371,,白沙镇,故城南路与花马东街交汇处西南角,景点,文化公园,113.896629,34.71072
郑新公园,河南,郑州,郑州,0371,,黄河科技大学城,南三环与新郑路交叉口南北两侧,景点,城市公园,113.689659,34.697887
西运河公园,河南,郑州,郑州,0371,,郑东新区CBD,渠北路以北、众意路以西的西运河两侧,景点,文化公园,113.735153,34.778103
锦和公园,河南,郑州,郑州,0371,,高新区,连霍高速与西四环交叉口西南角,景点,城市公园,113.525032,34.840508
法王寺,河南,郑州,登封市,0371,62830518,登封市其他,嵩阳街道中岳大街146号嵩山风景区内,景点,宗教,113.026586,34.504152
中国旅行社,河南,郑州,郑州,0371,86588387,长江中路沿线,长江路103号-附64号,景点,旅行社,113.633286,34.709484
河南省中国青年旅行社,河南,郑州,郑州,0371,60903355,人民路/紫荆山,金水路16号中青大厦1407,景点,旅行社,113.677891,34.764711
郑州西流湖公园,河南,郑州,郑州,0371,67528188,高新区,中原西路街道中原西路北150米,景点,公园/广场,113.578193,34.762381
康辉旅行社,河南,郑州,郑州,0371,67727888,郑东新区,金水路与心怡路交叉口晖达新领地小区,景点,旅行社,113.772536,34.772535
青龙温泉大酒店,河南,郑州,巩义市,0371,64115588;158****8347,汽车站,望嵩路46号,景点,温泉,112.998152,34.732706
郑州市绿城广场,河南,郑州,郑州,0371,,郑州大学,嵩山南路与中原路,景点,广场,113.629814,34.746384
青年公园,河南,郑州,新郑市,0371,,豫康新城,郑港十路与郑港九路中间,景点,公园/广场,113.843774,34.560311
京襄城遗址生态园,河南,郑州,荥阳市,0371,,荥阳市其他,商隐路西200米,景点,古代遗迹,113.443199,34.723618
上街人民广场,河南,郑州,上街区,0371,,铝城公园,中心路与廿峡线交叉口南150米,景点,广场,113.308563,34.801739
郑州美术馆,河南,郑州,郑州,0371,67981173;67983163,瑞达路沿线,瑞达路83号,景点,美术馆,113.56926,34.798725
艺术中心艺术馆,河南,郑州,郑州,0371,69092262,郑东新区CBD,商务内环路河南省艺术中心,景点,美术馆,113.724931,34.770641
河南省书画院,河南,郑州,郑州,0371,66253143,大上海城,二七路55号,景点,美术馆,113.667206,34.757851
华夏美术馆,河南,郑州,郑州,0371,65865573,人民路/紫荆山,经五路中共河南省委员会,景点,美术馆,113.677475,34.764656
少林寺龙门石窟一日游,河南,郑州,郑州,0371,66293386,火车站/二七广场,紫荆山东大街裕鸿花园D座10楼B户,景点,旅行社,113.681792,34.748049
天主堂,河南,郑州,郑州,0371,66229744,西大街,一道街51-1号（人民公园地铁站B口步行400米）,景点,宗教,113.659798,34.754238
莲花山旅游开发有限公司,河南,郑州,郑州,0371,56726661,经三路沿线,经三路26号思达数码大厦14楼,景点,旅行社,113.692005,34.780573
世纪行旅行社有限公司,河南,郑州,郑州,0371,65582330,曼哈顿广场/英协路,金水路与英协路交口盛润白宫14楼,景点,旅行社,113.719604,34.761468
峻极宫,河南,郑州,登封市,0371,62850819,登封市其他,嵩阳景区,景点,宗教,113.040464,34.499826
河南省中国旅行社集团有限公司,河南,郑州,郑州,0371,88885591;88885593,东建材,聚源路与宏图街交叉口聚源国际东塔五楼,景点,旅行社,113.74069,34.752665
永厚陵,河南,郑州,巩义市,0371,,宋陵公园,西陵北巷巩义市杜甫路街道办事处中心学校西北侧约210米,景点,古代遗迹,112.978846,34.745361
山水温泉,河南,郑州,郑州,0371,63707777;88886599,东风路,东风路街道东风路与天明路交叉口向南100米路东,景点,温泉,113.644427,34.79752
郑州李湾水库,河南,郑州,新密市,0371,,新密市其他,牛店镇李湾村李湾水库,景点,现代建筑,113.217666,34.50446
渔夫堂,河南,郑州,新郑市,0371,,西亚斯大学,渔夫子路39号,景点,宗教,113.767529,34.394436
郑州幽盛寺,河南,郑州,新郑市,0371,,新郑市其他,具茨山国家级森林公园323省道,景点,宗教,113.526054,34.354552
巩义市石河道公园,河南,郑州,巩义市,0371,,丹尼斯商场,新兴路,景点,公园/广场,113.002038,34.759728
郑州曹马沟水库,河南,郑州,新密市,0371,,新密市其他,刘寨镇振东路,景点,自然景观,113.570309,34.483309
郑州罗垌水库,河南,郑州,新郑市,0371,,龙湖广场/升达大学,泰山路鸿鹄路龙泊圣地,景点,现代建筑,113.700319,34.596785
千玺塔,河南,郑州,郑州,0371,,曼哈顿广场/英协路,商务内环路3号楼,景点,现代建筑,113.722214,34.768974
汇港温泉,河南,郑州,郑州,0371,61175888,惠济区,新江山路与开元路交叉口南100米路西,景点,温泉,113.58852,34.864573
旅游百事通,河南,郑州,中牟县,0371,150****0505,中牟县其他,郑尉路经开区九龙中学西北侧约140米,景点,旅行社,113.839286,34.638559
思念果岭悦温泉,河南,郑州,郑州,0371,56090688;56029755,黄河游览区,黄河南岸86号思念果岭国际社区,景点,温泉,113.515953,34.912933
河南省中国青年旅行社,河南,郑州,郑州,0371,65786320,经三路沿线,经三路红专路交叉口融丰花苑A座5楼,景点,旅行社,113.692176,34.781316
汉江水会温泉酒店,河南,郑州,郑州,0371,56689999,帝湖,嵩山路街道,景点,温泉,113.623207,34.714615
汉阙,河南,郑州,新郑市,0371,,轩辕故里,轩辕路黄帝故里景区内,景点,人文古迹,113.727379,34.399906
长寿山-森林公园,河南,郑州,巩义市,0371,,巩义市其他,012乡道东50米,景点,森林公园,113.142889,34.698049
旅游百事通,河南,郑州,郑州,0371,55057796;180****1816,东风路,南阳路152号院,景点,旅行社,113.62986,34.804668
郑州市动物园-益智游乐挖掘机,河南,郑州,郑州,0371,,农科路酒吧街,政七街与林科路交叉口西南,景点,动物园,113.686544,34.788224
极限广告设备郑州展示中心,河南,郑州,郑州,0371,187****2980,东建材,商都路5号中力国际广告材料市场C区9排,景点,展览馆,113.734536,34.743958
五洲石宫馆,河南,郑州,郑州,0371,55008836,汽车东站,商都路33号1-5室,景点,展览馆,113.750551,34.746641
河南丰邦建材装饰产品展示中心,河南,郑州,郑州,0371,155****6622,福都生活广场,正馨花园西南门东南80米,景点,展览馆,113.684968,34.716008
振兴路美食街,河南,郑州,新密市,0371,,郑煤集团总医院,振兴路尚慧跆拳道东南侧约60米,景点,步行街,113.404945,34.513023
石船,河南,郑州,登封市,0371,150****6692,登封市其他,太室路与少室路交叉口北50米嵩阳景区内,景点,更多景点/周边游,113.040374,34.499938
中州旅行社,河南,郑州,郑州,0371,180****8859,康桥商务广场,紫荆山与陇海路交叉口方圆创世大厦A座1913室,景点,旅行社,113.683077,34.740508
金水河源旅游度假区,河南,郑州,郑州,0371,65598888,二七区,华美石材路与河源东路交叉口向西500米路南附近,景点,自然风光,113.603423,34.638733
淘宝城美丽小铺,河南,郑州,巩义市,0371,188****2977,星月时代广场,新兴路建设路交叉口,景点,步行街,112.988066,34.756186
昆仑望岳艺术馆,河南,郑州,郑州,0371,56170000,儿童公园/凯旋门,华山路与颖河路交会处向西,景点,美术馆,113.596309,34.739924
伏羲大峡谷,河南,郑州,新密市,0371,69226789,新密市其他,尖山风景区月寨村,景点,自然风光,113.197117,34.608087
茶店文化广场,河南,郑州,巩义市,0371,64184617;156****9027,巩义市其他,新米路伟业装饰旁,景点,公园/广场,113.213671,34.689065
银基乐海水世界,河南,郑州,新密市,0371,4000178178;68538888,新密市其他,大鸿路银基国际旅游度假区内,景点,水上乐园,113.545594,34.480951
锦艺城海洋馆,河南,郑州,郑州,0371,67690888,锦艺城/王府井,棉纺西路锦艺城C区负一楼,景点,海洋馆,113.606567,34.763107
银基国际旅游度假区,河南,郑州,新密市,0371,4000178178,新密市其他,刘寨镇大鸿路1号,景点,主题乐园,113.550112,34.48351
嵩山传奇风洞飞行体验馆,河南,郑州,登封市,0371,53797727,登封市其他,卢崖瀑布景区,景点,游乐场,113.080307,34.479866
桥头夜市,河南,郑州,新密市,0371,69962218,新密市政府,新华路街道南密新路618号,景点,夜市,113.400643,34.536907
诚信旅行社,河南,郑州,巩义市,0371,64390999,巩义东区,滨河路横店电影城向南150米,景点,旅行社,113.014017,34.748967
康辉旅游,河南,郑州,郑州,0371,61172882,康桥商务广场,南仓街16-20号（陇海东路地铁站A口步行380米）,景点,旅行社,113.686797,34.737477
中国旅行社,河南,郑州,郑州,0371,63791221,陈砦,"(金水陈寨)文化北路3.文化北路3-2,文化路126号",景点,旅行社,113.660656,34.811096
大玉米58楼城市观光厅,河南,郑州,郑州,0371,68895858,郑东新区CBD,如意湖街道郑东新区CBD商务内环路与通泰路交叉口北400米（会展宾馆58楼）,景点,高空观景,113.727318,34.770851
足球公园,河南,郑州,郑州,0371,,国家森林公园/北龙湖,北三环东延线与众意路交叉口向南50米左右路西,景点,公园/广场,113.722798,34.804165
织机洞,河南,郑州,荥阳市,0371,,荥阳市其他,S232,景点,古代遗迹,113.330322,34.643052
天空明星蜡像馆,河南,郑州,郑州,0371,65333400,火车站/二七广场,德化街100号百年德化风情购物公园D区3层,景点,蜡像馆,113.665398,34.750931
竹林寺,河南,郑州,荥阳市,0371,151****2688,荥阳市其他,高山镇019县道太溪池东南200米,景点,宗教,113.240892,34.781116
可润农庄,河南,郑州,新密市,0371,56260825;56260826,新密市其他,郑州曲梁产业集聚区岗牛村,景点,更多景点/周边游,113.63222,34.558363
黄河彩虹谷,河南,郑州,荥阳市,0371,68211166,荥阳市其他,广武镇张庄村,景点,更多景点/周边游,113.443169,34.934608
大熊山仙人谷,河南,郑州,登封市,0371,62925666,登封市其他,徐庄镇013乡道附近,景点,自然风光,113.129526,34.280155
郑州商城游园,河南,郑州,郑州,0371,,西大街,北顺城街与商城路交叉口北100米,景点,公园/广场,113.672005,34.755555
万达金街,河南,郑州,郑州,0371,,正弘中心,花园路与农科路交叉口向西500米万达中心金街2-203室,景点,步行街,113.677132,34.792561
石榴园,河南,郑州,荥阳市,0371,135****1836,荥阳市其他,兴榴大道东南侧,景点,植物园,113.372643,34.952613
中唐国际旅行社,河南,郑州,新郑市,0371,136****1586,炎黄广场,新华路街道黄路小学西100米路北哈乐佛外语一楼,景点,旅行社,113.743288,34.399609
东配楼大会议室,河南,郑州,郑州,0371,,郑东新区CBD,金水东路农业南路交叉口河南省交通运输厅3层,景点,景点/周边游,113.756728,34.766458
长城艺术馆,河南,郑州,郑州,0371,,凤凰城/上悦城,郑汴路127号郑州上悦城F1层,景点,美术馆,113.715485,34.746288
郑州海外国际旅行社,河南,郑州,中牟县,0371,60219981,县政府,广惠街街道万胜路春和景明5,景点,旅行社,113.977955,34.715525
中瑞国际旅行社,河南,郑州,郑州,0371,86136688,人民路/紫荆山,花园路街道纬五路38号丽枫酒店6楼701室,景点,旅行社,113.686066,34.771576
石渠阁美术馆,河南,郑州,郑州,0371,,郑东新区CBD,商务东三街天下收藏文化街B1层,景点,美术馆,113.734351,34.772941
麻将广场,河南,郑州,新密市,0371,,新密市政府,新华路街道五四广场万客隆后,景点,公园/广场,113.39361,34.538059
茶祖宫,河南,郑州,郑州,0371,151****9369,金水区,商城东路唐人街文化广场C区155-156室,景点,景点/周边游,113.719933,34.754893
中州盆景园,河南,郑州,郑州,0371,,西元国际广场,西流湖公园（东北角）,景点,植物园,113.587551,34.769664
走天涯旅行社,河南,郑州,巩义市,0371,156****1286,巩义市其他,G310与政德路交叉口西北方向100米,景点,旅行社,112.946061,34.698251
郑州昌明奶牛科普乐园,河南,郑州,荥阳市,0371,138****1035,荥阳市其他,314省道高村乡刘铺头村,景点,特色乡村,113.354755,34.924742
河南中州盆景文化园,河南,郑州,郑州,0371,157****6576,二七区,宏西路西150米,景点,文化公园,113.529764,34.653852
河南大唐国际旅行社,河南,郑州,荥阳市,0371,,荥阳市其他,万业世纪广场北门东60米,景点,旅行社,113.418004,34.792854
福田佛堂,河南,郑州,荥阳市,0371,151****7717;155****6616,荥阳站,汜河路向阳小区东南侧约30米,景点,景点/周边游,113.390526,34.794624
郑州市东方翰典文化博物馆,河南,郑州,郑州,0371,66711666,省电视台,福彩路1号山顶大厦3楼,景点,博物馆,113.698914,34.807974
布行街,河南,郑州,郑州,0371,,二七区,大学南路与贺江路交叉口东北120米,景点,步行街,113.646,34.69726
大明展示,河南,郑州,郑州,0371,66883299;132****6388,东建材,中立国际广告材料市场C区5排3号,景点,展览馆,113.733743,34.744023
讲堂,河南,郑州,登封市,0371,,登封市其他,太室路与少室路交叉口北50米嵩阳景区嵩阳书院内,景点,宗教,113.033811,34.480774
陶瓷一条街,河南,郑州,郑州,0371,,普罗旺世/庙李,金杯路与信基路交叉口东150米,景点,步行街,113.630713,34.815203
关虎屯商业街,河南,郑州,郑州,0371,,国贸360,花园路39号,景点,步行街,113.679695,34.783169
三磨社区健身广场,河南,郑州,郑州,0371,,中原万达,中原路177号,景点,公园/广场,113.604773,34.747076
博盛国际玻璃艺术馆,河南,郑州,郑州,0371,139****3978,康桥商务广场,东明路75号裕丰国际酒店用品城A1030,景点,美术馆,113.69933,34.741179
李子秋艺术馆,河南,郑州,郑州,0371,,东建材,区郑东新区农业南路与七里河北路交叉口向西150米81号,景点,美术馆,113.755211,34.759331
善缘佛堂,河南,郑州,新郑市,0371,,新郑市其他,开源大道与013乡道交叉口北100米,景点,景点/周边游,113.689335,34.327305
河南新华展览中心,河南,郑州,郑州,0371,,经开区,经北二路35号,景点,展览馆,113.745289,34.725069
中方圆建机展厅,河南,郑州,荥阳市,0371,,荥阳市其他,郑上路方圆物流北150米,景点,展览馆,113.339002,34.804273
百鸟乐岛,河南,郑州,郑州,0371,,火车站/二七广场,郑州锦荣商贸城东五街8272号,景点,更多景点/周边游,113.669394,34.741304
旅游百事通,河南,郑州,郑州,0371,139****5488,儿童公园/凯旋门,汝河路工人路西耿河家园二号楼一单元,景点,旅行社,113.623197,34.732857
嵩顶滑雪度假区,河南,郑州,巩义市,0371,64464889,巩义市其他,夹津口镇卧龙村,景点,滑雪场,113.00398,34.531107
中港国旅,河南,郑州,荥阳市,0371,180****4777,建业购物广场,京城路与索河路交叉口旁,景点,旅行社,113.410962,34.786986
鸿雁国际旅行社,河南,郑州,中牟县,0371,153****6835,豫康新城,锦绣绿苑郑港七街,景点,旅行社,113.871642,34.557802
旅游百事通,河南,郑州,荥阳市,0371,139****0586,荥阳植物园,京城路与郑上路交叉口北140米,景点,旅行社,113.409826,34.776536
五云山品位生活馆,河南,郑州,荥阳市,0371,67313333,荥阳市其他,中原西路五云山大道166号,景点,景点/周边游,113.298729,34.751902
太室山,河南,郑州,登封市,0371,62745000;62830518,登封市其他,207国道嵩山风景名胜区内,景点,自然风光,113.046839,34.504629
狼城岗文化健身广场,河南,郑州,中牟县,0371,,中牟县其他,狼东路南50米,景点,公园/广场,114.191416,34.861894
众信旅游,河南,郑州,郑州,0371,180****7307,新世界百货,紫荆山路裕鸿国际A座1807室,景点,旅行社,113.682759,34.754166
郑州纺织工业博物馆,河南,郑州,郑州,0371,,锦艺城/王府井,棉纺西路,景点,博物馆,113.617714,34.760571
郑州雕塑公园,河南,郑州,郑州,0371,,高新区,化工路28号,景点,城市公园,113.590132,34.782977
郑州航空港清真寺,河南,郑州,新郑市,0371,135****0509,新郑机场,新港大道18号,景点,宗教,113.828817,34.520977
中博鉴藏,河南,郑州,郑州,0371,139****9159,郑东新区CBD,商务东三街天下收藏南区负1楼,景点,展览馆,113.73432,34.77053
图片展,河南,郑州,巩义市,0371,,巩义市其他,康百万庄园景区主宅区七院内,景点,人文古迹,112.94958,34.762985
杨业功德祠,河南,郑州,新密市,0371,,新密市其他,周甘路与梦祥路交叉路口西北侧,景点,人文古迹,113.446238,34.459493
常寨村抗日烈士纪念碑,河南,郑州,登封市,0371,,登封市其他,文颖线,景点,纪念公园,112.796566,34.418007
小院啤酒花园,河南,郑州,荥阳市,0371,64995333,荥阳市其他,洞林路,景点,广场,113.441813,34.674193
老梁夜市,河南,郑州,新密市,0371,136****1099,新密市其他,周甘路华夏铝材旁,景点,夜市,113.494641,34.443462
柴荣墓,河南,郑州,新郑市,0371,,新郑市其他,郭店镇陵后村村民委员会西南,景点,古代遗迹,113.702616,34.56083
苏秦墓,河南,郑州,巩义市,0371,,巩义市其他,南新街,景点,古代遗迹,112.866038,34.63953
新密市神雕文彩艺术工作室,河南,郑州,新密市,0371,135****7725,客运中心站,新华路街道南密新路259号两千家洗车对面,景点,美术馆,113.395515,34.522655
森玉树化石,河南,郑州,郑州,0371,,经开区,经北六路与经开第八大街交叉口东北140米,景点,景点/周边游,113.765893,34.734133
聋艺艺术馆,河南,郑州,郑州,0371,,凤凰城市广场,未来路与陇海东路交汇处东北角凤凰茶城内,景点,美术馆,113.704742,34.741119
华豫斋艺术馆,河南,郑州,郑州,0371,,郑东新区CBD,九如东路2-4号附近,景点,美术馆,113.734486,34.773106
三境堂,河南,郑州,登封市,0371,,嵩阳公园,七星街嵩阳公园东南侧约30米,景点,宗教,113.035007,34.470347
宣衡收藏会馆,河南,郑州,郑州,0371,,郑东新区CBD,天下收藏文化街北区3楼301室,景点,展览馆,113.734481,34.773109
樱花园,河南,郑州,郑州,0371,,郑州大学新校区,厚德大道与泊月路交叉口东北150米,景点,植物园,113.535194,34.813438
飞白视觉艺术,河南,郑州,郑州,0371,,郑东新区CBD,商务内环与九如东路交叉口天下收藏文化街南区3楼3088室,景点,博物馆,113.734694,34.772144
茅台酒文化展览馆,河南,郑州,郑州,0371,63386199,郑州东站,文化产业大厦b座1楼,景点,展览馆,113.769829,34.753838
河南省矿产品展销中心,河南,郑州,郑州,0371,,郑东新区CBD,金水东路15号万鼎商业广场1层,景点,展览馆,113.745232,34.764729
佩婷画廊,河南,郑州,郑州,0371,139****9489,丰业广场/千盛广场,丰产路附近,景点,美术馆,113.656736,34.783546
中国旅行社集团有限公司,河南,郑州,郑州,0371,158****6626,宝龙城市广场/熙地港,农业东路33号宝龙城市广场2F层,景点,旅行社,113.737381,34.78212
明山庙村文化广场,河南,郑州,中牟县,0371,,中牟县其他,223省道东50米,景点,公园/广场,114.029814,34.755572
柏庙文化广场,河南,郑州,上街区,0371,,上街区,五云路与018乡道交叉口西100米,景点,公园/广场,113.299893,34.770624
登封市文化馆三级馆拆迁过渡馆,河南,郑州,登封市,0371,,嵩阳公园,嵩山路113号,景点,展览馆,113.037598,34.473431
国际城市广场,河南,郑州,中牟县,0371,,豫康新城,雍州路,景点,公园/广场,113.859087,34.566977
昌隆长城,河南,郑州,郑州,0371,60242328,省电视台,汽配大世界13排南8号,景点,历史建筑,113.678864,34.812214
梅村文化广场,河南,郑州,登封市,0371,,登封市其他,梅村卫生室附近文颖线,景点,公园/广场,112.968569,34.409182
思源会馆,河南,郑州,新郑市,0371,,升达大学/中原工学院,龙湖镇文昌路1号,景点,展览馆,113.689949,34.594009
郑州电力职业技术学院文化广场,河南,郑州,中牟县,0371,,水岸鑫城,商都大街,景点,公园/广场,113.990603,34.721753
少林寺武术馆-纪念品展厅,河南,郑州,登封市,0371,,少林寺风景区,西北15公里处的嵩山少室山下嵩山少林风景区少林寺武术馆内,景点,展览馆,112.948383,34.510603
三泉湖景区,河南,郑州,新密市,0371,69226789,新密市其他,尖山村,景点,自然风光,113.223365,34.591214
彩虹盒子,河南,郑州,郑州,0371,19139970716,经开区,明湖街道第三大街与经北一路交叉口西二百米路北,景点,展览馆,113.744591,34.724037
中岳庙,河南,郑州,登封市,0371,62850819;62745000,登封市其他,中岳街道少林大道附近,景点,历史建筑,113.074083,34.457884
嵩阳书院,河南,郑州,登封市,0371,62830518,登封市其他,太室路与少室路交叉口北50米（嵩阳景区中岳嵩山进门右转200米）,景点,历史建筑,113.033561,34.480302
郑州彤润牡丹园,河南,郑州,新密市,0371,188****2084,新密市其他,321省道附近,景点,植物园,113.508815,34.526393
长江公园,河南,郑州,郑州,0371,,帝湖,航海西路街道桐柏南路,景点,公园/广场,113.613457,34.711372
巩义盘龙山,河南,郑州,巩义市,0371,,巩义市其他,涉村镇东北部,景点,自然风光,113.1001,34.636425
学梓公园,河南,郑州,郑州,0371,,正弘中心,信息学院路,景点,城市公园,113.661812,34.805183
途风国际旅行社,河南,郑州,郑州,0371,,郑州大学,大学路街道兴华北街12号院物业楼一楼,景点,旅行社,113.633268,34.745358
百事通国际旅行社有限公司巩义分公司,河南,郑州,巩义市,0371,85619522,宋陵公园,人民路宋陵大厦,景点,旅行社,112.984083,34.749363
大唐国际旅行社,河南,郑州,郑州,0371,,碧沙岗,建设路街道建设西路192号,景点,旅行社,113.619489,34.755135
五星水库,河南,郑州,新密市,0371,,新密市其他,卢沟村五星水库,景点,现代建筑,113.518547,34.537873
郑州园博园,河南,郑州,新郑市,0371,56818150;56818666,新郑市其他,龙王乡梁州大道与苑陵路交叉口东北500米,景点,植物园,113.871992,34.458939
龙湖公园,河南,郑州,郑州,0371,,国家森林公园/北龙湖,龙湖街道龙湖金融中心（龙源十三街隧道西）,景点,公园/广场,113.734723,34.814193
郑东新区市民体育公园,河南,郑州,郑州,0371,,体育公园,商都路街道创业路,景点,城市公园,113.764755,34.758404
中国旅行社总社河南有限公司,河南,郑州,郑州,0371,60994133,郑东新区CBD,如意湖街道格拉姆商务大厦B栋19F1920室,景点,旅行社,113.730779,34.778119
凌云温泉雁鸣轩,河南,郑州,中牟县,0371,,雁鸣湖镇,香漫湖路4号,景点,温泉,114.087341,34.853298
千稼集生态乐园,河南,郑州,新郑市,0371,85912022;85901916,新郑市其他,龙湖镇西泰山千稼集景区,景点,游乐场,113.636643,34.57944
中国航空港农业公园,河南,郑州,新郑市,0371,156****3588,新郑机场,龙王乡神州路润田农业开发公司向南100米路东,景点,动植物园,113.806141,34.456755
龙子湖公园,河南,郑州,郑州,0371,,龙子湖校区,龙子湖北路,景点,城市公园,113.805595,34.792149
偃月古城,河南,郑州,巩义市,0371,69591555;64575666,巩义市其他,河洛镇洛神路1号（近石窟寺、314省道）,景点,古村古镇,113.029554,34.805585
双鹤湖中央公园,河南,郑州,新郑市,0371,,新郑市其他,人民东路与梅河东路交汇处东北侧,景点,城市公园,113.852007,34.401348
旅游百事通,河南,郑州,新郑市,0371,,龙湖广场/升达大学,祥安路正弘御苑西北侧约60米,景点,旅行社,113.687354,34.604464
长寿山风情古镇,河南,郑州,巩义市,0371,64461789,巩义市其他,竹林镇长寿山景区内,景点,古村古镇,113.13826,34.695113
河南军安广场,河南,郑州,郑州,0371,60157683,农科路酒吧街,丰产路街道林科路与中州大道交叉口先帅之星下,景点,公园/广场,113.705752,34.788352
昌建博泰郑州国际汽车公园,河南,郑州,中牟县,0371,66220999,白沙镇,南三环与鹏程大道交会处西北角,景点,公园/广场,113.887502,34.700415
北京朝阳园,河南,郑州,中牟县,0371,,人民医院,刘集镇郑开大道与人文路交汇向南2000米中国绿化博览园内,景点,公园/广场,113.932526,34.751461
菲斯提尔湖畔,河南,郑州,郑州,0371,,郑东新区,赵兰庄向北两公里普兰斯薰衣草庄园内,景点,更多景点/周边游,113.714735,34.900027
文化苑,河南,郑州,郑州,0371,,黄河游览区,邙岭大道东150米,景点,公园/广场,113.527144,34.931074
枕烟庭,河南,郑州,登封市,0371,,登封市其他,嵩山国家风景名胜区中岳景区中国嵩山卢崖瀑布风景区内,景点,人文古迹,113.078059,34.486099
橙香榭,河南,郑州,郑州,0371,,国贸360,郑花路1号,景点,自然景观,113.683011,34.787314
南粤林苑,河南,郑州,中牟县,0371,,人民医院,郑开大道与人文路交汇向南2000米中国绿化博览园内,景点,公园/广场,113.935674,34.755587
吉林苑,河南,郑州,中牟县,0371,,人民医院,郑开大道与人文路交汇向南2000米中国绿化博览园内,景点,自然景观,113.935387,34.756277
康桥.艺墅公园,河南,郑州,中牟县,0371,,中牟县其他,广成街康桥公学幼儿园南侧约210米,景点,公园/广场,113.969267,34.781747
老街坊展示中心,河南,郑州,登封市,0371,,百货大楼/中天广场,嵩阳街道,景点,展览馆,113.030034,34.453575
商都遗址公园,河南,郑州,郑州,0371,,康桥商务广场,东大街与城东路交口西侧150米路南,景点,古代遗迹,113.690498,34.753765
龙浴湾温泉酒店,河南,郑州,郑州,0371,,二七区,嵩山南路,景点,温泉,113.628383,34.693928
红石林景区,河南,郑州,新密市,0371,69226789,新密市其他,尖山风景区管委会尖山村,景点,自然风光,113.256711,34.590493
银基冰雪世界,河南,郑州,新密市,0371,67006800;4000178178,新密市其他,郑尧高速轩辕丘出口西南5公里,景点,主题乐园,113.55508,34.479407
去哪儿旅行,河南,郑州,郑州,0371,55332227,冉屯路/五龙口,电厂路46号华强二期北门二楼2-46号,景点,旅行社,113.603329,34.790397
少林寺菩提院,河南,郑州,登封市,0371,137****0888,登封市其他,中岳街道少林大道东段1589号,景点,宗教,113.096401,34.452311
芝士旅行,河南,郑州,郑州,0371,4006268341,郑东新区CBD,商务东三街2层2048,景点,旅行社,113.734098,34.770658
郑州方特旅游度假区,河南,郑州,中牟县,0371,56928000;4001660006,刘集镇,郑开大道与人文路交汇处向南1·5公里处,景点,主题乐园,113.929453,34.765753
天祥博物馆,河南,郑州,郑州,0371,,工大新校区,东史马村任家大院,景点,博物馆,113.560951,34.8298
索须河湿地公园,河南,郑州,荥阳市,0371,,荥阳市其他,乔楼镇悦来西路与塔山路南100米路西,景点,城市公园,113.38778,34.723551
携程旅游,河南,郑州,郑州,0371,63388580;159****7200,万象城,民主路10号华润万象城1层底商,景点,旅行社,113.662079,34.754486
绿谷公园,河南,郑州,郑州,0371,,中原区,科学大道北50米,景点,城市公园,113.592164,34.80914
旅游百事通,河南,郑州,郑州,0371,86211366;86664951,康桥商务广场,陇海东路与未来路交叉口向西50米路北,景点,旅行社,113.703174,34.739542
尚岗杨遗址公园,河南,郑州,郑州,0371,,经开区,明湖街道机场高速及十七里河以东、航海路体育场以南、经南五路以北,景点,城市公园,113.729385,34.714516
洞林寺,河南,郑州,荥阳市,0371,,荥阳市其他,新田城维他左岸街20号东北方向190米,景点,宗教,113.494496,34.676093
浮戏古寨,河南,郑州,巩义市,0371,64184999,巩义市其他,新中镇浮戏山雪花洞风景区,景点,古代遗迹,113.195875,34.67773
郑州晨明生态园,河南,郑州,中牟县,0371,185****1566,中牟县其他,八岗镇台前村宏业路,景点,更多景点/周边游,113.945001,34.620945
翰墨林艺术馆,河南,郑州,上街区,0371,,上街区,峡窝镇丹江路与钟灵路文化小镇街道往西路北20号,景点,美术馆,113.275169,34.801849
中信国旅,河南,郑州,上街区,0371,157****7357,铝城公园,亚星世纪嘉园东南门旁,景点,旅行社,113.300644,34.799834
儿童居,河南,郑州,巩义市,0371,,巩义市其他,康百万庄园主宅区二院内,景点,景点/周边游,112.94952,34.76339
江南文化艺术园,河南,郑州,上街区,0371,68968222,铝城公园,许昌路亚星江南小镇,景点,美术馆,113.306,34.7994
新郑富沃庄园,河南,郑州,新郑市,0371,132****7866,新郑市其他,043乡道北靳楼村旁,景点,更多景点/周边游,113.57042,34.393508
国际会议厅,河南,郑州,郑州,0371,,祭城/大旺城,金水东路与心怡路交叉口向东楷林IFCC座4楼,景点,景点/周边游,113.772329,34.770579
新华画馆,河南,郑州,郑州,0371,185****8860,郑东新区CBD,九如东路天下收藏南区三楼3005室,景点,美术馆,113.734704,34.772054
中力广告创意产业园C区,河南,郑州,郑州,0371,,东建材,宏伟街与中力大道交叉口西南方向110米,景点,创意园区,113.73442,34.744205
凌霄会议中心,河南,郑州,郑州,0371,,元通纺织城,西四环与建设西路辅路交叉口西北420米,景点,景点/周边游,113.527725,34.765385
新龙源展示,河南,郑州,郑州,0371,158****6646,凤凰城/上悦城,郑汴路与未来路交叉口中原博览中心广告B区10号,景点,展览馆,113.711792,34.751472
大自然文化园,河南,郑州,登封市,0371,,登封一中/国际商贸城,颍河路登封文化城,景点,文化公园,113.020179,34.448119
三上成文,河南,郑州,巩义市,0371,,巩义市其他,康百万庄园景区主宅区六院内,景点,景点/周边游,112.949106,34.763146
轩辕湖公园,河南,郑州,新郑市,0371,,新村镇,中华路老年活动中心往西200米,景点,城市公园,113.745117,34.418346
布鲁塞尔儿童游乐场,河南,郑州,郑州,0371,,郑东新区,赵兰庄向北两公里普兰斯薰衣草庄园内,景点,游乐场,113.717334,34.899224
陈天然故居,河南,郑州,巩义市,0371,,巩义市其他,豫联工业园区005乡道,景点,名人故居,113.12619,34.790864
沙窝森林公园,河南,郑州,中牟县,0371,56569717;56569727,中牟县其他,朱固村南3公里沙窝驿站,景点,森林公园,114.097934,34.829312
二七纪念馆,河南,郑州,郑州,0371,66959799,火车站/二七广场,二七路230号二七广场（近火车站）,景点,纪念馆,113.666513,34.752191
伏羲古镇,河南,郑州,新密市,0371,,新密市其他,石尖路,景点,古村古镇,113.326462,34.599732
象湖生态湿地公园,河南,郑州,中牟县,0371,,刘集镇,前程大道与郑开大道交叉口西北角,景点,公园/广场,113.874794,34.779643
华豫之门民间收藏真品馆,河南,郑州,郑州,0371,136****5211,郑东新区CBD,天下收藏北区负一楼1123室,景点,展览馆,113.734401,34.773111
望水国际温泉酒店,河南,郑州,郑州,0371,55306789,白沙镇,祥瑞街100号,景点,温泉,113.851324,34.701254
棋盘山公园,河南,郑州,登封市,0371,,客运总站,嵩阳街道颍河路龙玺湾北,景点,公园/广场,113.050064,34.443672
灵宝寺河山苹果,河南,郑州,郑州,0371,155****1173,长江中路沿线,淮南街郑州市第七十四中学南侧约40米,景点,景点/周边游,113.636599,34.706709
酒店用品特色商业街,河南,郑州,郑州,0371,,康桥商务广场,陇海东路裕丰国际酒店用品城,景点,步行街,113.69818,34.739527
郑州市根雕壁画院,河南,郑州,郑州,0371,,儿童公园/凯旋门,嵩山南路66号,景点,美术馆,113.627722,34.744382
国龙绿城·怡园展示中心,河南,郑州,郑州,0371,,宝龙城市广场/熙地港,地润路4-18号,景点,展览馆,113.718688,34.788178
登封市市区子石玉道玉雕艺术馆,河南,郑州,登封市,0371,150****3070,登封一中/国际商贸城,嵩博花园东北门东南50米,景点,美术馆,113.024907,34.445987
8号会议室,河南,郑州,郑州,0371,,经开区,东三环青龙山庄南侧约60米,景点,景点/周边游,113.783444,34.732734
登封旅游咨询,河南,郑州,登封市,0371,,嵩阳公园,嵩阳路北段西侧嵩阳公园西门对面,景点,旅行社,113.032751,34.471191
过山车,河南,郑州,郑州,0371,,火车站/二七广场,二七路97号,景点,游乐场,113.659412,34.763182
华中书画艺术院,河南,郑州,郑州,0371,,长江中路沿线,南三环中原百姓广场C区三角广场36号二楼,景点,美术馆,113.631457,34.700807
郑州国际会展中心展览中心E区,河南,郑州,郑州,0371,,郑东新区CBD,郑东新区商务内环路中央公园1号郑州国际会展中心附近,景点,展览馆,113.730747,34.772317
海盗船,河南,郑州,郑州,0371,,农科路酒吧街,文化路街道地润路与众意西路交叉口向东30米,景点,游乐场,113.68605,34.788528
中岳庙-游客服务中心,河南,郑州,登封市,0371,,登封市其他,少林大道东段818号中岳庙内（南侧）,景点,公园/广场,113.07392,34.455478
观朴不同铁观音,河南,郑州,郑州,0371,136****6822,富田太阳城,明月路汇美茶城b区5号,景点,景点/周边游,113.712945,34.724295
体育嘉苑金街,河南,郑州,郑州,0371,,大石桥/体育场,黄河南街同乐路13号院西侧,景点,观光街区,113.660665,34.771655
高台古院,河南,郑州,新郑市,0371,,新郑市其他,郑州园博园（西南角）,景点,人文古迹,113.869491,34.455971
非遗城非物质文化遗产展馆,河南,郑州,郑州,0371,,郑东新区CBD,九如东路天下收藏南区北门,景点,展览馆,113.734335,34.772546
蓝堡湾贵人街,河南,郑州,郑州,0371,55679111,正弘中心,文博东路与东风路交叉路口往南约200米,景点,观光街区,113.673019,34.796459
河南省郑州文博城易源斋国学文化馆,河南,郑州,郑州,0371,,经开区,经北六路,景点,展览馆,113.768143,34.733819
西花厅,河南,郑州,巩义市,0371,,巩义市其他,康百万庄园景区主宅区三院内,景点,景点/周边游,112.949341,34.763336
内宅伙房,河南,郑州,巩义市,0371,,巩义市其他,康百万庄园内,景点,更多景点/周边游,112.949131,34.763201
郑州园博园东门游客服务中心,河南,郑州,新郑市,0371,,新郑市其他,管理路与园博东路交叉口北200米,景点,公园/广场,113.881291,34.458801
河南省通祥国际旅行社有限公司,河南,郑州,郑州,0371,,建文新世界,经五路10-3号附近,景点,旅行社,113.677836,34.772516
少林寺武僧禅院,河南,郑州,登封市,0371,137****8101,登封市其他,环山路嵩阳景区,景点,宗教,112.990819,34.493739
雕塑绘画,河南,郑州,巩义市,0371,,巩义市其他,康百万庄园主宅区内,景点,美术馆,112.949317,34.763079
登封窑,河南,郑州,登封市,0371,62750886,登封市其他,207国道与郑登快速路交叉口向南100米路东,景点,博物馆,113.002354,34.416247
八桂绿园,河南,郑州,中牟县,0371,,人民医院,郑开大道与人文路交汇向南2000米中国绿化博览园内,景点,植物园,113.935577,34.757797
法兰手植树,河南,郑州,登封市,0371,,登封市其他,太室路与少室路交叉口北50米嵩阳景区大法王寺内,景点,更多景点/周边游,113.026838,34.503628
砗磲缘艺术品交流中心,河南,郑州,郑州,0371,,郑东新区CBD,九如东路天下收藏文化街,景点,展览馆,113.734308,34.773022
树穴精灵,河南,郑州,郑州,0371,,陈砦,国基路86号郑州海洋馆加勒比小镇内,景点,更多景点/周边游,113.658286,34.819842
梦之旅中牟文化展览馆,河南,郑州,中牟县,0371,,人民医院,广惠街街道广惠街四牟园学苑路与映旭街交叉口西南200米,景点,陈列馆,113.949795,34.715448
郑州市雕塑艺术馆,河南,郑州,郑州,0371,67652045,高新区,西三环湖新园北侧约70米,景点,美术馆,113.586487,34.765427
和润书画中国艺术馆,河南,郑州,郑州,0371,132****0018,郑州东站,商鼎路心怡路升龙广场2号楼1单元604室,景点,美术馆,113.770676,34.757416
集美展示厅,河南,郑州,郑州,0371,,火车站/二七广场,西大街236号附近,景点,展览馆,113.676536,34.749884
天下第一枣,河南,郑州,中牟县,0371,,人民医院,郑开大道与人文路交汇向南2000米中国绿化博览园内,景点,景点/周边游,113.936722,34.7537
郑州国际会展中心展览中心A区,河南,郑州,郑州,0371,68089988,郑东新区CBD,如意湖街道会展路与商务东五街交叉口西北150米,景点,展览馆,113.730125,34.770634
贵宾室,河南,郑州,巩义市,0371,,巩义市其他,康百万庄园栈房区内,景点,更多景点/周边游,112.950325,34.763405
中国天文博物院,河南,郑州,登封市,0371,,登封市其他,城东南12公里的告城镇周公庙观星台内,景点,博物馆,113.147148,34.400875
东街,河南,郑州,郑州,0371,,金水区,商城东路东街,景点,观光街区,113.720526,34.753156
裤子一条街,河南,郑州,郑州,0371,180****9388,火车站/二七广场,弓背街管城花园小区5号楼2单元4层25号-银基商贸城对面,景点,步行街,113.667791,34.745403
科迪食文化广场,河南,郑州,巩义市,0371,,巩义东区,嵩山路皇家花园,景点,广场,113.019558,34.759076
赵口闸门,河南,郑州,中牟县,0371,,中牟县其他,平顺路与昌盛路交叉口西北480米,景点,观光街区,113.971729,34.899579
登封国旅散客接待部,河南,郑州,登封市,0371,,少林寺风景区,西北15公里处的嵩山少室山下嵩山少林风景区内,景点,旅行社,112.953352,34.514902
玫瑰园,河南,郑州,郑州,0371,,郑东新区,赵兰庄向北两公里普兰斯薰衣草庄园内,景点,植物园,113.718067,34.899557
风景林,河南,郑州,巩义市,0371,,宋陵公园,杜甫路84号永昭陵内,景点,自然风光,112.987117,34.741357
河南旅游集团有限公司,河南,郑州,郑州,0371,159****3257,富田太阳城,未来路815号A座6号,景点,旅行社,113.705926,34.730126
旅游百事通经开区第五大街服务网点,河南,郑州,郑州,0371,,经开区,航海路第五大街交叉口国安经贸大厦6层,景点,旅行社,113.754757,34.721347
阳光商业街D区,河南,郑州,郑州,0371,,省电视台,阳光新城（中州大道西）,景点,步行街,113.704601,34.798451
郑东新区规划展览馆,河南,郑州,郑州,0371,,郑东新区CBD,商务外环路24号（中央商务区地铁站A2口步行430米）,景点,陈列馆,113.736223,34.773413
爱的情商乐园,河南,郑州,登封市,0371,,登封一中/国际商贸城,爱的幼儿园集团总部北门旁,景点,主题公园,113.021039,34.455589
荥阳书画院,河南,郑州,荥阳市,0371,,荥阳植物园,京城南路031号荥阳人民公园内,景点,美术馆,113.406836,34.770828
大河啤酒夜市广场,河南,郑州,郑州,0371,65952222,经三路沿线,政七街4号附1号,景点,广场,113.687584,34.777134
张凌超艺术馆,河南,郑州,荥阳市,0371,,荥阳植物园,禹锡路与金山大道交叉口东北150米,景点,美术馆,113.413175,34.769205
桔子水晶.会展中心,河南,郑州,郑州,0371,,东建材,商都路十里铺街12号城工大厦西,景点,景点/周边游,113.728616,34.744716
藏经阁,河南,郑州,登封市,0371,,登封市其他,太室路与少室路交叉口北50米嵩阳景区大法王寺内,景点,更多景点/周边游,113.026996,34.505006
高表,河南,郑州,登封市,0371,,登封市其他,城东南12公里的告城镇周公庙观星台内,景点,景点/周边游,113.147232,34.401481
贵金天地展示中心,河南,郑州,新郑市,0371,,人民路,人民路中信银行东100米,景点,展览馆,113.744118,34.395548
生命之源,河南,郑州,中牟县,0371,,人民医院,郑开大道与人文路交汇向南2000米中国绿化博览园内,景点,更多景点/周边游,113.928455,34.756739
瓷器展,河南,郑州,巩义市,0371,,巩义市其他,康百万庄园景区主宅区四院内,景点,更多景点/周边游,112.949258,34.763492
文职居室,河南,郑州,巩义市,0371,,巩义市其他,康百万庄园景区主宅区三院内,景点,更多景点/周边游,112.949411,34.763391
北大清真寺,河南,郑州,郑州,0371,,火车站/二七广场,清真寺街128号,景点,宗教,113.678862,34.755233
宋太宗永熙陵,河南,郑州,巩义市,0371,,回郭镇,宋陵东街-永熙陵（郑州市巩义市西村镇）,景点,古代遗迹,112.950715,34.67096
豫西抗日根据地纪念馆,河南,郑州,巩义市,0371,64188788,巩义市其他,新中镇010乡道西100米,景点,纪念馆,113.197275,34.69588
巩义窑址,河南,郑州,巩义市,0371,,巩义市其他,北山口镇东约5公里的白河两岸,景点,古代遗迹,113.046989,34.735049
悠游水上乐园,河南,郑州,新郑市,0371,175****5138,新郑市其他,航空港区好想你金鹭鸵鸟游乐园内,景点,水上乐园,113.819358,34.55814
马寨镇杨寨商业步行街,河南,郑州,郑州,0371,132****3546,马寨镇,同兴街185号,景点,步行街,113.526673,34.708923
北京凯撒国际旅行社有限责任公司郑州分公司,河南,郑州,郑州,0371,86580808,曼哈顿广场/英协路,金水路226号楷林国际13层1316室,景点,旅行社,113.717913,34.763173
童吉星儿童亲自乐园,河南,郑州,新郑市,0371,62552662,新郑市其他,新梨街新郑市梨河镇七里堂完全小学东北侧约40米,景点,游乐场,113.738386,34.352736
中原英烈纪念馆,河南,郑州,郑州,0371,69389738,帝湖,工人路与丹青路交叉口向东100米,景点,纪念馆,113.622725,34.708548
寻木馆,河南,郑州,郑州,0371,,汽车东站,商都路22号d10号楼1层,景点,博物馆,113.756127,34.748996
梦幻海洋馆,河南,郑州,新郑市,0371,,新郑市其他,溱水路北100米,景点,动植物园,113.639012,34.575721
E美旅业,河南,郑州,郑州,0371,,经三路沿线,黄河路和中州大道交叉口金成时代广场9号楼,景点,旅行社,113.708649,34.777239
超化寺,河南,郑州,新密市,0371,187****7799,新密市其他,王超路,景点,宗教,113.397408,34.452423
东虢湖,河南,郑州,上街区,0371,,上街区,蓝天路附近,景点,自然风光,113.287704,34.831784
西泰山欢乐园,河南,郑州,新郑市,0371,130****8786,新郑市其他,会盟大道和马武路的交叉口附近,景点,游乐场,113.646036,34.584096
千米一观,河南,郑州,新密市,0371,,新密市其他,大方山,景点,更多景点/周边游,113.197636,34.563006
爱丽丝公园,河南,郑州,郑州,0371,,普罗旺世/庙李,国基路一八中学旁边,景点,公园/广场,113.635479,34.821166
任家古宅,河南,郑州,郑州,0371,,工大新校区,白桦街75号东史马小区旁,景点,历史建筑,113.560692,34.829933
山海美术馆,河南,郑州,郑州,0371,177****0783,丹尼斯·大卫城,西太康路58号新田360广场L302,景点,美术馆,113.66261,34.75806
A+元宇宙体验馆,河南,郑州,郑州,0371,56652666,火车站/二七广场,德化街36号无限城购物中心负一楼b132a,景点,展览馆,113.666092,34.749371
河南省当代艺术馆,河南,郑州,新密市,0371,66720567;186****9977,新密市其他,圣水峪1号,景点,美术馆,113.514251,34.614271
星空书画艺术馆,河南,郑州,登封市,0371,155****7188,嵩阳公园,嵩山路113号东馆负1楼,景点,美术馆,113.037604,34.473474
魏唐石刻,河南,郑州,郑州,0371,139****4450,经开区,文博城西九楼1F-19室,景点,人文古迹,113.763651,34.734381
小画童美术馆,河南,郑州,郑州,0371,186****2766;135****2754,冉屯路/五龙口,天悦龙庭1号楼临街门面,景点,美术馆,113.605273,34.777043
大唐国际旅行社,河南,郑州,中牟县,0371,133****3360,沃金/山顶福都,南街丽水宫南100米,景点,旅行社,113.886051,34.552751
猛犸跳伞俱乐部,河南,郑州,上街区,0371,139****4358,上街区,蓝天路与航空港路交叉口北侧上街机场内,景点,更多景点/周边游,113.276884,34.837184
宇华福苑展示处,河南,郑州,巩义市,0371,,汽车站,杜甫路与310国道交叉口东150米,景点,展览馆,112.996525,34.739225
草食区,河南,郑州,郑州,0371,,农科路酒吧街,花园路103号正北方向10米,景点,动物园,113.684909,34.791399
迎客厅,河南,郑州,巩义市,0371,,巩义市其他,区西3公里处康店镇康百万庄园栈房区内,景点,更多景点/周边游,112.950479,34.763389
千年枣树,河南,郑州,新郑市,0371,,轩辕故里,轩辕路1号黄帝故里内（北侧）,景点,景点/周边游,113.726548,34.402503
石泉寺,河南,郑州,荥阳市,0371,180****6305,荥阳市其他,石棚村南口,景点,宗教,113.407484,34.668201
生命与健康科学馆,河南,郑州,郑州,0371,136****1894,黄河游览区,江山路黄河南岸188号,景点,科技馆,113.535732,34.93251
孤柏渡黄河塬休闲旅游区,河南,郑州,荥阳市,0371,85097111,荥阳市其他,沿黄快速路樱花大道向北,景点,自然风光,113.241396,34.89369
正方案,河南,郑州,登封市,0371,,登封市其他,城东南12公里的告城镇周公庙观星台内,景点,更多景点/周边游,113.147235,34.401625
储物,河南,郑州,巩义市,0371,,巩义市其他,区西3公里处康店镇康百万庄园栈房区内,景点,人文古迹,112.950785,34.763555
商代亳都都城内城北城遗址,河南,郑州,郑州,0371,,人民路/紫荆山,人民路与金水路交叉口西南角,景点,古代遗迹,113.679708,34.763588
好想你金鹭鸵鸟游乐园,河南,郑州,新郑市,0371,66873298,新郑市其他,新孟路中段谢新线好想你金鹭鸵鸟园,景点,动物园,113.821064,34.555791
天悦滨河广场,河南,郑州,郑州,0371,,陈寨/张家村,魏河北路与普庆路交叉口东140米,景点,公园/广场,113.648153,34.839248
风雅广场,河南,郑州,郑州,0371,,龙子湖校区,金水东路180号河南财经政法大学郑东校区,景点,公园/广场,113.82221,34.782023
明德广场,河南,郑州,郑州,0371,,龙子湖校区,内环西路与明德路交叉口东100米,景点,广场,113.820129,34.77935
足球公园,河南,郑州,郑州,0371,,二七区,侯寨街道侯张线东100米,景点,公园/广场,113.584165,34.616318
郑州市金水区山清水秀温泉酒店,河南,郑州,郑州,0371,55552888,国贸360,文化路街道农业路与花园路交叉口西行100米路北,景点,温泉,113.679276,34.787013
昌平广场,河南,郑州,新密市,0371,,新密市其他,016乡道西50米,景点,公园/广场,113.296787,34.561984
元正置业广场,河南,郑州,荥阳市,0371,,荥阳站,成皋路与益民街交叉口东南120米,景点,公园/广场,113.382115,34.792703
三峡环坝旅游发展集团,河南,郑州,郑州,0371,,金水区,经八路街道经七路43-11,景点,旅行社,113.672405,34.768185
去哪儿旅行社,河南,郑州,郑州,0371,60999091;150****5760,瑞达路沿线,科学大道瑞达路正弘高新数码港西悦城LOFT3单元14层278室,景点,旅行社,113.566686,34.806731
星工场绘画艺术馆,河南,郑州,中牟县,0371,158****0580,人民医院,东润朗郡北门16号楼,景点,美术馆,113.960831,34.722594
荒岛艺术馆,河南,郑州,新郑市,0371,62568773,升达大学/中原工学院,祥安路文昌路路东学府花园,景点,美术馆,113.688714,34.603344
芒砀山,河南,郑州,郑州,0371,61369099,金水路/省政府,政三街4-附3号,景点,旅行社,113.682536,34.764474
海南海景旅居展示中心,河南,郑州,郑州,0371,,宝龙城市广场/熙地港,九如东路永威翰林居西侧约50米,景点,展览馆,113.742875,34.778225
少林寺演武厅功夫表演团,河南,郑州,登封市,0371,131****2888,少林寺风景区,嵩山少林风景区内,景点,旅游项目/观光项目,112.947673,34.510643
长安古寨,河南,郑州,郑州,0371,61285558,二七区,上李河社区牛王庙嘴村001号建业中原文化小镇樱桃沟足球小镇,景点,仿古建筑,113.582117,34.618518
宏光.百花里,河南,郑州,郑州,0371,,曼哈顿广场/英协路,黑庄路与中州大道交叉路口往西南约100米（宏光协和城邦北侧）,景点,步行街,113.717291,34.767291
袋鼠馆,河南,郑州,郑州,0371,,国贸360,花园路103号郑州市动物园,景点,动物园,113.686673,34.787383
朱屯基督教堂,河南,郑州,郑州,0371,,月季公园,桐柏路煤仓北街交叉口向东150米嵩岳小区,景点,宗教,113.619989,34.772429
大河行船,河南,郑州,巩义市,0371,,巩义市其他,西3公里处康店镇康百万庄园内（北侧）,景点,景点/周边游,112.950591,34.763791
伏羲山旅游区,河南,郑州,新密市,0371,69226789,新密市其他,月寨村,景点,自然风光,113.231348,34.604157
苗圃教会,河南,郑州,郑州,0371,,火车站/二七广场,苗圃街9号,景点,宗教,113.666692,34.730312
瑞光创意工厂,河南,郑州,郑州,0371,65510666,医学院,瑞光路,景点,创意园区,113.638549,34.762975
古考场院,河南,郑州,登封市,0371,,登封市其他,太室路与少室路交叉口北50米嵩阳景区嵩阳书院内,景点,更多景点/周边游,113.033363,34.480255
途牛旅游,河南,郑州,郑州,0371,,中原万达,中原中路万达b1层,景点,旅行社,113.600861,34.74646
中信国旅,河南,郑州,郑州,0371,185****2807,新世界百货,城北路紫荆山路8号,景点,旅行社,113.682505,34.756095
建业电影小镇,河南,郑州,中牟县,0371,62169000;4000001931,中牟县其他,郑开大道与文创路交叉口南200米路东,景点,影视基地,113.999573,34.774601
携程旅游,河南,郑州,郑州,0371,180****5352;138****6046,锦艺城/王府井,棉纺西路23号锦艺城购物中心B区3层,景点,旅行社,113.612508,34.761568
中信广场展示中心,河南,郑州,郑州,0371,67635111,中原万达,中原路西三环交汇处向东300米路北,景点,展览馆,113.589287,34.747826
巩义市烈士陵园,河南,郑州,巩义市,0371,69585016;135****9166,巩义市其他,310国道东100米,景点,烈士陵园,113.000157,34.712839
木器,河南,郑州,巩义市,0371,,巩义市其他,康百万庄园景区主宅区四院内,景点,人文古迹,112.949283,34.763343
龙山寨,河南,郑州,荥阳市,0371,,荥阳市其他,口子村,景点,更多景点/周边游,113.206252,34.85726
河南永安国际旅行社,河南,郑州,登封市,0371,150****6788,登封市其他,南一环与菜园路交叉口向西50米路南,景点,旅行社,113.039894,34.443904
中国创意谷,河南,郑州,郑州,0371,,陈寨/张家村,国基路60号国家知识产权创意产业试点园区,景点,创意园区,113.672014,34.819794
十八城记,河南,郑州,郑州,0371,132****2952,火车站/二七广场,德化街10号,景点,展览馆,113.666447,34.751068
二七历史文化展览馆,河南,郑州,郑州,0371,,火车站/二七广场,德化街68号,景点,博物馆,113.666611,34.751381
申航船王,河南,郑州,郑州,0371,,火车站/二七广场,乔家门路1号郑州大观国贸F4层,景点,景点/周边游,113.667267,34.742775
万创御府展示中心,河南,郑州,新密市,0371,,行政服务中心,未来大道与互助街交叉口北140米,景点,展览馆,113.337338,34.530518
印象国旅,河南,郑州,郑州,0371,63838779,碧沙岗,友爱路与嵩山北路交叉口西120米,景点,旅行社,113.626964,34.752864
旅游百事通,河南,郑州,登封市,0371,166****7334,登封市其他,少林大道月河花园,景点,旅行社,113.152596,34.458046
良库老街,河南,郑州,郑州,0371,,省体中心/裕华广场,长兴路街道,景点,步行街,113.61626,34.813279
雁鸣湖镇游客服务中心,河南,郑州,中牟县,0371,62320859,雁鸣湖镇,雁鸣大道,景点,公园/广场,114.065263,34.843904
山羊公园,河南,郑州,郑州,0371,177****5866,科学大道,科学大道88号靠近升龙又一城商业广场,景点,公园/广场,113.550004,34.804724
北欧智乐园,河南,郑州,郑州,0371,61285558,二七区,建业足球小镇,景点,游乐场,113.582482,34.62126
崖柏展厅艺术生活美学馆,河南,郑州,郑州,0371,,经开区,经北六路长盛广场东北侧约210米,景点,美术馆,113.765517,34.733667
永安国旅,河南,郑州,登封市,0371,62803399,嵩山一号,崇高路崇福路交叉口向北50米路东,景点,旅行社,113.045961,34.463291
百客街,河南,郑州,登封市,0371,,百货大楼/中天广场,东关街大厦豪邸西南侧约130米,景点,步行街,113.037368,34.456738
广进PAMA国际名品街,河南,郑州,郑州,0371,,曼哈顿广场/英协路,民航路与中州大道辅路交叉口西南60米,景点,观光街区,113.719951,34.765741
世袭·人物,河南,郑州,巩义市,0371,,巩义市其他,康百万庄园景区主宅区三院内,景点,博物馆,112.949296,34.763517
大河文化博览园,河南,郑州,郑州,0371,,柳林刘庄,花园北路（弓庄新社区东南侧约250米）,景点,展览馆,113.678588,34.850903
金银库,河南,郑州,巩义市,0371,,巩义市其他,区西3公里处康店镇康百万庄园栈房区内,景点,更多景点/周边游,112.950178,34.763516
三水轩画廊,河南,郑州,郑州,0371,,国贸360,经五路与红旗路交又口中原古玩城二楼4排1号,景点,美术馆,113.678312,34.777752
观星台景区-游客服务中心,河南,郑州,登封市,0371,,登封市其他,城东南12公里的告城镇周公庙内,景点,更多景点/周边游,113.147633,34.398683
范家门景区,河南,郑州,登封市,0371,62788888,登封市其他,唐庄镇范家门村13号,景点,自然风光,113.101737,34.561773
河南省中国青年旅行社,河南,郑州,登封市,0371,62822111,登封市其他,磴槽弘园西2门旁,景点,旅行社,113.083164,34.456614
康辉旅游,河南,郑州,登封市,0371,,登封一中/国际商贸城,嵩景花园西南1门东90米,景点,旅行社,113.029389,34.445759
郑州海外国际旅行社,河南,郑州,登封市,0371,62713066,登封一中/国际商贸城,颍河路鑫鑫华苑,景点,旅行社,113.024569,34.449029
鸿雁国旅业务咨询,河南,郑州,登封市,0371,156****0509,登封市其他,343国道与迎君大道交叉口西160米,景点,旅行社,112.812784,34.396924
弄堂艺术工作室,河南,郑州,郑州,0371,,医学院,二环支路瑞光路瑞光创意工厂,景点,美术馆,113.638705,34.763405
武夷山大世界,河南,郑州,郑州,0371,183****5550,凤凰城市广场,未来路青年路凤凰茶城二楼C-15,景点,景点/周边游,113.705102,34.741046
中青国际旅行社,河南,郑州,新郑市,0371,153****3155,华南城/高坡岩,华南城一号交易广场东五门领城公园12商106号,景点,旅行社,113.730955,34.606935
大熊山摘星楼风景区,河南,郑州,登封市,0371,56510567,登封市其他,徐庄镇王保庄村,景点,自然风光,113.106337,34.272026
走天涯旅行社,河南,郑州,巩义市,0371,138****2496,巩义市其他,东大街与235省道交叉口南40米,景点,旅行社,113.061626,34.612786
走天涯旅行社,河南,郑州,巩义市,0371,155****6965,巩义市其他,永安路179号,景点,旅行社,112.961345,34.647155
魔幻艺术体验馆,河南,郑州,郑州,0371,135****1066;158****8685,火车站/二七广场,二七路230号郑州华联商厦3层（二七广场地铁站H口旁）,景点,展览馆,113.665796,34.753006
筷子国际旅行社,河南,郑州,巩义市,0371,156****7888,回郭镇,文昌路与人民路交叉路口东北侧,景点,旅行社,112.886456,34.680966
大唐国旅,河南,郑州,巩义市,0371,137****1731,回郭镇,金泰购物中心,景点,旅行社,112.860342,34.67821
旅游百事通,河南,郑州,巩义市,0371,156****6288,回郭镇,人民路龙祥花苑,景点,旅行社,112.872112,34.680222
搁笔潭,河南,郑州,登封市,0371,,登封市其他,嵩山国家风景名胜区中岳景区中国嵩山卢崖瀑布风景区内,景点,自然景观,113.078766,34.483604
藏葡萄树,河南,郑州,巩义市,0371,,巩义市其他,康百万庄园景区主宅区二院内,景点,景点/周边游,112.949662,34.763311
森林公园,河南,郑州,郑州,0371,,国家森林公园/北龙湖,中州大道辅路与森林公园南路交叉口,景点,森林公园,113.70826,34.812755
洲际假日旅行社,河南,郑州,新郑市,0371,135****8222,炎黄广场,人民路体育场院内,景点,旅行社,113.744868,34.393778
河南筷子国际旅行社,河南,郑州,新郑市,0371,186****5369,炎黄广场,人民路,景点,旅行社,113.738811,34.395233
红巢,河南,郑州,郑州,0371,4000567355;188****6138,东建材,商都路5号满圆红(郑州店)F1层,景点,美术馆,113.737967,34.747747
旅游百事通。,河南,郑州,中牟县,0371,62266100;159****5746,九龙镇,九龙医院北门旁,景点,旅行社,113.851555,34.682395
古井,河南,郑州,登封市,0371,,登封市其他,太室路与嵩阳路交叉路口往东北约100米嵩阳书院,景点,景点/周边游,113.033441,34.479701
柳州螺蛳粉布厂街,河南,郑州,郑州,0371,,火车站/二七广场,布厂街19号布厂街与陇海路交叉口向南200米路东,景点,步行街,113.668194,34.738665
团练,河南,郑州,巩义市,0371,,巩义市其他,康百万庄园景区主宅区六院内,景点,人文古迹,112.949143,34.763075
仟禧厚街,河南,郑州,郑州,0371,,瑞达路沿线,科学大道,景点,观光街区,113.576418,34.806762
石王府,河南,郑州,郑州,0371,68014696,金水区,商城东路唐人街文化广场A区316号,景点,历史建筑,113.719471,34.753861
永安国旅,河南,郑州,荥阳市,0371,187****4333;131****4000,荥阳图书馆,索河西路67号,景点,旅行社,113.378073,34.787643
FUTURE ZOO未来动物城,河南,郑州,郑州,0371,139****9083,正弘中心,东风路街道花园路和东风路交叉口正弘城3楼,景点,动植物园,113.680733,34.7953
华夏温泉商务酒店,河南,郑州,新郑市,0371,,新郑市其他,G310,景点,温泉,113.671961,34.628041
栖棠博物馆,河南,郑州,郑州,0371,60943618,惠济区,南阳路与北三环交叉口西300米路北,景点,博物馆,113.615662,34.813026
唐岗水库,河南,郑州,荥阳市,0371,,荥阳市其他,广武镇,景点,现代建筑,113.413532,34.885132
途牛旅游,河南,郑州,郑州,0371,136****2378,富田太阳城,航海东路美景万科龙堂商场2楼,景点,旅行社,113.718849,34.721642
中文旅游,河南,郑州,郑州,0371,,二七万达,兴华南街汉江路东50米路南,景点,旅行社,113.633665,34.715155
华人国际旅游集团,河南,郑州,郑州,0371,86631681,升龙广场,政通路与人和路交叉口东北角升龙商业广场活力街区F3层,景点,旅行社,113.643162,34.725072
花的旅程,河南,郑州,郑州,0371,177****6775,金水路/省政府,政一街6号东北60米,景点,旅行社,113.687793,34.76755
新郑盈科国际旅行社,河南,郑州,新郑市,0371,131****9391,新村镇,郑州工业应用技术学院(西校区)大学生创业孵化园705室,景点,旅行社,113.710894,34.429541
新郑双鹤湖国家湿地公园,河南,郑州,新郑市,0371,,炎黄广场,鹤首路,景点,城市公园,113.740571,34.395561
携程旅游,河南,郑州,郑州,0371,66637775,裕达国贸,伊河路与工人路交叉口向西200米路南3号楼门面3楼附20室,景点,旅行社,113.617781,34.742286
郑州牟山湿地公园,河南,郑州,中牟县,0371,,中牟县其他,清阳环道,景点,城市公园,114.020787,34.764658
蝶湖公园,河南,郑州,郑州,0371,66786968,经开区,经济技术开发区潮河北环路,景点,公园/广场,113.778075,34.684708
康辉旅游体验店,河南,郑州,郑州,0371,158****2319,锦艺城/王府井,棉纺路桐柏路交叉口西北角锦艺国际企业中心A座801室,景点,旅行社,113.613045,34.761292
郑州翔鹏旅行社,河南,郑州,荥阳市,0371,64600080,荥阳汽车站,京城路街道祥瑞花园东（河阴路）,景点,旅行社,113.394672,34.782392
天天国际旅行社,河南,郑州,荥阳市,0371,155****0068,荥阳图书馆,万山路187-9号,景点,旅行社,113.384959,34.784899
河南中州国际旅行社,河南,郑州,郑州,0371,180****8618,火车站/二七广场,大学路渔果市集一楼进口处,景点,旅行社,113.64433,34.748194
携程旅游,河南,郑州,郑州,0371,156****8006,儿童公园/凯旋门,工人路汝河路交叉口向东20米路北二楼,景点,旅行社,113.622538,34.732878
豫中旅国际旅行社,河南,郑州,荥阳市,0371,61096109;138****6016,荥阳汽车站,演武路水利局东10米,景点,旅行社,113.387434,34.790349
七里河公园,河南,郑州,郑州,0371,,东建材,祭城路街道客文一街与七里河围和处,景点,公园/广场,113.752588,34.75792
青年国际旅行社,河南,郑州,荥阳市,0371,150****2611,荥阳汽车站,万山路天河名苑,景点,旅行社,113.384803,34.780593
瓦屋李民俗小吃街,河南,郑州,郑州,0371,177****1201,高新区,科学大道与瑞达路交叉路口往东南约50米,景点,步行街,113.570914,34.807114
华夏旺族教育共享艺术馆,河南,郑州,郑州,0371,19913883296,陈砦,四月天小学北门对面,景点,美术馆,113.654692,34.820842
千稼集会议中心,河南,郑州,新郑市,0371,,新郑市其他,泰山路南100米,景点,景点/周边游,113.638262,34.58103
塔山旅游度假区,河南,郑州,荥阳市,0371,66315999,荥阳市其他,古城社区南300米,景点,自然景观,113.401087,34.648697
中岳旅行社,河南,郑州,登封市,0371,150****5220,嵩阳公园,滨河路汉庭酒店(书院店)东侧约70米,景点,旅行社,113.041976,34.464885
旅游百事通,河南,郑州,郑州,0371,132****2655,锦艺城/王府井,五一公园地铁H口东侧约20米（建设西路与桐柏北路交叉口东侧）,景点,旅行社,113.614751,34.756051
龙湖城市湿地公园,河南,郑州,新郑市,0371,,新郑市其他,祥云路与滨湖路交叉口东北950米,景点,城市公园,113.712818,34.632892
乱石坡油菜花区,河南,郑州,新密市,0371,138****5892,新密市其他,袁庄乡乱石坡村,景点,植物园,113.439765,34.598048
携程旅游,河南,郑州,郑州,0371,180****7799,碧沙岗,文化宫路69号,景点,旅行社,113.616735,34.753984
高铁公园,河南,郑州,郑州,0371,,龙子湖校区,东三环与相济路交叉口,景点,公园/广场,113.777509,34.788707
荥阳滨河公园,河南,郑州,荥阳市,0371,,荥阳市其他,索河路,景点,城市公园,113.449656,34.790321
康辉旅游,河南,郑州,郑州,0371,130****5595,二七万达,大学南路8号万达广场(郑州二七店)B1,景点,旅行社,113.643417,34.717419
中国旅行社河南有限公司,河南,郑州,郑州,0371,133****7133,升龙广场,淮河路街道航海中路升龙二七中心A座6层611号,景点,旅行社,113.632425,34.720885
Ins创意潮拍·网红公园,河南,郑州,郑州,0371,185****7498,大上海城,东太康路28号大上海城F1层C1-12A/12B,景点,展览馆,113.668463,34.75654
永安国旅,河南,郑州,荥阳市,0371,64905678,荥阳市其他,X036荥阳农商银行(高村支行)北侧约240米,景点,旅行社,113.372245,34.891175
河南环之球旅行社,河南,郑州,郑州,0371,150****9712;132****2269,黄河游览区,大河路郑州市惠济区古荥中心小学北侧约200米,景点,旅行社,113.541279,34.879069
仙女岛美肤管理,河南,郑州,郑州,0371,187****1988,汽车东站,康平路郑东商业中心b区10栋1楼113号,景点,自然风光,113.76004,34.742374
中州国际旅行社,河南,郑州,上街区,0371,,廿峡线,汝南路周艳红私家童装南侧,景点,旅行社,113.292132,34.805692
后周皇陵,河南,郑州,新郑市,0371,,新郑市其他,郭店镇陵上村,景点,古代遗迹,113.702619,34.560843
建业中原文化小镇,河南,郑州,郑州,0371,61285558,二七区,上李河社区牛王庙嘴村001号,景点,现代小镇,113.581699,34.618549
以色列国家馆,河南,郑州,郑州,0371,,经开区,经开第九大街与经北一路交叉路口往东南约50米,景点,展览馆,113.772238,34.724888
书香天下国学艺术馆,河南,郑州,郑州,0371,86082931,东建材,千宁街与兴荣街交叉路口往南约60米,景点,美术馆,113.741985,34.757175
安泰汤泉,河南,郑州,郑州,0371,86558777,儿童公园/凯旋门,华山路与汝河路交叉口,景点,温泉,113.60025,34.73236
恋爱博物馆,河南,郑州,郑州,0371,166****7323,火车站/二七广场,二七路230号郑州华联商厦3楼南区（二七广场银兴国际影城3楼）,景点,展览馆,113.665817,34.753292
史沟水库,河南,郑州,新密市,0371,,新密市其他,上史沟,景点,现代建筑,113.560719,34.461659
中青旅游,河南,郑州,郑州,0371,186****4578,月季公园,神驰路锦绣汇悦儿童成长中心一楼,景点,旅行社,113.621885,34.760025
郑州金融岛,河南,郑州,郑州,0371,,国家森林公园/北龙湖,北三环众意路（金融岛北地铁站B口旁）,景点,创意园区,113.73385,34.812776
中原金融博物馆,河南,郑州,郑州,0371,55691380,郑州东站,心怡路278号基运投资大厦1-2层,景点,博物馆,113.773279,34.750159
河南中州国际旅行社,河南,郑州,郑州,0371,166****6876,福都生活广场,城东南路与紫辰路口西北角,景点,旅行社,113.690542,34.710175
幻境空间悬空玻璃剧场,河南,郑州,郑州,0371,175****3218,丹尼斯·大卫城,杜岭街道西太康路58号新田360广场7层,景点,更多景点/周边游,113.663261,34.75795
大隗山原生态度假景区,河南,郑州,新密市,0371,,新密市其他,苟堂镇范堂沟村养心阁,景点,自然风光,113.505208,34.347816
特兰斯童话世界,河南,郑州,郑州,0371,60555508,二七区,郑密路与樱花路交叉口,景点,游乐场,113.589257,34.616557
郑州汉石雕博物馆,河南,郑州,中牟县,0371,,九龙镇,龙飞街与经南十二路交叉口西北320米,景点,博物馆,113.850655,34.679345
康泰路步行街,河南,郑州,荥阳市,0371,,建业购物广场,康泰路步行街西段,景点,步行街,113.395093,34.782746
游乐场,河南,郑州,郑州,0371,,人民路/紫荆山,紫荆山路1号紫荆山百货5层,景点,游乐场,113.686424,34.761597
黄河大观景区,河南,郑州,郑州,0371,187****6313,黄河游览区,古荥镇,景点,人文古迹,113.513531,34.910649
中心广场,河南,郑州,中牟县,0371,,人民医院,北内环路,景点,公园/广场,113.93068,34.758621
樱桃沟景区游客服务中心,河南,郑州,郑州,0371,68596677;61773588,二七区,凤栖南路与樱花路交叉口北60米,景点,公园/广场,113.589059,34.617791
石方院,河南,郑州,巩义市,0371,,巩义市其他,青龙禅寺,景点,景点/周边游,112.999523,34.713993
地藏殿,河南,郑州,荥阳市,0371,,荥阳市其他,032县道西200米,景点,景点/周边游,113.463204,34.735963
施恩堂,河南,郑州,新郑市,0371,,新郑市其他,商登高速（园博美丽港湾西南侧约150米）,景点,宗教,113.87079,34.436008
希望美术馆,河南,郑州,巩义市,0371,,巩义东区,德厚街宇华名苑,景点,美术馆,113.01747,34.745942
四院五院,河南,郑州,巩义市,0371,,巩义市其他,康百万庄园主宅区内,景点,更多景点/周边游,112.949328,34.763288
义赒仁里,河南,郑州,巩义市,0371,,巩义市其他,康店镇康百万庄园景区栈房区内,景点,更多景点/周边游,112.950296,34.763721
墓葬车马坑平面展示区,河南,郑州,新郑市,0371,,新郑市其他,郑国车马坑景区（端湾胡同西50米）,景点,更多景点/周边游,113.737346,34.383897
蔚翼体育公园,河南,郑州,荥阳市,0371,,奥帕拉拉水公园,桃贾路与香堤湾大道交叉口东260米,景点,公园/广场,113.456392,34.755621
江山楼,河南,郑州,郑州,0371,,黄河游览区,江山路西150米,景点,人文古迹,113.576312,34.875438
李氏宗祠,河南,郑州,荥阳市,0371,,黄河游览区,沿黄快速通道与江南路交叉口东200米,景点,人文古迹,113.493985,34.905077
申沟文化广场,河南,郑州,新密市,0371,,新密市其他,超大公路西段正东方向120米,景点,广场,113.433876,34.448284
大树美术馆,河南,郑州,新郑市,0371,155****4211,新郑市其他,浩创梧桐郡2期,景点,美术馆,113.717114,34.625694
秦豫美术馆,河南,郑州,新密市,0371,156****0777,客运中心站,新华路街道嵩山大道111号,景点,美术馆,113.403267,34.531887
本来之间,河南,郑州,郑州,0371,,东建材,商都路红星美凯龙建材馆负1层南厅A8175层,景点,展览馆,113.729141,34.745381
九龙圣母殿,河南,郑州,登封市,0371,,登封市其他,杨中线,景点,景点/周边游,113.105576,34.483292
紫竹院,河南,郑州,荥阳市,0371,,黄河游览区,伴山东路风铃寨(中原影视城北)风铃寨内,景点,自然风光,113.491783,34.921734
三皇寨-仙人洞,河南,郑州,登封市,0371,62749203,登封市其他,西北15公里处的嵩山少室山下嵩山少林景区三皇寨景区内,景点,自然风光,112.93457,34.466541
大师园,河南,郑州,新郑市,0371,,新郑市其他,轩辕路郑州园博园,景点,植物园,113.873779,34.459747
悦观国际旅行社,河南,郑州,郑州,0371,,曼哈顿广场/英协路,城北路18-4号,景点,旅行社,113.698637,34.755267
散虑逍遥,河南,郑州,巩义市,0371,,巩义市其他,五口路西100米浮戏山旅游景区,景点,自然风光,113.183083,34.662983
岳圣国旅,河南,郑州,新密市,0371,,市博物馆,溱水路鑫鑫花园南侧约30米,景点,旅行社,113.384125,34.542068
东门巴爷螺蛳粉,河南,郑州,郑州,0371,,建业凯旋广场,花园路与农科路交叉口向西30米路北,景点,更多景点/周边游,113.680275,34.792568
未来星儿童创意美术馆,河南,郑州,郑州,0371,,福都生活广场,玉城街与二里岗街交叉口西80米,景点,美术馆,113.687132,34.723225
时氏宗祠,河南,郑州,上街区,0371,,上街区,新乡路与金华路交叉口东60米,景点,人文古迹,113.318469,34.81175
小马夜市,河南,郑州,荥阳市,0371,,荥阳市其他,北大路恒大山水城二期(西门)南侧约90米,景点,夜市,113.467971,34.673401
北召古城庙岗,河南,郑州,新密市,0371,,新密市其他,051乡道东50米,景点,景点/周边游,113.240059,34.535595
农民广场,河南,郑州,郑州,0371,,国家森林公园/北龙湖,大河路北100米,景点,公园/广场,113.740272,34.872095
豫园鲁冰花,河南,郑州,中牟县,0371,,白沙镇,郑汴物流通道南50米,景点,更多景点/周边游,113.909968,34.757138
彩虹桥游乐场,河南,郑州,新郑市,0371,,龙湖广场/升达大学,李诫路与103省道交叉口东北60米,景点,游乐场,113.684881,34.593121
郑州航空港区天主堂,河南,郑州,中牟县,0371,,中牟县其他,万三公路,景点,宗教,113.92831,34.5973
原石美玉艺术馆,河南,郑州,新密市,0371,,新密市其他,003乡道与018乡道交叉口西南50米,景点,美术馆,113.209181,34.555361
仙乐宫,河南,郑州,上街区,0371,,上街区,蓝天路与通航五路交叉口东南80米,景点,历史建筑,113.277478,34.833221
建业幸福生活体验馆,河南,郑州,郑州,0371,,郑州东站,心怡路199号郑州东站3F层6层（郑州东站地铁站D口旁）,景点,展览馆,113.778839,34.759586
博恩艺术,河南,郑州,郑州,0371,,省体中心/裕华广场,丰庆路街道宏达路普罗旺世院内,景点,美术馆,113.644586,34.824293
乾隆御碑,河南,郑州,登封市,0371,,登封市其他,城北六公里嵩山南麓积翠峰下会善寺内,景点,人文古迹,113.005132,34.492
儿童游乐场,河南,郑州,新密市,0371,,新密市其他,政通路与光林路交叉口东60米,景点,游乐场,113.528558,34.593838
上街区宪法主题公园,河南,郑州,上街区,0371,,上街区,工业路与淮阳路交叉口西40米,景点,公园/广场,113.307897,34.816824
河南省钱币博物馆,河南,郑州,郑州,0371,,郑东新区CBD,商务外环路21号郑东金融大厦附近,景点,博物馆,113.73371,34.77616
新港花街,河南,郑州,新郑市,0371,,新郑市其他,龙王乡航空港区梁州大道与苑陵路交汇处东北角郑州园博园内,景点,观光街区,113.873224,34.460684
里山明月,河南,郑州,巩义市,0371,61077799,巩义市其他,米河镇明月村,景点,更多景点/周边游,113.246667,34.668277
石河道公园,河南,郑州,巩义市,0371,,巩义东区,310国道长庄桥西向南200米,景点,公园/广场,113.011883,34.741457
李氏祠堂,河南,郑州,巩义市,0371,,回郭镇,东庙村附近,景点,人文古迹,112.866534,34.676894
星河里唐宫夜宴实景演绎文化园,河南,郑州,郑州,0371,63212309,郑东新区CBD,农业路与如意东路交叉口东南角宝龙A区（地铁四号线农业东路站A出口）,景点,创意园区,113.734741,34.781879
郑州党史馆,河南,郑州,郑州,0371,0371-67170952,裕达国贸,嵩山南路66号,景点,展览馆,113.627296,34.744637
新时代夜市,河南,郑州,郑州,0371,,经开区,经开第三大街罗兰时尚酒店（第三大街店)东南侧约60米,景点,夜市,113.747155,34.722845
千卷字画院,河南,郑州,郑州,0371,,万象城,二道街与沿河路交叉口南50米,景点,美术馆,113.651839,34.757979
亿鑫水上乐园,河南,郑州,新郑市,0371,,新郑市其他,翰林路顶好家具木门全屋定制工厂店(轩辕路店)北侧约180米,景点,游乐场,113.602535,34.382645
河南中原国旅,河南,郑州,郑州,0371,,长城康桥华城,大学路80号丹尼斯二楼超市出口,景点,旅行社,113.64373,34.73922
朱氏祠堂,河南,郑州,中牟县,0371,,中牟县其他,大孟镇朱大汉村077号,景点,人文古迹,114.030918,34.795118
河南中港国际旅行有限公司,河南,郑州,登封市,0371,62999222,百货大楼/中天广场,中岳大街秀丽王府花园西南侧约30米,景点,旅行社,113.036899,34.458839
四牟园,河南,郑州,中牟县,0371,,人民医院,广惠街街道映旭街与滨河路交叉口西150米,景点,公园/广场,113.949712,34.716719
嫘祖宫,河南,郑州,新郑市,0371,,新郑市其他,始祖山景区,景点,人文古迹,113.536099,34.345679
林荫场地,河南,郑州,郑州,0371,,国家森林公园/北龙湖,中州大道北三环立交桥,景点,更多景点/周边游,113.708511,34.811424
毛主席纪念堂,河南,郑州,新密市,0371,,新密市政府,兴文巷与幸福街交叉口西140米,景点,纪念馆,113.386101,34.540691
众信旅游商店,河南,郑州,郑州,0371,181****6333,长江中路沿线,嵩山南路69号中原百姓广场永乐家电门口,景点,旅行社,113.629631,34.703526
河南旅游集团有限公司,河南,郑州,新密市,0371,138****3006;131****9398,新密市政府,育才街与北文峰路交叉口东100米,景点,旅行社,113.384754,34.539474
君子亭,河南,郑州,郑州,0371,,人民路/紫荆山,金水路108号紫荆山公园,景点,更多景点/周边游,113.688728,34.761973
郑园,河南,郑州,郑州,0371,,新世界百货,商城路与管城东街交叉口西南40米,景点,公园/广场,113.677642,34.753145
伯莱塔,河南,郑州,郑州,0371,,柳林刘庄,宏明路与花园北路交叉路口往西约150米,景点,历史建筑,113.678688,34.824407
国际旅行社,河南,郑州,新密市,0371,185****0919,新密市其他,园林路与南苑路交叉路口东侧（文明花园北侧约200米）,景点,旅行社,113.448309,34.439359
乐天祠,河南,郑州,新郑市,0371,,新郑市其他,343国道与012乡道交叉口西南120米,景点,宗教,113.599205,34.387329
昆虫博物馆,河南,郑州,巩义市,0371,,巩义市其他,竹林镇长寿山景区,景点,博物馆,113.13652,34.693939
中国郑州航空港国际引智展示中心,河南,郑州,新郑市,0371,0371-60879900,航空港区,润丰悦尚(华夏大道东),景点,展览馆,113.829758,34.538719
小广场,河南,郑州,郑州,0371,,柳林刘庄,三全路渠东路交叉口东岸尚景b区9号楼,景点,公园/广场,113.664826,34.827574
园博游乐园,河南,郑州,新郑市,0371,178****6263;155****1832,新郑市其他,规划四路美丽佳苑6号地9号楼2层201室,景点,游乐场,113.87128,34.438517
花果山漂流,河南,郑州,新郑市,0371,,新郑市其他,航空港区双鹤湖公园内梦幻乐园,景点,漂流,113.864907,34.401404
旅游百事通,河南,郑州,新郑市,0371,150****2144,新郑市其他,航空港区一朵花坊,景点,旅行社,113.82666,34.374031
龙源宫,河南,郑州,郑州,0371,,黄河游览区,黄河南岸1号郑州黄河风景名胜区内,景点,历史建筑,113.51339,34.951101
同心湖,河南,郑州,新郑市,0371,56818666,新郑市其他,航空港经济综合实验区苑陵路140号郑州园博园,景点,自然风光,113.87539,34.45749
江南春温泉度假酒店会议中心,河南,郑州,荥阳市,0371,,黄河游览区,江南路1号,景点,景点/周边游,113.49057,34.913342
方五丈院,河南,郑州,巩义市,0371,0371-64322766,巩义市其他,康店镇康百万庄园景区南大院内,景点,自然风光,112.949905,34.762329
百乐汇步行街,河南,郑州,中牟县,0371,,百乐汇购物广场,爱乡路与建设北路交叉口西320米,景点,休闲街区,114.015465,34.732666
雪花洞景区-Wi-Fi,河南,郑州,巩义市,0371,,巩义市其他,新中镇口五路雪花洞景区,景点,更多景点/周边游,113.190739,34.625331
中原印象文化展厅,河南,郑州,郑州,0371,63565555,经三路沿线,经三路红专路交汇处东北角绿洲商务一楼,景点,展览馆,113.692829,34.780339
河南海途国际旅游有限公司,河南,郑州,登封市,0371,175****3111,客运总站,颍河路52号,景点,旅行社,113.052607,34.445536
始祖山天地母殿,河南,郑州,新郑市,0371,,新郑市其他,具茨山景区内,景点,景点/周边游,113.536356,34.343979
法治公园,河南,郑州,上街区,0371,,上街区,孟津路与长乐街交叉口西北150米,景点,公园/广场,113.285297,34.804445
瞭望楼,河南,郑州,巩义市,0371,64322766,巩义市其他,康店镇康百万庄园景区大门东广场北侧,景点,历史建筑,112.951898,34.763548
海外国际旅行社,河南,郑州,郑州,0371,159****0186,管城回族区,东三环与郑尉路交叉口东南240米,景点,旅行社,113.768993,34.664799
弘德园,河南,郑州,新郑市,0371,,新郑市其他,梁州大道与苑陵路交叉口郑州园博园,景点,更多景点/周边游,113.875785,34.460235
喜晖洞,河南,郑州,郑州,0371,,黄河游览区,黄河南岸1号郑州黄河风景名胜区内,景点,更多景点/周边游,113.519701,34.947559
龙杰良筑展示中心,河南,郑州,中牟县,0371,,中牟县其他,正中大道与文通路交叉口向北二百米,景点,展览馆,113.949323,34.684953
韩国仁川展园,河南,郑州,新郑市,0371,,新郑市其他,梁州大道与苑陵路交叉口郑州园博园内（西侧）,景点,更多景点/周边游,113.862671,34.461923
艺军广场服饰农贸区,河南,郑州,中牟县,0371,,白沙镇,复兴路118号,景点,公园/广场,113.885297,34.735907
金城展示中心,河南,郑州,荥阳市,0371,,荥阳植物园,万业金城2号院东门南60米,景点,展览馆,113.414596,34.774766
杨树沟风景区-祖母宫,河南,郑州,巩义市,0371,,巩义市其他,口五路老庙景区,景点,景点/周边游,113.185653,34.632022
韩氏宗祠,河南,郑州,荥阳市,0371,,荥阳市其他,韩村小学东南侧约200米,景点,人文古迹,113.256863,34.846493
石寨村水塔,河南,郑州,荥阳市,0371,,荥阳植物园,郑上路与工业路交叉口路南,景点,人文古迹,113.404979,34.774859
edgar游乐场,河南,郑州,新郑市,0371,,龙湖广场/升达大学,李诫路悦府-尚书房西南侧,景点,游乐场,113.684939,34.593111
孝义兵工厂旧址,河南,郑州,巩义市,0371,,火车站,孝义路巩义市第四小学,景点,人文古迹,112.976313,34.764929
崔氏祠堂,河南,郑州,巩义市,0371,,巩义市其他,桥上村三组,景点,景点/周边游,112.980251,34.775301
福慧国际旅行社,河南,郑州,郑州,0371,,西元国际广场,秦岭路32-11号,景点,旅行社,113.603061,34.760461
双洎河人工湿地,河南,郑州,新密市,0371,,新密市其他,周甘路附近,景点,公园/广场,113.546475,34.43225
安和锦街,河南,郑州,郑州,0371,,市体育中心/郑东花卉市场,邢庄南街,景点,观光街区,113.813171,34.767586
夔音堂古琴馆,河南,郑州,郑州,0371,153****5281,郑东新区CBD,九如东路天下收藏北区二楼2045室,景点,美术馆,113.734375,34.773135
小营点军台遗址生态文化公园,河南,郑州,郑州,0371,,国家森林公园/北龙湖,龙湖中环路与春雷路交汇处,景点,文化公园,113.712802,34.798832
中国刘沟石榴广场,河南,郑州,荥阳市,0371,,荥阳市其他,兴榴大道与河阴大道,景点,公园/广场,113.37639,34.952614
禾谷钱粮湖,河南,郑州,郑州,0371,,黄河游览区,江山路与西山路辅路交叉口西北360米,景点,自然风光,113.544262,34.912402
始祖山-拜祖台,河南,郑州,新郑市,0371,,新郑市其他,具茨山国家级森林公园具茨山景区内,景点,人文古迹,113.54897,34.342813
东道汝窑,河南,郑州,郑州,0371,,经开区,经北六路郑州文博城,景点,自然景观,113.765798,34.733916
河南青旅,河南,郑州,中牟县,0371,138****6868,新世纪广场,商都路与中兴路交叉口新向民隔壁河南青旅国际旅行社,景点,旅行社,114.008823,34.724873
航空港区梅河公园,河南,郑州,新郑市,0371,,新郑机场,遵大路与梅河路交叉口东北角西北方向200米,景点,公园/广场,113.824827,34.472001
捷克玛利亚温泉市园,河南,郑州,新郑市,0371,,新郑市其他,梁州大道与苑陵路交叉口郑州园博园内（西侧）,景点,更多景点/周边游,113.863952,34.461465
柏寿林,河南,郑州,巩义市,0371,,巩义市其他,长寿山景区,景点,更多景点/周边游,113.139645,34.692061
晓辉烧烤夜市,河南,郑州,新密市,0371,,新密市其他,电厂路,景点,夜市,113.607878,34.502758
万通广场,河南,郑州,郑州,0371,,沙门/汽配,花园路街道花园北路88号,景点,公园/广场,113.680357,34.824818
新密好人主题公园,河南,郑州,新密市,0371,,新密市其他,溱水路与荥密路交叉口,景点,公园/广场,113.314934,34.543503
阿童帝国游乐场,河南,郑州,郑州,0371,155****1581;189****1554,橄榄城,绿都澜湾桂圆西门左侧12号楼,景点,游乐场,113.686678,34.673288
欧阳修游园,河南,郑州,新郑市,0371,,西亚斯大学,人民路与解放路交叉口东北100米,景点,公园/广场,113.773279,34.396944
沙雕文化园,河南,郑州,郑州,0371,,黄河游览区,绿色中原路附近,景点,文化公园,113.567204,34.938444
百善园,河南,郑州,新郑市,0371,,新郑市其他,泰山路与圣母路交叉口南160米,景点,公园/广场,113.641621,34.580551
老井沟,河南,郑州,巩义市,0371,,巩义市其他,林汝高速,景点,自然景观,113.032877,34.654272
宁波园,河南,郑州,新郑市,0371,,新郑市其他,航空港经济综合实验区苑陵路140号郑州园博园（东侧）,景点,更多景点/周边游,113.88073,34.45949
大唐旅行社,河南,郑州,郑州,0371,185****2062,曼哈顿广场/英协路,金水路219号盛润白宫东座1单元2405室,景点,旅行社,113.720809,34.761629
黄河滩,河南,郑州,郑州,0371,,黄河游览区,南裹头广场东北,景点,自然风光,113.61012,34.931647
大卫王府,河南,郑州,新密市,0371,,新密市其他,周甘路大隗客运站南侧约60米,景点,历史建筑,113.497597,34.438947
国酒文化展览馆,河南,郑州,郑州,0371,,经开区,正商经开广场3号楼底楼,景点,展览馆,113.769641,34.719161
杨槐村史馆,河南,郑州,郑州,0371,,国家森林公园/北龙湖,G30连霍高速与G30连霍高速出口交叉口西北150米,景点,展览馆,113.696705,34.847379
