名称,省份,真实城市,市县区,区号,电话,区域,地址,大分类,小分类,经度,纬度
港中旅国际旅行社,山东,青岛,青岛,0532,85881111,麦凯乐,漳州二路19号中环大厦29楼,景点,旅行社,120.399535,36.066525
青岛啤酒博物馆,山东,青岛,青岛,0532,4001691903,台东步行街,登州路街道登州路56号,景点,博物馆,120.346259,36.079329
青岛雕塑艺术馆,山东,青岛,青岛,0532,88707755,石老人海水浴场商圈,金家岭街道东海东路66号,景点,美术馆,120.454936,36.079952
青岛消防博物馆,山东,青岛,青岛,0532,66577216,浮山所/中联广场,金湖路16号,景点,博物馆,120.38442,36.079123
胶州市博物馆,山东,青岛,胶州市,0532,87213148,新城区,兰州东路99号,景点,博物馆,120.012514,36.254531
仰口海水浴场,山东,青岛,青岛,0532,67788538,崂山风景区,崂山景区旅游专用路东,景点,海滨沙滩,120.669506,36.239106
老舍公园,山东,青岛,青岛,0532,,火车站/团岛,安徽路19号,景点,纪念公园,120.321816,36.065874
南山公园,山东,青岛,青岛,0532,,小村庄,鞍山二路42号,景点,公园/广场,120.365315,36.103329
青岛市音乐广场,山东,青岛,青岛,0532,83886355,世贸中心,澳门路12号,景点,广场,120.380991,36.058392
柳湖公园,山东,青岛,青岛,0532,,老黄岛,崇明岛西路144号（柳湖大院内）,景点,公园/广场,120.211899,36.036968
海滨雕塑园,山东,青岛,青岛,0532,88707755,石老人海水浴场商圈,东海东路66号（东海东路和海青路交叉口）,景点,展览馆,120.454757,36.079837
山头公园,山东,青岛,青岛,0532,,浮山后,同乐三路2号浮山后六小区（近浮山森林公园）,景点,公园/广场,120.423877,36.099459
青岛海滨风景区小鱼山,山东,青岛,青岛,0532,82868532,湛山/太平角,福山支路24号,景点,自然风光,120.336472,36.058846
观象山公园,山东,青岛,青岛,0532,,火车站/团岛,江苏路街道观象二路21号,景点,公园/广场,120.326725,36.070258
北海公园,山东,青岛,青岛,0532,86915801,老黄岛,西北部刘公岛路264号,景点,公园/广场,120.210602,36.041748
灵山湾海滨公园,山东,青岛,青岛,0532,,黄岛区,隐珠街道滨海大道1388号,景点,公园/广场,120.067055,35.88292
胶州公园,山东,青岛,胶州市,0532,87213435,胶州路,郑州东路87号,景点,公园/广场,120.020033,36.291433
环湖公园,山东,青岛,青岛,0532,,浮山后,浮山新区街道劲松三路南段距银川西路200米路东,景点,公园/广场,120.419876,36.097294
青岛市海泊河公园,山东,青岛,青岛,0532,83716454,小村庄,康宁路1号（海泊桥海慈医疗地铁站A口步行240米）,景点,公园/广场,120.356391,36.095958
青岛海底世界,山东,青岛,青岛,0532,58617811;58617777,湛山/太平角,八大关街道莱阳路1号,景点,海洋馆,120.336053,36.057018
贮水山儿童公园,山东,青岛,青岛,0532,83800358,儿童公园/青岛港,辽宁路280号（近黄台路）,景点,公园/广场,120.336513,36.079917
海滨公园,山东,青岛,青岛,0532,158****8851,老黄岛,崇明岛东路,景点,公园/广场,120.224905,36.044565
信号山公园,山东,青岛,青岛,0532,66991166;82798055,火车站/团岛,龙山路16甲,景点,自然风光,120.331613,36.066527
鲁迅公园,山东,青岛,青岛,0532,82868471;82860760,湛山/太平角,琴屿路1号,景点,公园/广场,120.333097,36.054938
青岛海滨风景区小青岛,山东,青岛,青岛,0532,82863944,汇泉湾商圈,琴屿路26号,景点,自然风光,120.324169,36.053225
嘉定山公园,山东,青岛,青岛,0532,,海琴广场,上饶路北首,景点,公园/广场,120.373976,36.11195
北岭山森林公园,山东,青岛,青岛,0532,84851988,水清沟,四流南路7号,景点,森林公园,120.370548,36.119755
榉林公园,山东,青岛,青岛,0532,,台东步行街,太平山路1号,景点,公园/广场,120.356985,36.070485
青岛中山公园,山东,青岛,青岛,0532,82870564,湛山/太平角,文登路28号,景点,城市公园,120.351093,36.064228
汇泉广场,山东,青岛,青岛,0532,82865777,湛山/太平角,文登路1号(,景点,广场,120.345592,36.058395
青岛世纪广场,山东,青岛,青岛,0532,,丽达购物中心,秦岭路18号正北方向190米,景点,广场,120.470432,36.10408
青岛森林野生动物世界,山东,青岛,青岛,0532,86835555,黄岛区,小珠山路灵珠山风景区内,景点,野生动物园,120.058505,35.981937
青岛奥林匹克雕塑文化园,山东,青岛,青岛,0532,87759871,世纪公园,兴阳路318号,景点,文化公园,120.395136,36.28594
青岛动物园,山东,青岛,青岛,0532,82872970,湛山/太平角,八大关街道延安一路102号（近中山公园）,景点,动物园,120.34995,36.069571
百花苑,山东,青岛,青岛,0532,82862461,湛山/太平角,延安一路55号,景点,城市公园,120.345012,36.065713
青岛植物园,山东,青岛,青岛,0532,83861640,湛山/太平角,郧阳路7号,景点,植物园,120.361788,36.061467
青岛天主教堂,山东,青岛,青岛,0532,82865960,火车站/团岛,浙江路15号,景点,宗教,120.320715,36.068129
青岛市革命烈士纪念馆,山东,青岛,青岛,0532,83861236;83863750,湛山/太平角,芝泉路6号,景点,纪念馆,120.363181,36.066607
崂山风景名胜区,山东,青岛,青岛,0532,96616,崂山风景区,崂山景区专用路崂山风景区,景点,自然风光,120.644,36.184076
八大关景区,山东,青岛,青岛,0532,136****6596,湛山/太平角,武胜关支路10号,景点,步行街,120.35367,36.05042
马山国家级自然保护区,山东,青岛,青岛,0532,86657899,即墨区,蓝鳌路马山公园 游客服务中心,景点,自然风光,120.377145,36.403511
薛家岛,山东,青岛,青岛,0532,,开发区,胶州湾西海岸黄岛区境内和团岛之间,景点,自然风光,120.222068,35.958578
青岛海滨风景区,山东,青岛,青岛,0532,82872937,湛山/太平角,八大关街道京山路11号,景点,自然风光,120.36137,36.06001
灵山岛风景区,山东,青岛,青岛,0532,83172167;83171802,黄岛区,东南灵山湾中,景点,自然风光,120.172978,35.760279
大泽山风景名胜区,山东,青岛,平度市,0532,85372022,平度市,市北部,景点,自然风光,120.015668,36.999859
栈桥景区,山东,青岛,青岛,0532,82884548,火车站/团岛,中山路街道太平路12号（青岛站地铁站G口步行470米）,景点,历史建筑,120.318656,36.062039
青岛第三海水浴场,山东,青岛,青岛,0532,66577319;131****1111,湛山/太平角,湛山五路3号,景点,海滨沙滩,120.366205,36.050778
金麒玉麟温泉山庄,山东,青岛,青岛,0532,86576666,海泉湾度假区,温泉街道办事处大田路2777号,景点,温泉,120.661601,36.455421
阳光168国际旅行社,山东,青岛,青岛,0532,131****8650,儿童公园/青岛港,市场二路36号银河金星大厦8楼808（近高密路与易州路交叉口）,景点,旅行社,120.320218,36.074418
湛山寺,山东,青岛,青岛,0532,83862038,湛山/太平角,芝泉路2号,景点,宗教,120.364477,36.064985
五四广场,山东,青岛,青岛,0532,83886355,万象城,香港中路市政府正对面,景点,广场,120.385264,36.061483
青岛极地海洋公园,山东,青岛,青岛,0532,85909999;80999777,极地海洋世界,东海东路60号（近海游路）,景点,主题乐园,120.442663,36.069211
台东3路步行街购物区,山东,青岛,青岛,0532,,台东步行街,芙蓉路利群商厦(台东三路店)东南侧约40米,景点,步行街,120.357151,36.081371
青岛金沙滩,山东,青岛,青岛,0532,86707399,金沙滩风景区,薛家岛金沙滩路,景点,海滨沙滩,120.247453,35.958228
贝雕艺术馆,山东,青岛,青岛,0532,83873162,湛山/太平角,延安三路206号,景点,美术馆,120.37098,36.067719
石老人观光园,山东,青岛,青岛,0532,88890758,石老人海水浴场商圈,崂山路1号（近香港东路）,景点,自然风光,120.507518,36.098359
青岛市文化市场,山东,青岛,青岛,0532,,儿童公园/青岛港,辽宁路65号（近昌乐路）,景点,步行街,120.344562,36.083899
江苏路基督教堂,山东,青岛,青岛,0532,82865970,火车站/团岛,江苏路15号,景点,宗教,120.327991,36.065132
奥林匹克帆船中心,山东,青岛,青岛,0532,58617777,麦凯乐,澳门路121号,景点,城市观光,120.393623,36.055823
青岛携程国际旅行社,山东,青岛,青岛,0532,85938008,青岛大学麦岛,宁夏路288号软件产业基地G3楼603室,景点,旅行社,120.414892,36.077481
鹤山风景区,山东,青岛,青岛,0532,86555016,即墨区,南4公里（近双星度假村西侧）,景点,自然风光,120.635236,36.338067
月湖公园,山东,青岛,莱西市,0532,88485388,月湖圈,文化东路17号,景点,公园/广场,120.528236,36.85935
马濠公园,山东,青岛,青岛,0532,,马濠公园,武夷山路574号,景点,公园/广场,120.187008,35.964644
崂山九水游览区,山东,青岛,青岛,0532,87053351,崂山风景区,北宅街道卧龙村,景点,自然风光,120.607807,36.210134
青岛大珠山景区,山东,青岛,青岛,0532,85131271;84123456,黄岛区,滨海街道山川路1177号,景点,自然风光,119.982563,35.78363
青岛市博物馆,山东,青岛,青岛,0532,88896286,丽达购物中心,梅岭东路51号,景点,博物馆,120.47312,36.101549
公主楼,山东,青岛,青岛,0532,,湛山/太平角,居庸关路10号八大关风景区内,景点,历史建筑,120.349549,36.052432
沈从文故居,山东,青岛,青岛,0532,,湛山/太平角,八关山麓福山路3号,景点,名人故居,120.341156,36.064297
平度市博物馆,山东,青岛,平度市,0532,87363114,平度市,红旗路91号,景点,博物馆,119.957363,36.786758
李村公园,山东,青岛,青岛,0532,,李村公园,夏庄路126号,景点,公园/广场,120.42256,36.168262
骆驼祥子博物馆,山东,青岛,青岛,0532,82867580,火车站/团岛,黄县路12号,景点,博物馆,120.331705,36.062494
洪深故居,山东,青岛,青岛,0532,,湛山/太平角,福山路1号（近红岛路）,景点,纪念馆,120.340993,36.064742
第六海水浴场,山东,青岛,青岛,0532,82868575,火车站/团岛,太平路14号(近栈桥)（青岛站地铁站G口步行240米）,景点,海滨沙滩,120.316022,36.061965
老龙湾,山东,青岛,平度市,0532,,平度市,平度城东北十公里大泽山巨龙左爪臂腕处,景点,自然风光,119.953858,36.918246
太平宫,山东,青岛,青岛,0532,,崂山风景区,王哥庄街道文登路26号,景点,历史建筑,120.662491,36.233895
天井山,山东,青岛,青岛,0532,,即墨区,龙山风景区（西北角）,景点,自然风光,120.536976,36.381176
青岛葡萄酒博物馆,山东,青岛,青岛,0532,82727866-8008;82718388-8010,台东步行街,延安一路68号,景点,博物馆,120.347858,36.072557
梁实秋故居,山东,青岛,青岛,0532,,湛山/太平角,鱼山路33号（近大学路）,景点,纪念馆,120.332722,36.061326
德国警察署旧址,山东,青岛,青岛,0532,,火车站/团岛,湖北路29号（青岛站地铁站C口步行250米）,景点,古代遗迹,120.316065,36.065987
海滨旅馆旧址,山东,青岛,青岛,0532,,湛山/太平角,南海路23号,景点,古代遗迹,120.341151,36.058421
崂山巨峰游览区,山东,青岛,青岛,0532,88820077,崂山风景区,崂山景区旅游专用路崂山风景区内,景点,自然风光,120.62394,36.158958
第一海水浴场,山东,青岛,青岛,0532,82963355;82966117,湛山/太平角,南海路14号,景点,海滨沙滩,120.341311,36.057489
超逸国际旅行社有限公司,山东,青岛,青岛,0532,186****7709;186****9987,火车站/团岛,云南路街道泰安路15号甲,景点,旅行社,120.308927,36.063367
青岛盛世飞洋码头海上游船观光,山东,青岛,青岛,0532,,火车站/团岛,八大峡广场飞洋码头,景点,城市观光,120.307035,36.052683
纺织博物馆,山东,青岛,青岛,0532,82810632;159****6572,水清沟,四流南路80号,景点,博物馆,120.379212,36.145149
元宝湖公园,山东,青岛,青岛,0532,87061322,新利群商场,嵩山二路666号,景点,公园/广场,120.430649,36.393806
生肖公园,山东,青岛,青岛,0532,,老黄岛,大公岛路与灵山岛街交叉口东南100米,景点,公园/广场,120.223464,36.044036
即墨水上公园,山东,青岛,青岛,0532,,新利群商场,蓝鳌路1433号,景点,公园/广场,120.423218,36.389832
温泉公园,山东,青岛,青岛,0532,,海泉湾度假区,海泉路66号西南方向190米,景点,公园/广场,120.657621,36.44091
楼山公园,山东,青岛,青岛,0532,,李沧区,四流北路,景点,公园/广场,120.385928,36.197329
水清沟公园,山东,青岛,青岛,0532,,水清沟,四流南路109号,景点,公园/广场,120.373798,36.136376
双珠公园,山东,青岛,青岛,0532,86616650,双珠路/珠海路,珠海路6号(近,景点,公园/广场,119.98741,35.867673
西山公园,山东,青岛,莱西市,0532,,莱西市,东湖路北100米,景点,公园/广场,120.456081,36.931101
锦绣公园,山东,青岛,莱西市,0532,,姜山/莱西姜山汽车站,阳安路西50米,景点,公园/广场,120.525613,36.673583
徐福公园,山东,青岛,青岛,0532,,黄岛区,海城路7号,景点,公园/广场,119.857451,35.689066
辛家庄北山公园,山东,青岛,青岛,0532,,麦凯乐,莆田路与龙岩路交叉口西北100米,景点,公园/广场,120.411556,36.072677
墨河公园,山东,青岛,青岛,0532,88512892,即墨区,烟青路557号,景点,公园/广场,120.450211,36.385502
青岛候鸟假期旅行社,山东,青岛,胶州市,0532,87291992;87291993,常州路,徐州路198号,景点,旅行社,120.013665,36.280775
秀水旅行社,山东,青岛,平度市,0532,137****9088,利群/尚街,红旗路59-5号,景点,旅行社,119.967077,36.787247
青华旅行社,山东,青岛,青岛,0532,82978144,火车站/团岛,曲阜路22号,景点,旅行社,120.318038,36.066452
金坤旅行社,山东,青岛,胶州市,0532,87232299,胶州公园,兰州东路255号,景点,旅行社,120.023409,36.285119
黄海旅行社,山东,青岛,青岛,0532,82869488,湛山/太平角,延安一路75号黄海饭店118房,景点,旅行社,120.342523,36.060603
中国国旅,山东,青岛,青岛,0532,139****8830,胶南人民路,灵山湾路3047号国旅大酒店1楼,景点,旅行社,119.989371,35.876211
中国旅行社总社,山东,青岛,平度市,0532,88330666,平度市,红旗路59-25号,景点,旅行社,119.965968,36.78721
中国国际旅行社,山东,青岛,青岛,0532,186****5218,麦凯乐,香港中路32号（近市政府）,景点,旅行社,120.388331,36.067481
青岛市科技馆,山东,青岛,青岛,0532,80911521,火车站/团岛,中山路3号,景点,科技馆,120.319378,36.063434
束星北故居,山东,青岛,青岛,0532,,湛山/太平角,鱼山路36号童第周故居束,景点,名人故居,120.331612,36.06073
山左银行旧址,山东,青岛,青岛,0532,,火车站/团岛,中山路64-66号,景点,古代遗迹,120.318181,36.067241
张玺故居,山东,青岛,青岛,0532,,湛山/太平角,莱阳路28号甲,景点,名人故居,120.329841,36.058253
萧军萧红舒群故居,山东,青岛,青岛,0532,,火车站/团岛,观象一路1号,景点,纪念馆,120.329304,36.069497
坂井贞一宅第旧址,山东,青岛,青岛,0532,,火车站/团岛,太平路23号,景点,古代遗迹,120.326869,36.061474
华岗故居,山东,青岛,青岛,0532,,汇泉湾商圈,龙口路40号,景点,纪念馆,120.328916,36.064501
冯沅君陆侃如故居,山东,青岛,青岛,0532,,湛山/太平角,鱼山路36号（人民会堂地铁站B口步行230米）,景点,名人故居,120.331629,36.060719
胶海关旧址,山东,青岛,青岛,0532,,儿童公园/青岛港,新疆路16号（近东海路）,景点,古代遗迹,120.324153,36.083959
青岛取引所旧址,山东,青岛,青岛,0532,,儿童公园/青岛港,馆陶路22号,景点,古代遗迹,120.320884,36.07929
崔子范艺术馆,山东,青岛,莱西市,0532,88473069,月湖圈,文化东路9号,景点,美术馆,120.533372,36.857018
孔维克艺术馆,山东,青岛,青岛,0532,85880098,麦凯乐,香港中路132号乙,景点,美术馆,120.417501,36.065291
日本大连汽船株式会社旧址,山东,青岛,青岛,0532,,儿童公园/青岛港,馆陶路41-43号,景点,古代遗迹,120.32232,36.080339
胶州帝国法院旧址,山东,青岛,青岛,0532,,火车站/团岛,德县路2号,景点,古代遗迹,120.323488,36.064247
日本中学校旧址,山东,青岛,青岛,0532,,湛山/太平角,福山路与鱼山路交叉口西北80米,景点,古代遗迹,120.334666,36.060566
俾斯麦兵营旧址,山东,青岛,青岛,0532,,湛山/太平角,鱼山路5号海洋大学（近红岛路）,景点,古代遗迹,120.338791,36.066421
亨利王子路理发厅旧址,山东,青岛,青岛,0532,,火车站/团岛,广西路27号,景点,古代遗迹,120.321193,36.063613
火车站旅游集散中心,山东,青岛,青岛,0532,82676842,火车站/团岛,支路1号,景点,旅行社,120.313255,36.062505
沧口公园,山东,青岛,青岛,0532,,沧口/李沧,兴华路33号,景点,公园/广场,120.388768,36.185063
海云民俗文化街,山东,青岛,青岛,0532,,海云庵,海云街16-18号,景点,步行街,120.350377,36.111222
八关山,山东,青岛,青岛,0532,,湛山/太平角,小鱼山北面,景点,自然风光,120.339606,36.063586
八大峡公园,山东,青岛,青岛,0532,,火车站/团岛,巫峡路2号,景点,公园/广场,120.309558,36.053046
毛公山风景区,山东,青岛,青岛,0532,87985555,崂山风景区,青峰社区百福路毛公山风景区,景点,自然风光,120.49344,36.27419
王统照故居,山东,青岛,青岛,0532,87213148,火车站/团岛,观海二路49号,景点,纪念馆,120.324571,36.066865
红岛休闲渔村接待中心,山东,青岛,青岛,0532,87030000,城阳区,西大洋社区红岛休闲渔村,景点,更多景点/周边游,120.272126,36.189058
红岛休闲渔村,山东,青岛,青岛,0532,87033333;87030000,城阳区,红岛街道西大洋社区,景点,特色乡村,120.267606,36.186179
华楼山,山东,青岛,青岛,0532,,崂山风景区,夏庄街道华楼游览区内,景点,更多景点/周边游,120.502263,36.239579
胶州湾海底隧道,山东,青岛,青岛,0532,,火车站/团岛,薛家岛街道办事处,景点,城市观光,120.293774,36.054412
中华人民共和国水准零点,山东,青岛,青岛,0532,85885222,银海大世界,东海中路30号,景点,现代建筑,120.424065,36.055712
太平角公园,山东,青岛,青岛,0532,,湛山/太平角,湛山路8号,景点,公园/广场,120.360231,36.053025
浮山森林公园,山东,青岛,青岛,0532,,动漫产业园,银川西路126号浮山香苑,景点,森林公园,120.433328,36.089291
康有为墓,山东,青岛,青岛,0532,,青岛大学麦岛,宁德路,景点,古代遗迹,120.425222,36.077256
云山,山东,青岛,平度市,0532,83347630,平度市,平度城东北20公里,景点,自然风光,120.171632,36.893402
豹竹涧,山东,青岛,平度市,0532,,平度市,东阁街道梨沟村,景点,自然风光,119.996461,36.828041
崂山仰口游览区,山东,青岛,青岛,0532,87849398;96616,崂山风景区,王哥庄街道仰口游览区管理处,景点,自然风光,120.656021,36.232236
青岛方特梦幻王国,山东,青岛,青岛,0532,58759642;4001660006,城阳区,红岛街道岙东南路华强文化产业基地内（近环湾高速）,景点,主题乐园,120.282957,36.208836
银沙滩,山东,青岛,青岛,0532,89602009,开发区,连三岛路（温德姆酒店南侧）,景点,海滨沙滩,120.204007,35.919354
文汇国际旅行社,山东,青岛,青岛,0532,88085878,麦凯乐,东海西路37号金都花园B座1楼,景点,旅行社,120.386333,36.066787
崂山明霞洞,山东,青岛,青岛,0532,87948262,崂山风景区,崂山南部昆仑山腰,景点,宗教,120.667173,36.155875
东南山公园,山东,青岛,青岛,0532,,水清沟,长沙路100号,景点,公园/广场,120.381965,36.13244
山东万达国际旅行社,山东,青岛,青岛,0532,150****3283,市南区,宁夏路259号甲万达国旅506室,景点,旅行社,120.404226,36.079776
绿泽画院,山东,青岛,青岛,0532,84139866;4001139866,黄岛区,画院南路1号,景点,美术馆,119.909195,35.824174
1388文化街,山东,青岛,青岛,0532,,浮山所/中联广场,闽江三路浮山所（近老转村四川菜馆）,景点,步行街,120.396124,36.071884
凤凰假期旅行社,山东,青岛,青岛,0532,82713030,台东步行街,延安三路61号（邮电局对面）,景点,旅行社,120.363349,36.075235
丁家河公园,山东,青岛,青岛,0532,,丁家河,薛家岛街道长江中路178号东南方向60米,景点,公园/广场,120.202289,35.956153
君悦国际游俱乐部,山东,青岛,青岛,0532,66666685,奥帆中心,燕儿岛路1号奥帆中心内（近心海广场正门）,景点,游艇,120.393982,36.052262
银海温泉SPA水疗,山东,青岛,青岛,0532,85939000,银海大世界,东海中路30号银海大世界院,景点,温泉,120.423259,36.057849
观音寺,山东,青岛,青岛,0532,,中央商务区,福州北路84号,景点,宗教,120.39792,36.093451
青岛香根温泉酒店,山东,青岛,青岛,0532,68020333;188****8098,海泉湾度假区,莱青路377号（丁哥庄）,景点,温泉,120.66975,36.425441
幸运假期国际旅行社,山东,青岛,青岛,0532,81976607;81976608,湛山/太平角,延安三路234号海航万邦中心1103室,景点,旅行社,120.375474,36.061574
花花浪森林公园,山东,青岛,青岛,0532,,崂山风景区,滨海公路北头村,景点,森林公园,120.563841,36.235324
海趣园,山东,青岛,青岛,0532,,湛山/太平角,东海西路8号（延安三路地铁站C口步行390米）,景点,公园/广场,120.375523,36.058288
青岛自助游旅行网,山东,青岛,青岛,0532,86785600;86787700,海泊桥,山东路40号广发金融大厦1902A,景点,旅行社,120.374021,36.083061
七涧谷,山东,青岛,青岛,0532,,崂山风景区,惜福镇东葛村,景点,自然风光,120.566093,36.309162
锦江假日国际旅行社有限公司,山东,青岛,青岛,0532,153****9268,海泊桥,山东路46号,景点,旅行社,120.373551,36.084711
青岛城市展览馆,山东,青岛,青岛,0532,68868777,石老人海水浴场商圈,东海东路78号,景点,陈列馆,120.460948,36.085132
春秋旅行社,山东,青岛,青岛,0532,,胶南宏程新天地,胶南巿海南路499号宏程粤海酒店1楼,景点,旅行社,120.046501,35.884021
背包客旅行,山东,青岛,青岛,0532,139****1738,中央商务区,鹤岗路与东莞一路交叉口西北120米,景点,旅行社,120.383596,36.104846
青岛铁橛山风景区,山东,青岛,青岛,0532,82186828,黄岛区,京山路铁镢山风景区附近,景点,自然风光,119.863538,35.888791
珠山国家森林公园,山东,青岛,青岛,0532,86833168;86833166,开发区,小珠山路2号,景点,森林公园,120.079993,35.977775
海上旅游,山东,青岛,青岛,0532,139****1738,奥帆中心,越秀路奥帆中心2号门内,景点,旅行社,120.394163,36.052455
交运观光巴士,山东,青岛,青岛,0532,82876868,火车站/团岛,单县之路1号,景点,城市观光,120.31292,36.062198
元宝山度假村,山东,青岛,青岛,0532,138****9159,即墨区,王哥庄西台社区,景点,更多景点/周边游,120.597771,36.324112
城市阳台景区,山东,青岛,青岛,0532,83978302,胶南海王路,西海岸路,景点,城市公园,120.055003,35.869367
中国旅行社,山东,青岛,青岛,0532,55569191,宝龙城市广场,文阳路269号（鑫复盛逸海国际酒店）,景点,旅行社,120.396948,36.295628
南园孔子纪念馆,山东,青岛,青岛,0532,82892132,火车站/团岛,青岛路1号,景点,纪念馆,120.324365,36.063075
聚贤山庄,山东,青岛,青岛,0532,,崂山风景区,212省道与崂山景区旅游专用路交叉口东720米,景点,更多景点/周边游,120.573936,36.242966
中苑海上广场,山东,青岛,青岛,0532,,火车站/团岛,八大峡青铜峡路最南端中苑海上码头,景点,广场,120.302436,36.052742
梅花山生态园,山东,青岛,莱西市,0532,,莱西市,烟台路,景点,动植物园,120.513555,36.900489
湖滨公园,山东,青岛,莱西市,0532,,莱西市,崂山路北150米,景点,公园/广场,120.453179,36.931059
湖滨生态园,山东,青岛,莱西市,0532,,莱西市,二一五省道,景点,动植物园,120.47672,36.937193
中青旅国际旅行社,山东,青岛,莱西市,0532,81870166,莱西市,重庆路与香港路交叉口东120米,景点,旅行社,120.531926,36.883336
龙海公园,山东,青岛,莱西市,0532,,莱西市,莱西经济技术开发区南龙湾庄,景点,公园/广场,120.530744,36.843417
韩家屯村文化广场,山东,青岛,莱西市,0532,,莱西火车站,烟青公路与长沙路交叉口西北400米,景点,公园/广场,120.528091,36.803692
燕海美术馆,山东,青岛,莱西市,0532,86642888,北利群人民广场,长岛路181号,景点,美术馆,120.515551,36.882093
缤纷广场,山东,青岛,莱西市,0532,,莱西市,重庆中路7-16号,景点,广场,120.525,36.883614
双龙生态园,山东,青岛,莱西市,0532,,莱西市,南京北路仁和梅苑-二区北侧约210米,景点,植物园,120.530705,36.906867
基督教会望莲庄教堂,山东,青岛,莱西市,0532,,莱西市,荣潍高速公路莱西,景点,宗教,120.412652,36.88729
莱西革命烈士陵园,山东,青岛,莱西市,0532,88411617,莱西市,芝罘路23号,景点,烈士陵园,120.514218,36.814897
胶州市烈士陵园,山东,青岛,胶州市,0532,,胶州路,福州北路32号（胶州市城市管理行政执法局西北）,景点,烈士陵园,120.02216,36.290197
三里河公园,山东,青岛,胶州市,0532,,新城区,三里河街道厦门路2号,景点,公园/广场,120.03387,36.260682
基督教胶州市朝鲜族活动点,山东,青岛,胶州市,0532,135****9371,韩国城,温州路190号,景点,景点/周边游,120.031898,36.283276
玉皇庙,山东,青岛,胶州市,0532,88277012,胶州市,胶北街道胶州212路;胶州217路,景点,宗教,119.956511,36.383781
中国秧歌城,山东,青岛,胶州市,0532,,胶州市,香港路南100米,景点,更多景点/周边游,120.077927,36.251488
胶建世纪国际旅行社,山东,青岛,胶州市,0532,87221717;87229998,胶州湾财富中心,兰州东路与苏州路交叉口西胶州湾·财富中心C座,景点,旅行社,120.011227,36.284607
中国旅行社总社,山东,青岛,胶州市,0532,82200369,新城区,北京路548号,景点,旅行社,120.027665,36.264995
秧歌公园,山东,青岛,胶州市,0532,,北关,福州北路与濯砚泉路交叉路口往西北约80米,景点,公园/广场,120.015627,36.310646
胶州天主堂,山东,青岛,胶州市,0532,,韩国城,温州路71号,景点,宗教,120.033112,36.28233
牧马城,山东,青岛,胶州市,0532,,胶州市,里岔镇,景点,人文古迹,119.77155,36.05954
胶州湾旅行社,山东,青岛,胶州市,0532,87251234,广州南路,广州南路胶州三中对面308号,景点,旅行社,120.008257,36.272798
南庄四村文体广场,山东,青岛,胶州市,0532,,胶东镇,锦湖馨苑南侧约190米,景点,公园/广场,120.108536,36.302219
胶州湾旅行社,山东,青岛,胶州市,0532,87231234;87232929,常州路,兰州东路133号,景点,旅行社,120.017382,36.284542
人口家庭公园,山东,青岛,胶州市,0532,,韩国城,九龙街道兰州东路572号,景点,公园/广场,120.038034,36.286497
民俗艺术馆,山东,青岛,平度市,0532,,平度市,红旗路58-1号,景点,美术馆,119.967275,36.786892
泽山湖公园,山东,青岛,平度市,0532,,平度市,西崖村387号,景点,公园/广场,119.95018,36.99551
平度市画院,山东,青岛,平度市,0532,,利群/尚街,杭州路,景点,美术馆,119.967796,36.786456
世纪风情国际旅行社,山东,青岛,平度市,0532,86638388;80756788,利群/尚街,人民路39号,景点,旅行社,119.974089,36.791299
锦江假日国际旅行社,山东,青岛,平度市,0532,186****1608,利群/尚街,东阁街道红旗路12-1号,景点,旅行社,119.976276,36.787466
静心观,山东,青岛,平度市,0532,,平度市,264省道,景点,宗教,119.628599,37.003561
国通国际旅行社,山东,青岛,平度市,0532,86636668,利群/尚街,红旗路16-3号,景点,旅行社,119.975562,36.787472
彭寿莘故居,山东,青岛,平度市,0532,,利群/尚街,人民路22号,景点,名人故居,119.975191,36.790952
长乐游园,山东,青岛,平度市,0532,,平度市,长青路53号,景点,公园/广场,119.84312,36.979343
平度基督教堂,山东,青岛,平度市,0532,,平度市,泽山路103号附近,景点,宗教,119.922142,36.989021
即墨古城遗址,山东,青岛,平度市,0532,4000676688,平度市,中山街5号,景点,古代遗迹,120.248545,36.722079
金口天后宫,山东,青岛,青岛,0532,82867292,即墨区,212省道,景点,宗教,120.758125,36.601837
阳光艺术社,山东,青岛,青岛,0532,189****1576,即墨区,盛兴路152-9号,景点,美术馆,120.444531,36.392511
天井山龙王庙,山东,青岛,青岛,0532,86584022,即墨区,蓝鳌路,景点,宗教,120.537021,36.381211
中信国际旅行社,山东,青岛,青岛,0532,88516801,文化路,烟青路与文化路交叉口烟青路382号,景点,旅行社,120.45141,36.381507
小桥汉墓群,山东,青岛,青岛,0532,,即墨区,603省道,景点,古代遗迹,120.810689,36.511034
灵山庙,山东,青岛,青岛,0532,,即墨区,新兴路灵山老母庙,景点,宗教,120.468427,36.518584
小龙山,山东,青岛,青岛,0532,,即墨区,一路西150米,景点,自然风光,120.388947,36.369385
即墨市展览中心,山东,青岛,青岛,0532,88531216;88533976,即墨宝龙城市广场,振华街116号,景点,展览馆,120.455833,36.389893
仙姑庙,山东,青岛,青岛,0532,,即墨区,白云庵（马山国家级自然保护区东南）,景点,宗教,120.384451,36.399245
青岛国际博览中心,山东,青岛,青岛,0532,85058005,海泉湾度假区,温泉镇温泉二路7-1号,景点,展览馆,120.71417,36.425702
中青旅,山东,青岛,青岛,0532,,即墨区,振华街151-1号,景点,旅行社,120.432247,36.388542
永合宫,山东,青岛,青岛,0532,,即墨区,小龙山（天山一路西350米）,景点,历史建筑,120.388686,36.371594
日军侵华毛子埠大屠杀遇难同胞纪念馆,山东,青岛,青岛,0532,,即墨区,218省道西100米,景点,纪念馆,120.174761,36.456888
青岛双星度假村,山东,青岛,青岛,0532,86511693,即墨区,莱青路1号,景点,景点/周边游,120.645495,36.332885
通明宫,山东,青岛,青岛,0532,,即墨区,富民路西867米,景点,历史建筑,120.80081,36.540914
乐业游园,山东,青岛,青岛,0532,,即墨区,店子山二路与通济街交叉口北40米,景点,公园/广场,120.430086,36.388014
鼎信艺术,山东,青岛,青岛,0532,135****6176,环秀街道,湘江二路98号,景点,美术馆,120.453402,36.377
华山文化馆,山东,青岛,青岛,0532,,即墨区,鲁晨大道,景点,展览馆,120.534227,36.565227
天外天旅行社,山东,青岛,青岛,0532,81723399;81723355,即墨体育中心,蓝鳌路1255号,景点,旅行社,120.440337,36.390875
港中旅,山东,青岛,青岛,0532,88571590,即墨体育中心,蓝鳌路1255号乙,景点,旅行社,120.440512,36.390872
龙泉河公园,山东,青岛,青岛,0532,,即墨区,蓝鳌路700号西北方向110米,景点,公园/广场,120.449927,36.394115
武夷山路礼拜堂,山东,青岛,青岛,0532,,长江路沿线,武夷山路255号,景点,宗教,120.194228,35.955045
圆龙公园,山东,青岛,青岛,0532,,琅琊台路,烟台东村烟台东一路南,景点,公园/广场,120.002295,35.862049
齐长城遗址,山东,青岛,青岛,0532,,保税区,江山中路辅路与齐长城路交叉口东北140米,景点,古代遗迹,120.178059,35.993886
北城区科技馆,山东,青岛,青岛,0532,,老黄岛,崇明岛西路48号瑞源商城F1层,景点,科技馆,120.217476,36.039558
缘之旅旅行社,山东,青岛,青岛,0532,88180572;88181572,双珠路/珠海路,珠山路19号乙（珠山路与向阳路交汇处）,景点,旅行社,119.98352,35.871676
宝山公园,山东,青岛,青岛,0532,,黄岛区,七宝山路49号,景点,公园/广场,119.900567,36.001707
灵山城隍庙,山东,青岛,青岛,0532,,长江路沿线,灵海路与云坛路交叉口西160米,景点,宗教,120.137449,35.932749
泊里河西村文化广场,山东,青岛,青岛,0532,,黄岛区,泊里三路19号,景点,公园/广场,119.773751,35.695481
张家大庄遗址,山东,青岛,青岛,0532,,黄岛区,334省道,景点,古代遗迹,119.672824,35.700244
中德生态园,山东,青岛,青岛,0532,86988067,黄岛区,团结路2877号,景点,动植物园,120.125628,36.06288
潮湾秦代造船遗址,山东,青岛,青岛,0532,,黄岛区,中山四路316号,景点,古代遗迹,119.911843,35.63777
青岛旅行社,山东,青岛,青岛,0532,86130016,灵山路,水灵山路315号2楼,景点,旅行社,120.011417,35.878297
滨海花园广场,山东,青岛,青岛,0532,,上流汇,武夷山路158号,景点,公园/广场,120.192878,35.952507
徐福东渡启航处,山东,青岛,青岛,0532,,黄岛区,S293,景点,人文古迹,119.90798,35.675308
名贵兰花园,山东,青岛,青岛,0532,,胶南,泉城路2号隐珠园,景点,公园/广场,120.041273,35.891803
琅琊台国际旅行社,山东,青岛,青岛,0532,86178083,双珠路/珠海路,珠海中路76号,景点,旅行社,120.003596,35.870866
樱桃峪,山东,青岛,青岛,0532,,黄岛区,329省道（九上沟西）,景点,更多景点/周边游,119.888786,35.889637
中青旅国际旅行社,山东,青岛,青岛,0532,,保税区,上海路启纪集团A308室,景点,旅行社,120.176985,35.985645
会议中心,山东,青岛,青岛,0532,86898522,长江路沿线,长江中路359号,景点,现代建筑,120.199761,35.959859
唐岛湾公园,山东,青岛,青岛,0532,,开发区,漓江西路（理工大学新校区南门）,景点,城市公园,120.190287,35.92989
驼沟遗址,山东,青岛,青岛,0532,,黄岛区,袁大路,景点,古代遗迹,119.720225,35.748514
明真观,山东,青岛,青岛,0532,84613377,沧口/李沧,振华路143-6号,景点,宗教,120.39238,36.173052
九水广场,山东,青岛,青岛,0532,,九水东路,九水东路320-1号,景点,广场,120.467019,36.171694
竹子庵公园,山东,青岛,青岛,0532,,崂山风景区,天水路779号,景点,公园/广场,120.48203,36.20478
滨河商业街J区,山东,青岛,青岛,0532,,维客广场,九水路39-11号（李村地铁站C口步行400米）,景点,观光街区,120.427592,36.156822
古城顶遗址公园,山东,青岛,青岛,0532,,李沧区,梅庵九路,景点,公园/广场,120.41493,36.212959
天文科普馆,山东,青岛,青岛,0532,,沧口/李沧,永平路19甲,景点,科技馆,120.392869,36.173727
永兴游园,山东,青岛,青岛,0532,,沧口/李沧,兴华路24号,景点,公园/广场,120.389859,36.182405
青岛市四流中路基督教堂,山东,青岛,青岛,0532,,沧口/李沧,沧广路5号,景点,宗教,120.382208,36.176748
西九水,山东,青岛,青岛,0532,,崂山风景区,621路,景点,自然风光,120.530215,36.159358
石门庵遗址,山东,青岛,青岛,0532,,崂山风景区,X003,景点,古代遗迹,120.501005,36.229345
关帝庙遗址,山东,青岛,青岛,0532,,崂山风景区,风景名胜区关帝庙,景点,古代遗迹,120.673484,36.228186
南北巅基督教堂,山东,青岛,青岛,0532,,崂山风景区,北宅街道南北岭社区,景点,宗教,120.569233,36.247413
明道观,山东,青岛,青岛,0532,,崂山风景区,王哥庄街道崂山路青岛崂山国家级风景名胜区旅游专用路,景点,宗教,120.666988,36.204718
绿石博物馆,山东,青岛,青岛,0532,,崂山风景区,景区旅游专用路,景点,博物馆,120.586558,36.131238
海庙,山东,青岛,青岛,0532,,崂山风景区,崂山路32号,景点,宗教,120.540779,36.103669
金都国际广场,山东,青岛,青岛,0532,,丽达购物中心,梅岭路27号,景点,广场,120.471613,36.101221
金鱼湾,山东,青岛,青岛,0532,,崂山风景区,北宅街道,景点,自然风光,120.521736,36.174471
福泰庵遗址,山东,青岛,青岛,0532,,崂山风景区,毕家村西青岛崂山国家级风景名胜区-华楼游览区内（东侧）,景点,古代遗迹,120.528662,36.245942
华楼书院遗址,山东,青岛,青岛,0532,,崂山风景区,中国山东省青岛市崂山区北宅街道,景点,古代遗迹,120.525626,36.234135
塘子观,山东,青岛,青岛,0532,,崂山风景区,晓望社区二龙山风景区内（西侧）,景点,宗教,120.645267,36.248447
神清宫遗址,山东,青岛,青岛,0532,,崂山风景区,崂山风景名胜区内,景点,古代遗迹,120.570311,36.231721
潮海院遗址,山东,青岛,青岛,0532,,崂山风景区,西沙路,景点,古代遗迹,120.56625,36.123159
青岛国际旅游集散中心,山东,青岛,青岛,0532,,崂山万象汇,中韩街道深圳路163号,景点,旅行社,120.450333,36.116073
石湾庵遗址,山东,青岛,青岛,0532,,崂山风景区,辽阳东路鲁商蓝岸丽舍东侧约150米,景点,古代遗迹,120.496346,36.119546
城阳一品街,山东,青岛,青岛,0532,,动车小镇商圈,城阳一品街阳光馨苑南侧约70米,景点,步行街,120.327378,36.319035
小麦岛,山东,青岛,青岛,0532,,麦岛大学区,浮山所麦岛路,景点,自然风光,120.431046,36.054243
滨湖公园,山东,青岛,青岛,0532,,城阳区,河套街道河套出口加工区,景点,公园/广场,120.147124,36.222566
青云宫,山东,青岛,青岛,0532,,城阳区,G22青兰高速,景点,历史建筑,120.250917,36.216295
西女姑山休闲广场,山东,青岛,青岛,0532,,城阳区,环湾路,景点,公园/广场,120.346956,36.239725
远东国际旅行社,山东,青岛,青岛,0532,89221000,农业大学/春阳路,中城路310号,景点,旅行社,120.390413,36.304199
百福庵,山东,青岛,青岛,0532,,城阳区,惜福镇街道,景点,宗教,120.533889,36.313999
原野国际旅行社,山东,青岛,青岛,0532,136****1911,惜福镇,惜福镇王沙路998-8号,景点,旅行社,120.475953,36.303073
流亭运动公园,山东,青岛,青岛,0532,,世纪公园,长城路1号西南方向160米,景点,公园/广场,120.396788,36.280084
西窑顶遗址,山东,青岛,青岛,0532,,城阳区,银河路,景点,古代遗迹,120.460972,36.273765
国际工艺品城景区,山东,青岛,青岛,0532,87933777,东方城,黑龙江中路2118号,景点,更多景点/周边游,120.429321,36.246143
青岛中国旅行社,山东,青岛,青岛,0532,83021777;82845777,火车站/团岛,河北路23号,景点,旅行社,120.317436,36.070792
总督府野战医院旧址,山东,青岛,青岛,0532,,火车站/团岛,江苏路街道江苏路16号东门,景点,人文古迹,120.327352,36.06762
医药商店旧址,山东,青岛,青岛,0532,,火车站/团岛,广西路31号,景点,古代遗迹,120.320967,36.06362
德式建筑,山东,青岛,青岛,0532,,火车站/团岛,广西路9号,景点,历史建筑,120.323359,36.06344
银海大世界,山东,青岛,青岛,0532,68873117,麦岛大学区,东海中路30号（近银都花园）,景点,更多景点/周边游,120.422802,36.057812
海川博物馆,山东,青岛,青岛,0532,,浮山所/中联广场,闽江三路10号,景点,博物馆,120.395823,36.072722
顺客来旅游,山东,青岛,青岛,0532,,火车站/团岛,中山路街道新泰安路27号如意大厦2201室,景点,旅行社,120.314357,36.065477
江西路游园,山东,青岛,青岛,0532,,海泊桥,江西路18-24号附近（芝泉路地铁站B口步行380米）,景点,公园/广场,120.370769,36.072006
望火楼旧址,山东,青岛,青岛,0532,,火车站/团岛,观象一路45号,景点,古代遗迹,120.324573,36.07028
中商广场步行街,山东,青岛,青岛,0532,,麦凯乐,漳州路,景点,步行街,120.400122,36.068902
路德公寓旧址,山东,青岛,青岛,0532,,火车站/团岛,德县路4号,景点,古代遗迹,120.322907,36.065072
泰云地下通道商业街,山东,青岛,青岛,0532,,火车站/团岛,泰安路32号泰云地下（青岛站地铁站B口步行330米）,景点,步行街,120.313563,36.068163
香港花园广场,山东,青岛,青岛,0532,,麦凯乐,江西路160号（高雄路地铁站A口步行360米）,景点,广场,120.406658,36.06671
圣保罗教堂,山东,青岛,青岛,0532,82883635,儿童公园/青岛港,观象二路1号,景点,宗教,120.328172,36.072529
远洋国际旅行社,山东,青岛,青岛,0532,85761857;81115566,浮山所/中联广场,高邮湖路26号,景点,旅行社,120.39301,36.078541
圣心修道院旧址,山东,青岛,青岛,0532,,火车站/团岛,浙江路28号,景点,宗教,120.31974,36.068411
金龙国际旅行社,山东,青岛,青岛,0532,82861611,火车站/团岛,河南路8号,景点,旅行社,120.317451,36.063441
海涛园,山东,青岛,青岛,0532,,湛山/太平角,东海西路,景点,更多景点/周边游,120.366644,36.053463
德华银行旧址,山东,青岛,青岛,0532,,火车站/团岛,广西路14号,景点,古代遗迹,120.325308,36.062138
上海商业储蓄银行旧址,山东,青岛,青岛,0532,,火车站/团岛,中山路64-68号,景点,古代遗迹,120.318085,36.067345
金融街,山东,青岛,青岛,0532,,湛山/太平角,香港西路63号65号西南方向50米,景点,步行街,120.370356,36.058466
八大湖公园,山东,青岛,青岛,0532,,宁夏路大润发,太湖路19号（宁夏路地铁站C口步行470米）,景点,公园/广场,120.389446,36.079087
日本青岛邮局,山东,青岛,青岛,0532,,儿童公园/青岛港,德平路1号,景点,古代遗迹,120.329553,36.079547
横滨正金银行青岛支店旧址,山东,青岛,青岛,0532,,儿童公园/青岛港,馆陶路1号,景点,古代遗迹,120.319866,36.075706
朝鲜银行,山东,青岛,青岛,0532,,儿童公园/青岛港,馆陶路12号,景点,古代遗迹,120.320634,36.077864
福岭嘉苑广场,山东,青岛,青岛,0532,,浮山后,宁安路57号,景点,广场,120.404737,36.113646
中国国际葡萄酒街,山东,青岛,青岛,0532,,台东步行街,延安1路青岛葡萄酒博物馆,景点,观光街区,120.34619,36.07036
新概念国际旅行社,山东,青岛,青岛,0532,186****9536,儿童公园/青岛港,上海路1号10市（近市北门市部）,景点,旅行社,120.328642,36.073715
海泊河广场,山东,青岛,青岛,0532,,海泊桥,敦化路63-甲号,景点,广场,120.37082,36.089286
柏林传教会旧址,山东,青岛,青岛,0532,,儿童公园/青岛港,城阳路5号,景点,古代遗迹,120.32743,36.076112
青岛市清和路基督教堂,山东,青岛,青岛,0532,83820528,台东步行街,清和路42号,景点,宗教,120.352305,36.084985
红云天数码影视基地,山东,青岛,青岛,0532,83618546,台东步行街,宁夏路69号甲1号楼2单元101号,景点,影视基地,120.368717,36.078497
1919美术馆,山东,青岛,青岛,0532,,台东步行街,昌邑路39号,景点,美术馆,120.344209,36.089684
圣彼德油画艺术馆,山东,青岛,青岛,0532,,台东步行街,昌乐路1号天福新天地三楼E-20,景点,美术馆,120.346046,36.083973
国田琳书画院,山东,青岛,青岛,0532,83805703,台东步行街,瑞云路17号托马斯外国语学校附近,景点,美术馆,120.352013,36.084713
青岛文化展览中心,山东,青岛,青岛,0532,,台东步行街,昌乐路3己,景点,展览馆,120.345678,36.084636
中国国旅（青岛）国际旅行社,山东,青岛,青岛,0532,66067181;81118788,中央商务区,连云港路33号万达商务楼B座5层,景点,旅行社,120.379974,36.088963
青岛德国风情街,山东,青岛,青岛,0532,,儿童公园/青岛港,馆陶路8号,景点,步行街,120.323188,36.081058
浮山香苑,山东,青岛,青岛,0532,,浮山后,同安路街道银川西路126号,景点,公园/广场,120.407999,36.091699
海泊河畅景园,山东,青岛,青岛,0532,,中央商务区,辽源路街道辽阳西路56号正北方向30米,景点,公园/广场,120.383243,36.096811
基督教堂,山东,青岛,青岛,0532,83716441,小村庄,嘉禾路15号,景点,宗教,120.354515,36.111734
坛顶山公园,山东,青岛,青岛,0532,,小村庄,拜泉路20号,景点,公园/广场,120.377116,36.106772
海军营部大楼旧址,山东,青岛,青岛,0532,,火车站/团岛,沂水路9号,景点,古代遗迹,120.325357,36.064655
睿途国际旅行社,山东,青岛,青岛,0532,,麦凯乐,市政大厦10楼,景点,旅行社,120.40364,36.069771
华艺假期国际旅行社,山东,青岛,青岛,0532,88916316,崂山区,辽阳东路9号大埠东小区1号楼网点（近高科园装饰城）,景点,旅行社,120.433342,36.111852
燕儿岛山公园,山东,青岛,青岛,0532,,市南区,澳门路138号,景点,城市公园,120.40578,36.05494
康辉旅游,山东,青岛,青岛,0532,87618599,维客广场,京口路85-3号（君峰路地铁站C口步行290米）,景点,旅行社,120.41853,36.162854
顺通国际旅行社,山东,青岛,青岛,0532,84666232;133****5528,沧口/李沧,"振华路156-52号（近青岛北站,沧口维客）",景点,旅行社,120.388655,36.172165
奥帆之心帆船俱乐部,山东,青岛,青岛,0532,176****8588,麦凯乐,新会路2号,景点,帆船,120.397137,36.058127
滨海假期国际旅行社,山东,青岛,青岛,0532,80808062;130****8027,台东步行街,北区东光路38号东篱公寓1号楼204室,景点,旅行社,120.358263,36.078213
碧海蓝天旅行社,山东,青岛,青岛,0532,,火车站/团岛,新泰安路27号,景点,旅行社,120.314181,36.065439
中青旅国际旅行社,山东,青岛,青岛,0532,58728717;131****6535,李村公园,夏庄路66-5号2楼,景点,旅行社,120.425435,36.163715
胶东昆虫博物馆,山东,青岛,莱西市,0532,,月湖圈,月湖公园揽月楼,景点,博物馆,120.528742,36.858897
大运旅行社,山东,青岛,胶州市,0532,87203366;87265058,胶州路,福州北路57号,景点,旅行社,120.022868,36.295138
华青国际旅行社,山东,青岛,青岛,0532,85165167,胶南人民路,文化路95号,景点,旅行社,119.98911,35.87428
华商国旅,山东,青岛,胶州市,0532,87211157,常州路,寺门首路胶州刘玉花内科诊所旁,景点,旅行社,120.012374,36.281734
金岸国际旅行社,山东,青岛,胶州市,0532,86275566,新城区,厦门路19号,景点,旅行社,120.028977,36.269227
康辉旅游,山东,青岛,青岛,0532,88730093;88730593,浮山后,同安路623号,景点,旅行社,120.4202,36.098724
有朋国际旅行社,山东,青岛,青岛,0532,82885366,海泊桥,延吉路37-2号,景点,旅行社,120.365635,36.085842
青岛裕之源国际旅行社,山东,青岛,青岛,0532,88101470;150****6630,双珠路/珠海路,双珠路1630号,景点,旅行社,120.011063,35.871534
敬佛阁,山东,青岛,青岛,0532,83636333,台东步行街,延安三路59甲,景点,景点/周边游,120.362409,36.075989
百雀林生态观光园,山东,青岛,青岛,0532,187****5151,崂山风景区,崂山路286号,景点,动植物园,120.563854,36.139029
琅瑘美术馆,山东,青岛,青岛,0532,83978811,双珠路/珠海路,珠海东路163号光大商务中心318室,景点,美术馆,120.035637,35.874817
鸿源御都温泉,山东,青岛,青岛,0532,86568666,海泉湾度假区,墨温泉度假区温泉一路78号,景点,温泉,120.65908,36.445582
健身广场,山东,青岛,青岛,0532,,儿童公园/青岛港,普集支路26号,景点,广场,120.336678,36.088366
宝玉石文化广场,山东,青岛,青岛,0532,,中央商务区,敦化路97号,景点,广场,120.376706,36.090258
南墅公园,山东,青岛,莱西市,0532,,莱西市,南墅镇602省道,景点,公园/广场,120.335688,37.019682
万科生态公园,山东,青岛,青岛,0532,,崂山风景区,金水路149号,景点,公园/广场,120.4861,36.181693
黄岛区烈士陵园,山东,青岛,青岛,0532,,胶南,光大路与珠山北路交叉口西100米,景点,烈士陵园,119.993255,35.910952
民俗博物馆,山东,青岛,青岛,0532,85711594,琅琊台路,风河北路261号,景点,博物馆,120.001953,35.86285
收藏网艺术展览馆,山东,青岛,青岛,0532,80775182,台东步行街,延安路62号,景点,美术馆,120.343177,36.075967
千智广场,山东,青岛,青岛,0532,86898206,紫金山路,井冈山路668号,景点,公园/广场,120.185371,35.966721
中国旅行社,山东,青岛,青岛,0532,80973968,远洋广场,福州南路9新世界大厦24层2401室,景点,旅行社,120.39663,36.066701
华商旅行社,山东,青岛,青岛,0532,83879718,麦凯乐,南京路2号绮丽大厦5层,景点,旅行社,120.391907,36.065027
百果山森林公园,山东,青岛,青岛,0532,153****5159,崂山风景区,天水路27号,景点,森林公园,120.506387,36.204763
比利时领事馆旧址,山东,青岛,青岛,0532,,湛山/太平角,太平角一路21号（太平角公园地铁站B口步行480米）,景点,古代遗迹,120.360861,36.050491
茶山风景区,山东,青岛,平度市,0532,85329866,平度市,店子镇茶山风景区,景点,自然风光,119.985629,36.929237
水师饭店旧址,山东,青岛,青岛,0532,,火车站/团岛,湖北路17号,景点,古代遗迹,120.319275,36.066001
伏龙山公园,山东,青岛,青岛,0532,,火车站/团岛,伏龙路5号,景点,公园/广场,120.33301,36.069976
李沧基督教会,山东,青岛,青岛,0532,,沧口/李沧,永清路升平苑社区,景点,宗教,120.402323,36.180182
金鑫画廊,山东,青岛,青岛,0532,130****2873,维客广场,枣园路与果园路交叉口东南40米,景点,美术馆,120.421236,36.164316
老街里博物馆,山东,青岛,青岛,0532,,火车站/团岛,江宁路56号,景点,博物馆,120.317901,36.070891
蒙恩堂,山东,青岛,平度市,0532,,平度市,荣华路96号,景点,宗教,119.932665,36.740706
青岛钻石博物馆,山东,青岛,青岛,0532,,石老人海水浴场商圈,李山东路6号,景点,博物馆,120.469144,36.097394
特色商贸旅游区,山东,青岛,青岛,0532,83839612,台东步行街,台东三路步行街81号,景点,更多景点/周边游,120.357253,36.081616
青岛市蔬菜科技示范园,山东,青岛,青岛,0532,86586066,即墨区,烟青公路即墨开发区立交桥南侧800米,景点,更多景点/周边游,120.505455,36.370113
李沧水上公园,山东,青岛,青岛,0532,,沧口/李沧,正定支路5号附近,景点,公园/广场,120.401919,36.177921
薛家岛旅游度假区,山东,青岛,青岛,0532,,金沙滩风景区,长江中路1号,景点,自然风光,120.239255,35.956335
英国总领事官邸旧址,山东,青岛,青岛,0532,,湛山/太平角,太平角一路9号（太平角公园地铁站B口步行400米）,景点,古代遗迹,120.359583,36.051171
李沧文化公园,山东,青岛,青岛,0532,,李村公园,夏庄路126号（李村公园地铁站A口步行230米）,景点,文化公园,120.422662,36.168253
悠游旅游服务有限公司,山东,青岛,青岛,0532,82826975;66620662,火车站/团岛,北京路27号鲁能领寓A座1813室,景点,旅行社,120.316036,36.071369
大明盛泰生态观光园,山东,青岛,青岛,0532,88533666,即墨区,奉城镇政府驻地,景点,植物园,120.850467,36.541611
青岛德国总督楼旧址博物馆,山东,青岛,青岛,0532,82868838;82865359,火车站/团岛,龙山路26号,景点,博物馆,120.332964,36.064941
文化名人故居一条街,山东,青岛,青岛,0532,,湛山/太平角,福山支路青岛海滨风景区,景点,步行街,120.338526,36.058748
青岛旅行社,山东,青岛,青岛,0532,85103800,中央商务区,长沙路47138室,景点,旅行社,120.400094,36.099301
笔架山,山东,青岛,青岛,0532,,科技大学,科技大学,景点,自然风光,120.114924,35.999734
青岛世界园艺博览园,山东,青岛,青岛,0532,4001890532,崂山风景区,世园大道与常川路交汇处,景点,植物园,120.496065,36.198369
乐途游自驾游,山东,青岛,青岛,0532,83897991;83897992,五四广场商圈,东海西路35号太平洋中心503室,景点,旅行社,120.384974,36.063804
青岛海军博物馆,山东,青岛,青岛,0532,82876888,汇泉湾商圈,莱阳路8号,景点,博物馆,120.327761,36.054804
青岛上杭旅行社,山东,青岛,青岛,0532,183****3830,火车站/团岛,中山路街道青岛火车站东100米湖南路55号贝蒙特大厦7楼,景点,旅行社,120.315883,36.064853
恒大国际旅行社有限公司,山东,青岛,青岛,0532,182****1689,小村庄,重庆南路22号2单元102室,景点,旅行社,120.364094,36.106197
青岛国学公园,山东,青岛,青岛,0532,,华城路,正阳路与烟青公路交叉处正阳路1号,景点,公园/广场,120.442635,36.306729
夜游青岛,山东,青岛,青岛,0532,82827075,麦凯乐,奥帆中心蓝色畅想售票口,景点,旅行社,120.397721,36.05806
风采国际旅行社,山东,青岛,青岛,0532,150****9118,火车站/团岛,中山路街道湖南路55号贝蒙特大厦B座1103室,景点,旅行社,120.316584,36.064664
观海山公园,山东,青岛,青岛,0532,,火车站/团岛,观海二路东头,景点,公园/广场,120.325168,36.066998
白沙河运动公园,山东,青岛,青岛,0532,,城阳区,白沙河路299号城市阳光花园9-2-101号,景点,公园/广场,120.421402,36.268326
康福国际旅行社,山东,青岛,青岛,0532,80779620,中央商务区,福州北路135号鼎都1号商务楼405室,景点,旅行社,120.399962,36.099797
青岛邮电博物馆,山东,青岛,青岛,0532,82872386,火车站/团岛,安徽路5号,景点,博物馆,120.321811,36.063499
同路人旅行社,山东,青岛,青岛,0532,130****1087,奥帆中心,奥帆中心（奥帆博物馆停车场）,景点,旅行社,120.394302,36.05278
奥帆3D魔幻画展,山东,青岛,青岛,0532,58971285;58971232,台东步行街,延安三路114号金环大厦2006室,景点,美术馆,120.3624,36.07845
青岛海纳百川旅行社,山东,青岛,青岛,0532,135****5209,火车站/团岛,瞿塘峡路与青铜峡路交叉口,景点,旅行社,120.30366,36.054284
中国国际旅行社,山东,青岛,青岛,0532,135****1272,火车站/团岛,八大峡街道瞿塘峡路33号甲4号,景点,旅行社,120.305677,36.054506
青岛同路人旅行社,山东,青岛,青岛,0532,130****9912,浮山所/中联广场,宁夏路162号大福源购物广场,景点,旅行社,120.392785,36.081325
青岛商旅国际旅行社,山东,青岛,青岛,0532,81119966;186****2018,中央商务区,连云港路20号,景点,旅行社,120.381351,36.093301
启点旅游,山东,青岛,青岛,0532,86609111,浮山后,辽源路307号鼎都商务楼4号楼1楼,景点,旅行社,120.400186,36.099483
花花自由行,山东,青岛,青岛,0532,81110133,中央商务区,山东路璟台,景点,旅行社,120.374756,36.088868
神奇雨林展,山东,青岛,青岛,0532,,百丽广场,奥帆中心百丽广场南侧,景点,展览馆,120.393913,36.058713
世园会枯桃分会场,山东,青岛,青岛,0532,,崂山风景区,中韩街道,景点,更多景点/周边游,120.487229,36.145099
先行旅游,山东,青岛,青岛,0532,58733788,台东步行街,北区延安三路金环大厦2006室,景点,旅行社,120.36232,36.078445
夏日风情旅行社,山东,青岛,青岛,0532,130****8887,汇泉湾商圈,延安一路30号（动物园西门、炮台山、红酒一条街）,景点,旅行社,120.346032,36.070196
青岛美术馆,山东,青岛,青岛,0532,82888886;82889996,汇泉湾商圈,大学路7号,景点,美术馆,120.332084,36.061362
青岛啤酒街,山东,青岛,青岛,0532,138****2575,台东步行街,登州路56号（靠近台东婚纱一条街）,景点,步行街,120.35041,36.080386
苏杭西湖乌镇三日游,山东,青岛,青岛,0532,66102368,石老人海水浴场商圈,苗岭路裕龙大厦内,景点,旅行社,120.462194,36.100064
太和山风景区,山东,青岛,青岛,0532,,崂山风景区,玉虹路,景点,自然风光,120.468827,36.21541
爸爸去哪儿动漫亲子嘉年华,山东,青岛,青岛,0532,82870999,湛山/太平角,文登路28号青岛中山公园欢动世界,景点,更多景点/周边游,120.349671,36.061211
青岛租船出海观光垂钓,山东,青岛,青岛,0532,137****7777,儿童公园/青岛港,莘县路81号,景点,出海,120.313579,36.071999
鲁邦国际风情街,山东,青岛,青岛,0532,55555888,正阳路,正阳中路162号,景点,步行街,120.406239,36.305159
远洋国旅,山东,青岛,青岛,0532,89098095,丽达购物中心,秦岭路18号丽达购物中心（近会展中心）,景点,旅行社,120.469604,36.102654
陶钟斋青岛艺术馆,山东,青岛,青岛,0532,85880880,麦凯乐,江西路162号戊（高雄路地铁站B1口步行330米）,景点,美术馆,120.408815,36.068595
青石湾生态旅游度假区,山东,青岛,青岛,0532,153****6908,开发区,柳花泊青石湾度假区,景点,更多景点/周边游,120.083774,35.999136
康辉旅行社,山东,青岛,青岛,0532,82135121,海琴广场,洛阳路20号,景点,旅行社,120.389066,36.140586
崂山太清游览区,山东,青岛,青岛,0532,87948262;87948080,崂山风景区,崂山景区旅游专用路崂山太清游览区,景点,自然风光,120.670858,36.146949
凤凰岛国际旅行社,山东,青岛,青岛,0532,86889222;86885951,开发区,江山南路480号光谷研创中心6A栋2楼,景点,旅行社,120.161514,35.964691
紫斐蓝莓庄园,山东,青岛,青岛,0532,,黄岛区,省级旅游度假区龙桥路6号,景点,动植物园,119.909172,35.691521
福缘旅游,山东,青岛,青岛,0532,4000049505,台东步行街,广饶路169号,景点,旅行社,120.345976,36.070019
青岛贝壳博物馆,山东,青岛,青岛,0532,80982120,开发区,漓江西路唐岛湾步行街680号,景点,博物馆,120.201346,35.947814
海纳蓝晶潜水,山东,青岛,青岛,0532,153****2616,黄岛区,水城路（海岸水城花园）,景点,潜水,120.054034,35.882418
青岛新锐国际旅行社有限公司,山东,青岛,青岛,0532,82776007,海泊桥,山东路广发金融大厦603室,景点,旅行社,120.374049,36.082899
易游天下国际旅行社,山东,青岛,青岛,0532,83866688;186****1796,中央商务区,昆山路7080号中心广场1号楼11层1103室,景点,旅行社,120.38044,36.0931
金山滑雪场,山东,青岛,青岛,0532,86509999,即墨区,金口镇虎埠前村388号,景点,滑雪场,120.7308,36.61513
青岛青年国际旅行社,山东,青岛,青岛,0532,81115166;81117171,海琴广场,重庆南路118-2号,景点,旅行社,120.379965,36.113355
大拇指旅游咨询有限公司,山东,青岛,青岛,0532,132****7889,中央商务区,辽阳西路18号1楼151室,景点,旅行社,120.38293,36.09612
荟龙轩艺术馆,山东,青岛,青岛,0532,,麦岛大学区,麦岛路3-16号,景点,美术馆,120.425495,36.063185
台静农故居,山东,青岛,青岛,0532,,汇泉湾商圈,黄县路与恒山路交叉口西20米,景点,名人故居,120.331873,36.063083
青岛海中旅国际旅行社,山东,青岛,青岛,0532,,小村庄,重庆南路1号青岛四方丰华商厦F1层,景点,旅行社,120.364219,36.106035
和易国际旅行社有限公司,山东,青岛,青岛,0532,85909000,新业广场,清江路157号,景点,旅行社,120.383592,36.109962
广州市艺游信息技术有限公司,山东,青岛,青岛,0532,4008059688,开发区,银沙滩路178号,景点,旅行社,120.20161,35.92146
青岛盛世飞洋海上旅游有限公司,山东,青岛,青岛,0532,85932111,麦凯乐,香港中路89号琴岛大厦8楼,景点,旅行社,120.408088,36.066237
名流国际旅行社,山东,青岛,青岛,0532,184****0256,石老人海水浴场商圈,金领世家一期1单元,景点,旅行社,120.466319,36.104689
青岛海泉湾度假区,山东,青岛,青岛,0532,89060606,海泉湾度假区,蓝色硅谷滨海大道188号,景点,温泉,120.698261,36.399446
融创阿朵小镇· 藏马山国际旅游度假区,山东,青岛,青岛,0532,4006988808,黄岛区,藏南镇藏马山国际旅游度假区,景点,现代小镇,119.765299,35.78981
玉屏国际旅行社,山东,青岛,青岛,0532,68879652,中央商务区,延吉路万达广场3号门2单元30层,景点,旅行社,120.379134,36.089234
雕龙嘴村,山东,青岛,青岛,0532,,崂山风景区,王哥庄街道,景点,特色乡村,120.682999,36.216359
少海国家湿地公园,山东,青岛,胶州市,0532,85269929,胶州市,九龙街道香港路1号,景点,公园/广场,120.08893,36.242407
蓝月庄园有限公司,山东,青岛,青岛,0532,4000227116,即墨区,移政路东端,景点,动植物园,120.244266,36.581686
东方熊牧场,山东,青岛,青岛,0532,151****5690,石老人海水浴场商圈,崂山路1号石老人观光园旁,景点,动物园,120.509382,36.095321
琅琊台风景名胜区,山东,青岛,青岛,0532,84119665;87111111,黄岛区,琅琊镇登台路,景点,自然风光,119.907003,35.649082
非凡之旅国际旅行社,山东,青岛,青岛,0532,80779808;80779809,新都心,宁安路9号4单元,景点,旅行社,120.398657,36.109847
即墨老酒博物馆,山东,青岛,青岛,0532,58667995,即墨区,龙山街道办事处开河路666号,景点,博物馆,120.53019,36.363111
青岛滨海学院世界动物自然生态博物馆,山东,青岛,青岛,0532,83150358,保税区,嘉陵江西路425号滨海学院内,景点,博物馆,120.168832,35.982662
海蓝国际旅行社,山东,青岛,青岛,0532,186****1208,火车站/团岛,湖南路76号达宾汉白金豪廷酒店1层,景点,旅行社,120.31517,36.06441
青岛4D魔相馆,山东,青岛,青岛,0532,4000804077,维客广场,向阳路39号泰和购物广场4层,景点,展览馆,120.422626,36.157936
太平山公园,山东,青岛,青岛,0532,,湛山/太平角,太平山景区内,景点,城市公园,120.357171,36.068049
中众联合国际旅行社,山东,青岛,青岛,0532,82869363,火车站/团岛,湖北路31号甲,景点,旅行社,120.314797,36.065927
青岛有朋国际旅行社,山东,青岛,青岛,0532,85010679,儿童公园/青岛港,辽宁路167号颐高数码4007室,景点,旅行社,120.331965,36.082071
山东E游,山东,青岛,青岛,0532,186****9987,火车站/团岛,泰安路14号金海大酒店,景点,旅行社,120.313452,36.066079
信特景苑广场,山东,青岛,青岛,0532,85508888,即墨开发区,鹤山路216号,景点,更多景点/周边游,120.498452,36.398582
浮山所,山东,青岛,青岛,0532,,浮山所/中联广场,徐州路38号,景点,自然景观,120.388001,36.067901
胶州华云乐园,山东,青岛,胶州市,0532,,胶州路,锦州西路,景点,主题公园,120.00784,36.289441
海云庵小吃街,山东,青岛,青岛,0532,,海云庵,兴中之路7号1单元302,景点,步行街,120.357707,36.117447
颐和广场,山东,青岛,青岛,0532,84967977,海琴广场,瑞昌路185号,景点,公园/广场,120.353501,36.123857
青岛华强广场,山东,青岛,青岛,0532,,儿童公园/青岛港,青海路与大港纬二路交叉口东南40米,景点,公园/广场,120.336061,36.084341
江家土寨村,山东,青岛,青岛,0532,,崂山区,王哥庄镇江家土寨村,景点,古村古镇,120.624165,36.315705
管家楼村,山东,青岛,青岛,0532,,开发区,辛安街道,景点,古村古镇,120.163303,36.043943
中央公园里,山东,青岛,青岛,0532,68985555,李村公园,夏庄路118号（李村公园地铁站A口步行180米),景点,公园/广场,120.42514,36.16602
鲁邦国际风情街,山东,青岛,青岛,0532,55550716;55555888,正阳路,正阳中路162号,景点,观光街区,120.406259,36.305137
流亭白沙河,山东,青岛,青岛,0532,,城阳区,流亭街道308国道与银河路交汇处,景点,更多景点/周边游,120.423044,36.256769
莱茵小镇,山东,青岛,青岛,0532,,开发区,齐长城路与大旭山路交汇处,景点,现代小镇,120.171023,35.990018
第32届青岛国际啤酒节,山东,青岛,青岛,0532,185****7888,金沙滩风景区,西海岸新区金沙滩路1356号金沙滩啤酒城,景点,更多景点/周边游,120.23956,35.951227
捷安康生态园,山东,青岛,青岛,0532,138****3771,黄岛区,王台镇交运王台汽车站北2公里,景点,动植物园,120.021761,36.105997
东鲁农业公园,山东,青岛,莱西市,0532,83430688;152****3215,莱西市,北墅村五岳路1号,景点,公园/广场,120.31788,37.054731
苏联公民协会旧址,山东,青岛,青岛,0532,,湛山/太平角,韶关路26号,景点,古代遗迹,120.349336,36.054683
道路交通博物馆,山东,青岛,青岛,0532,88730888,火车站/团岛,馆陶路49号（馆陶路汽车站对面）,景点,博物馆,120.322949,36.080864
刘知侠故居,山东,青岛,青岛,0532,,湛山/太平角,金口二路40-42号（人民会堂地铁站C口步行460米）,景点,名人故居,120.333425,36.05773
4D魔幻艺术馆,山东,青岛,青岛,0532,,金沙滩风景区,国际啤酒节西海岸会场紫薇街6号7号馆,景点,美术馆,120.239974,35.95256
青岛啤酒城,山东,青岛,青岛,0532,,丽达购物中心,世纪广场啤酒城门口,景点,更多景点/周边游,120.469702,36.105002
情人坝酒吧街,山东,青岛,青岛,0532,,奥帆中心,香港中路街道奥帆中心,景点,步行街,120.390541,36.05241
木马画廊,山东,青岛,青岛,0532,139****9411,海泊桥,内蒙古路19号3中石化对面,景点,美术馆,120.347876,36.091917
青岛奥帆中心乘风破浪帆船俱乐部,山东,青岛,青岛,0532,139****3817,心海广场,澳门路88号奥帆基地,景点,出海,120.395537,36.054832
天天游旅游咨询公司,山东,青岛,青岛,0532,,火车站/团岛,团岛河南路2号东门,景点,旅行社,120.317475,36.062445
中联国旅,山东,青岛,青岛,0532,,火车站/团岛,中山路街道兰山路小强发艺旁,景点,旅行社,120.314791,36.065811
国家广告产业园,山东,青岛,青岛,0532,67768777,世纪公园,兴阳路与长城路交汇处东南侧,景点,创意园区,120.403687,36.288071
金石博物馆,山东,青岛,青岛,0532,88899988,丽达购物中心,秦岭路8号,景点,展览馆,120.470332,36.100099
东方时尚中心,山东,青岛,青岛,0532,81116789,黄岛区,环海路1000号,景点,创意园区,120.03132,35.80024
台东体育街,山东,青岛,青岛,0532,,台东步行街,北仲一路天赐良缘旁,景点,观光街区,120.362401,36.085211
乾豪国际广场,山东,青岛,青岛,0532,,云霄路,香港中路31号,景点,公园/广场,120.391768,36.066368
中央广场,山东,青岛,青岛,0532,,海泊桥,敦化路与连云港路,景点,公园/广场,120.378153,36.087708
春秋国旅,山东,青岛,青岛,0532,,火车站/团岛,保定路18号南门山东外贸大厦1711号,景点,旅行社,120.317651,36.068612
海中旅国际旅行社,山东,青岛,青岛,0532,,台东步行街,威海路216-4号,景点,旅行社,120.357866,36.089906
青港国际旅行社,山东,青岛,青岛,0532,82714777,儿童公园/青岛港,登州路街道延安路84-3号,景点,旅行社,120.344471,36.076081
枫林涧,山东,青岛,青岛,0532,,湛山/太平角,文登路28号青岛中山公园内（南侧）,景点,动植物园,120.350178,36.062448
八角广场,山东,青岛,青岛,0532,,麦凯乐,澳门路121号青岛奥林匹克帆船中心,景点,公园/广场,120.392945,36.059207
天泰山乐爱温泉-美泉宫,山东,青岛,青岛,0532,85593333,海泉湾度假区,温泉镇天泰迎宾路118号,景点,温泉,120.650157,36.429551
清华国旅,山东,青岛,胶州市,0532,159****6931;182****6093,常州路,泸州东路388号双坦小区6号楼网点,景点,旅行社,120.014596,36.275649
青岛新桥国际旅行社,山东,青岛,青岛,0532,,海琴广场,重庆南路与淮安路交叉口西南100米,景点,旅行社,120.380117,36.113577
驴歌自助行,山东,青岛,青岛,0532,130****8991,火车站/团岛,中山路街道中山路百盛商务楼18层1803号,景点,旅行社,120.318211,36.066881
蓝色海湾旅行社,山东,青岛,莱西市,0532,131****6688,莱西市人民医院,烟台路莱西市人民医院北侧约140米,景点,旅行社,120.523099,36.867361
嘉华国旅,山东,青岛,青岛,0532,66008007;83745309,海泊桥,平安路34号丙,景点,旅行社,120.351271,36.108851
山东中通国旅,山东,青岛,青岛,0532,132****6661,火车站/团岛,泰安路29号,景点,旅行社,120.313542,36.068732
山东中国旅行社,山东,青岛,青岛,0532,85611777,海琴广场,河西街道重庆南路118-6号,景点,旅行社,120.380026,36.113586
轮子世界,山东,青岛,青岛,0532,,小村庄,人民路63-1号,景点,动植物园,120.361632,36.096466
葡萄酒博物馆,山东,青岛,青岛,0532,,海琴广场,四流南路13号,景点,博物馆,120.368588,36.125728
连三岛景区,山东,青岛,青岛,0532,,银沙滩风景区,薛家岛街道经济技术开发区西南约75公里的黄海中,景点,自然风光,120.199423,35.897973
汇丰银行经理旧宅,山东,青岛,青岛,0532,,火车站/团岛,湖南路4号（人民会堂地铁站A1口步行420米）,景点,人文古迹,120.326974,36.063349
盛世飞洋海上旅游有限公司,山东,青岛,青岛,0532,85931515,汇泉湾商圈,莱阳路10号（人民会堂地铁站D口步行400米）,景点,旅行社,120.32749,36.05781
原圣言会会馆旧址,山东,青岛,青岛,0532,,火车站/团岛,曲阜路1号丙,景点,古代遗迹,120.321136,36.067382
亭子兰炮台,山东,青岛,青岛,0532,,黄岛区,琅琊镇琅琊台,景点,古代遗迹,119.919902,35.637957
山东路矿公司旧址,山东,青岛,青岛,0532,,火车站/团岛,广西路14号（人民会堂地铁站A1口步行460米）,景点,古代遗迹,120.325042,36.062512
齐燕会馆旧址,山东,青岛,青岛,0532,,火车站/团岛,馆陶路13号,景点,古代遗迹,120.321685,36.078225
圣水浮金公园,山东,青岛,平度市,0532,83303970,平度市,海州路133号附近,景点,公园/广场,120.016757,36.780599
九兴艺术馆,山东,青岛,胶州市,0532,,胶州市,云溪路与金博路交叉口西80米,景点,美术馆,120.092371,36.281131
三井洋行旧址,山东,青岛,青岛,0532,,火车站/团岛,堂邑路11号,景点,古代遗迹,120.319628,36.075238
琴岛之眼摩天轮,山东,青岛,青岛,0532,158****1303,开发区,漓江西路1166号,景点,高空观景,120.174362,35.933826
观龙阁,山东,青岛,青岛,0532,84119665,黄岛区,琅琊台风景区服务区门岗,景点,人文古迹,119.905689,35.651499
龙泰国际旅行社,山东,青岛,青岛,0532,83876603,湛山/太平角,香港西路19号709室,景点,旅行社,120.360196,36.054836
秦阙,山东,青岛,青岛,0532,,黄岛区,琅琊镇琅琊台,景点,历史建筑,119.909461,35.652781
颂康泰国际旅行社有限公司,山东,青岛,青岛,0532,80867251,丽达购物广场,同安路882-1号颐杰鸿泰大厦2401室,景点,旅行社,120.450713,36.111121
九山沟观光生态园,山东,青岛,青岛,0532,,黄岛区,平湖路铁山街道办事处,景点,动植物园,119.935125,35.901915
德国神甫旧址,山东,青岛,青岛,0532,,火车站/团岛,广西路5号,景点,古代遗迹,120.325037,36.062937
同路人旅行社,山东,青岛,青岛,0532,,海泉湾度假区,温泉镇汤泉一路,景点,旅行社,120.658009,36.445139
锦兴源旅行社,山东,青岛,青岛,0532,85881800,极地海洋世界,东海东路60号-43号网点,景点,旅行社,120.443808,36.069952
正大国际旅行社,山东,青岛,青岛,0532,66968688,正阳路,长城路680号（城管执法局旁）,景点,旅行社,120.401823,36.30988
青岛远东旅行社营业部,山东,青岛,青岛,0532,88533317,市政府,振华街33号,景点,旅行社,120.443433,36.387873
中达旅游,山东,青岛,胶州市,0532,87203366,胶州公园,福州北路61号,景点,旅行社,120.022855,36.295185
碧海银桥旅行社,山东,青岛,青岛,0532,152****6001,火车站/团岛,太平路与郯城路交叉口东100米,景点,旅行社,120.316405,36.062395
青岛力天世纪航空旅游服务有限公司,山东,青岛,青岛,0532,83839999;88009999,万象城,闽江路2号国华大厦B-1901室,景点,旅行社,120.378549,36.069179
中国青年旅行社,山东,青岛,青岛,0532,,九水东路,夏庄路1号伟东乐客城1层A05B,景点,旅行社,120.477318,36.172329
规划公示厅,山东,青岛,青岛,0532,,香港中路沿线,香港中路76号西南方向130米,景点,博物馆,120.39862,36.06329
青岛市四方区旅游公司,山东,青岛,青岛,0532,,海琴广场,重庆南路298号雁山世纪写字楼,景点,旅行社,120.402082,36.141032
蓝天航空旅游中心,山东,青岛,胶州市,0532,87283737,韩国城,兰州东路564号（韩国城）,景点,旅行社,120.034711,36.286951
万达假日旅行社,山东,青岛,平度市,0532,87366086,利群/尚街,红旗路53-13号,景点,旅行社,119.969355,36.787365
希悦国旅,山东,青岛,莱西市,0532,88401928,团岛路,烟台路83-9号,景点,旅行社,120.522938,36.869048
景程国际旅行社平度部,山东,青岛,平度市,0532,88387166,利群/尚街,东阁街道红旗路12-19号,景点,旅行社,119.975957,36.787527
嘉华国旅,山东,青岛,莱西市,0532,66895188,团岛路,红岛路,景点,旅行社,120.527208,36.875718
亲王别墅旧址,山东,青岛,青岛,0532,,火车站/团岛,沂水路3号,景点,古代遗迹,120.326883,36.065367
青岛电视塔·青岛之窗,山东,青岛,青岛,0532,83657700;83654020,湛山/太平角,太平山路1号,景点,高空观景,120.355352,36.069072
刘家下河教堂,山东,青岛,青岛,0532,,九水东路,世园街道九水东路,景点,宗教,120.471402,36.166012
康辉旅游,山东,青岛,青岛,0532,85088000,国货,华城路269号,景点,旅行社,120.384845,36.301365
墨香斋画廊,山东,青岛,青岛,0532,132****8109,李村公园,顺河路43号附近,景点,美术馆,120.422377,36.170337
蔚蓝国旅,山东,青岛,青岛,0532,188****3532,湛山/太平角,香港西路52乙-1号,景点,旅行社,120.371011,36.058161
凤凰广场,山东,青岛,青岛,0532,87141988,黄岛区,吉利河路青岛西海岸新区大场镇人民政府南侧约30米,景点,公园/广场,119.63921,35.67392
青岛盛世飞洋游艇帆船,山东,青岛,青岛,0532,136****1717,银海大世界,银海大世界景区内,景点,游艇,120.423139,36.057749
灵山湾,山东,青岛,青岛,0532,,黄岛区,市水灵山岛中仁观海山庄,景点,自然景观,120.040595,35.815595
青岛铁路国际旅行社,山东,青岛,青岛,0532,82502165,即墨区,蓝兴路与皇坤路交叉路口东北侧,景点,旅行社,120.18255,36.402201
青岛绿岛风情国际旅行社,山东,青岛,青岛,0532,82839625;83812187,火车站/团岛,中山路149号丽达奥特莱斯国货店F1层,景点,旅行社,120.319267,36.071499
胶澳商埠电汽事务旧址,山东,青岛,青岛,0532,,火车站/团岛,中山路216号,景点,古代遗迹,120.318436,36.073638
即墨温泉大院别墅,山东,青岛,青岛,0532,,海泉湾度假区,西侧大田路北侧海信温泉王朝,景点,温泉,120.640883,36.44543
中青旅国际旅行社,山东,青岛,胶州市,0532,,常州路,常州路296号富新商务楼,景点,旅行社,120.017098,36.275085
国际旅游集散中心,山东,青岛,莱西市,0532,,青岛路,青岛路70号莱西汽车总站东门,景点,旅行社,120.513751,36.861001
特价游,山东,青岛,青岛,0532,132****1844,儿童公园/青岛港,武定路23号,景点,旅行社,120.325742,36.078896
国际旅行社,山东,青岛,胶州市,0532,88280567,李哥庄镇,迎宾大街联谊小区4号网点,景点,旅行社,120.160226,36.352156
枯桃花艺生态园客服中心,山东,青岛,青岛,0532,,崂山风景区,世界园艺博览园3号入口旁（枯桃地铁站B口步行220米）,景点,公园/广场,120.488833,36.148003
青岛中国旅行社,山东,青岛,青岛,0532,82869269,火车站/团岛,中山路6号发展大厦F1层,景点,旅行社,120.318583,36.063923
华顺国际旅行社,山东,青岛,青岛,0532,186****8737;88039291,沧口/李沧,重庆中路545号,景点,旅行社,120.407555,36.176455
万达国际旅行社,山东,青岛,青岛,0532,136****2940,沧口/李沧,振华路156-87号,景点,旅行社,120.38827,36.171847
康辉旅行社,山东,青岛,青岛,0532,87551173,环秀街道,长江一路117号,景点,旅行社,120.456859,36.369539
旭日阳光展览展示,山东,青岛,青岛,0532,187****0998,台东步行街,埕口路17号,景点,展览馆,120.351208,36.088208
远东国旅,山东,青岛,青岛,0532,86890199;86892677,马濠公园,黄浦江路13号西泉写字楼2楼201室,景点,旅行社,120.189251,35.962911
求知文化广场,山东,青岛,平度市,0532,,南村镇,一品大酒店（平度市南村镇政府西）,景点,公园/广场,120.130285,36.534375
茶文化博物馆,山东,青岛,青岛,0532,87915676,崂山风景区,中国山东省青岛市崂山区崂山王哥庄街道晓望社区,景点,博物馆,120.656306,36.260121
中共青岛党史纪念馆,山东,青岛,青岛,0532,83718027,海云庵,海岸路18号,景点,纪念馆,120.344077,36.107469
盛大国际旅行社,山东,青岛,青岛,0532,189****8003,火车站/团岛,禹城路9号,景点,旅行社,120.324959,36.07239
康辉旅游,山东,青岛,青岛,0532,83710300,海琴广场,嘉定路68乙-1号,景点,旅行社,120.364477,36.111187
中国国旅CITS,山东,青岛,青岛,0532,85636868,宁夏路大润发,高田路66-1-101号1单元,景点,旅行社,120.391395,36.082265
中国旅行社,山东,青岛,青岛,0532,185****1080,世贸中心,香港中路6号世贸中心A座912室,景点,旅行社,120.376601,36.061651
海尔国际旅行社,山东,青岛,青岛,0532,88938986,崂山区,株洲路与劲松七路交叉口北400米,景点,旅行社,120.420758,36.130698
台东商业步行街,山东,青岛,青岛,0532,,台东步行街,台东三路（台东地铁站E口步行180米）,景点,步行街,120.352402,36.082141
古早艺术博物馆,山东,青岛,青岛,0532,,国信体育中心,劲松七路77号古早文化城b8层,景点,博物馆,120.436732,36.108207
现河公园,山东,青岛,平度市,0532,,利群/尚街,东阁街道红旗路28-29号,景点,公园/广场,119.97124,36.789482
观象山,山东,青岛,青岛,0532,,火车站/团岛,胶州路8号,景点,自然景观,120.327243,36.070093
绵羊石 狮子峰,山东,青岛,青岛,0532,,崂山风景区,大河东崂山风景区仰口景区内,景点,更多景点/周边游,120.663683,36.234463
龙湾御景生态旅游度假村,山东,青岛,青岛,0532,189****7846,黄岛区,琅琊台风景区内,景点,景点/周边游,119.903283,35.662643
福源汤泉,山东,青岛,青岛,0532,84819222,李村公园,黑龙江中路797号59-60号网点,景点,温泉,120.427785,36.180795
青岛东方影都度假区,山东,青岛,青岛,0532,4000802828,融创茂,东岳东路与金爵路交叉口西220米,景点,主题乐园,120.107244,35.913114
旅行社国际旅游有限公司,山东,青岛,青岛,0532,66066555,麦凯乐,高雄路18号海洋大厦南区602号,景点,旅行社,120.412671,36.076951
青岛中名国际旅行社,山东,青岛,青岛,0532,185****6805;134****0100,金沙滩风景区,长江东路317号泽润广场B座602室,景点,旅行社,120.225821,35.964509
芭东小镇温泉,山东,青岛,青岛,0532,86579991;86579338,海泉湾度假区,温泉镇芭东路9号,景点,温泉,120.664845,36.452076
威海路步行街,山东,青岛,青岛,0532,,台东步行街,大名路21号附近,景点,步行街,120.35245,36.082086
冰天地,山东,青岛,青岛,0532,88830765,石老人海水浴场商圈,崂山路1号,景点,更多景点/周边游,120.512168,36.096298
城隍庙,山东,青岛,胶州市,0532,,胶州湾财富中心,兰州东路95号,景点,宗教,120.011877,36.285082
青岛市民俗博物馆,山东,青岛,青岛,0532,82880728;82869012,汇泉湾商圈,太平路19号,景点,博物馆,120.327344,36.061695
青岛涵碧楼Lalu温泉会所,山东,青岛,青岛,0532,83166666,金沙滩风景区,九龙山路277号1楼,景点,温泉,120.298085,35.974432
青岛银海国际游艇俱乐部,山东,青岛,青岛,0532,85885222,银海大世界,东海中路30号,景点,游艇,120.422545,36.057373
聚乐嘉年华,山东,青岛,青岛,0532,87893111,维客广场,李村街道峰山路与京口路交叉路口往西南约150米（星光大道妇女儿童用品广场）,景点,游乐场,120.419717,36.160167
青岛海之恋国际旅行社,山东,青岛,青岛,0532,,中央商务区,北区辽阳西路100号新业广场,景点,旅行社,120.388403,36.096943
青岛市康有为故居纪念馆,山东,青岛,青岛,0532,82879957,汇泉湾商圈,福山支路5号,景点,纪念馆,120.339397,36.059851
高凤翰纪念馆,山东,青岛,胶州市,0532,82211192,胶州市,三里河街道常州路660号,景点,纪念馆,120.012,36.25514
青岛市美术馆,山东,青岛,青岛,0532,82868762,汇泉湾商圈,鱼山路世界红十字会青岛分会旧址,景点,博物馆,120.331707,36.061277
青岛水族馆,山东,青岛,青岛,0532,82892187;58617777,汇泉湾商圈,莱阳路4号,景点,海洋馆,120.335292,36.056531
小青岛大坝,山东,青岛,青岛,0532,,汇泉湾商圈,八大关街道琴屿路26号小青岛景区内,景点,自然风光,120.325015,36.052805
青岛铁路国际旅行社,山东,青岛,青岛,0532,66081733,沧口/李沧,振华路民联凯旋酒店振华路店西侧约40米,景点,旅行社,120.386085,36.173395
翰林儿童游乐园,山东,青岛,胶州市,0532,,胶州海鲜一条街,南新西路金城江公园西大门往里走150米,景点,游乐场,120.033747,36.29942
崂山书院,山东,青岛,青岛,0532,88812888,崂山风景区,崂山路281号,景点,人文古迹,120.559601,36.129333
新航线国际旅行社,山东,青岛,青岛,0532,82522566;159****7657,即墨区,城马路（润通润园西侧）,景点,旅行社,120.37121,36.3259
龙游天下旅行社有限公司,山东,青岛,青岛,0532,186****2618,浮山后,福州北路139号(汤米公馆)2号楼203室,景点,旅行社,120.399192,36.102678
英国领事馆旧址,山东,青岛,青岛,0532,,火车站/团岛,沂水路14号（近中山路）,景点,古代遗迹,120.324993,36.063843
华龙水世界,山东,青岛,青岛,0532,85612111,青岛理工大学,鞍山二路21号,景点,温泉,120.36722,36.10243
阿朵千禧谷,山东,青岛,青岛,0532,4006988808,黄岛区,藏马山国际旅游度假区内（东北角）,景点,游乐场,119.781773,35.795771
非常小孩美术馆,山东,青岛,青岛,0532,87867110,正阳路,正阳路205号海都集团风车小镇2楼,景点,美术馆,120.392952,36.306301
中正联合国际旅行社,山东,青岛,青岛,0532,86066069,火车站/团岛,中山路街道济南路95号,景点,旅行社,120.315603,36.071009
青岛海云庵,山东,青岛,青岛,0532,86120277,海云庵,海云街17号海云街17号@#305室,景点,宗教,120.350602,36.111436
多彩旅程旅行服务有限公司,山东,青岛,青岛,0532,181****2022,浮山所/中联广场,南区南京路100号创意100产业园3号楼208-2室,景点,旅行社,120.387044,36.075494
泽雨旅行社,山东,青岛,青岛,0532,,云霄路,南京路33-8号,景点,旅行社,120.389907,36.069383
悠游旅游,山东,青岛,青岛,0532,4000003857,中央商务区,福州北路90号2005,景点,旅行社,120.397379,36.096037
美国领事馆旧址,山东,青岛,青岛,0532,,火车站/团岛,沂水路1号,景点,古代遗迹,120.326893,36.065785
墨河画廊,山东,青岛,青岛,0532,138****8898,即墨区,天井山一路198号,景点,美术馆,120.482401,36.378821
青岛文化街,山东,青岛,青岛,0532,,儿童公园/青岛港,华阳路7号(颐中烟草公司斜对面)莫泰168,景点,步行街,120.342957,36.085757
栈桥国旅,山东,青岛,青岛,0532,66653517,五四广场商圈,澳门路13号,景点,旅行社,120.381891,36.060901
奇石画廊,山东,青岛,青岛,0532,,火车站/团岛,中山路街道观海一路20号,景点,美术馆,120.323971,36.065527
石老人海水浴场,山东,青岛,青岛,0532,88894729,石老人海水浴场商圈,海口路287号,景点,海滨沙滩,120.468311,36.090255
胶州湾大桥,山东,青岛,青岛,0532,,李沧区,胶州湾大桥,景点,城市观光,120.3649,36.158039
大庙山怀念堂,山东,青岛,青岛,0532,,即墨区,卧龙陵路与大庙山路交叉口西50米,景点,景点/周边游,120.489149,36.363949
黑氏饭店旧址,山东,青岛,青岛,0532,,火车站/团岛,湖南路11号南区机关幼儿园旁,景点,古代遗迹,120.32582,36.063609
胶澳总督府旧址,山东,青岛,青岛,0532,,火车站/团岛,沂水路11号（近青岛市政协）,景点,古代遗迹,120.324543,36.064949
礼贤书院旧址,山东,青岛,青岛,0532,82823559,儿童公园/青岛港,上海路7号（观象山市立医院地铁站A口步行460米）,景点,人文古迹,120.32621,36.075832
刘龙奇石馆,山东,青岛,青岛,0532,,李沧宝龙,李村河旁林成商务宾馆旁,景点,博物馆,120.424306,36.154336
第二海水浴场青疗更衣室,山东,青岛,青岛,0532,186****0506,湛山/太平角,八大关街道山海关路6号,景点,自然景观,120.351351,36.050711
babylove淘气堡,山东,青岛,青岛,0532,,万达广场,巨峰路178号万达广场(青岛李沧店),景点,更多景点/周边游,120.434341,36.167198
青岛四方奥林匹克公园,山东,青岛,青岛,0532,84889667,海琴广场,洛阳路街道安阳支路17号（近安阳路）,景点,公园/广场,120.387009,36.146744
果果亲子游乐园,山东,青岛,青岛,0532,150****8021,开发区,漓江西路48号,景点,更多景点/周边游,120.199888,35.947261
英商住宅,山东,青岛,青岛,0532,,火车站/团岛,江苏路1号,景点,历史建筑,120.326672,36.062772
青岛田野国际旅行社,山东,青岛,青岛,0532,83958123;83958620,石老人海水浴场商圈,天泰金融广场B座,景点,旅行社,120.467628,36.099983
青岛山炮台遗址,山东,青岛,青岛,0532,82791918;82791919,汇泉湾商圈,兴安支路1号,景点,纪念地,120.343031,36.069757
少海风景区,山东,青岛,胶州市,0532,85269929,胶州市,香港路1号,景点,自然风光,120.079837,36.243121
梦幻世界,山东,青岛,青岛,0532,,小村庄,重庆南路1号利群商四方购物广场5楼（近人民路）,景点,主题公园,120.362473,36.104527
夜游青岛,山东,青岛,青岛,0532,85755916;85755917,五四广场商圈,东海西路37号金都花园A6B室,景点,旅行社,120.387971,36.064082
心海广场夜游,山东,青岛,青岛,0532,68678888,百丽广场,香港中路街道青岛奥帆中心心海广场,景点,游艇,120.388199,36.064079
上海加仑文化传播有限公司,山东,青岛,青岛,0532,153****0917,奥帆中心,新会路1号,景点,旅行社,120.396401,36.056891
青岛市黄岛区博物馆,山东,青岛,青岛,0532,86163775,胶南人民路,文化路103号,景点,博物馆,119.991336,35.87447
滨海步行道,山东,青岛,青岛,0532,,银海大世界,东海中路与彰化路交叉路口往南约70米,景点,步行街,120.416983,36.058513
龙山风景区,山东,青岛,青岛,0532,,即墨区,龙山街道503省道,景点,自然风光,120.548249,36.374005
高格庄水库,山东,青岛,莱西市,0532,,莱西市,高格庄村西北300米,景点,现代建筑,120.55227,37.000186
凤凰岛旅游度假区,山东,青岛,青岛,0532,,金沙滩风景区,连三岛路西100米,景点,自然风光,120.245709,35.959842
国开美术,山东,青岛,青岛,0532,,中央商务区,绍兴路69号,景点,美术馆,120.390224,36.094284
艾山星空主题公园,山东,青岛,胶州市,0532,,胶州市,洋河镇艾山风景区,景点,主题乐园,119.945395,36.123205
仰口游览区,山东,青岛,青岛,0532,96616;87849398,崂山风景区,仰口风景游览区,景点,自然景观,120.671317,36.235957
麻湾渔乐园,山东,青岛,胶州市,0532,,胶东镇,渔乐湖小区西侧,景点,公园/广场,120.102493,36.307774
石门寺,山东,青岛,青岛,0532,0532-84123456;0532-84123457,黄岛区,胡家小庄村,景点,宗教,119.974098,35.801476
艺唐陶艺美术馆,山东,青岛,青岛,0532,,城阳区,岙东北路棘洪滩港北小区,景点,美术馆,120.269132,36.344902
大石寺,山东,青岛,青岛,0532,,崂山风景区,崂山路87号庚,景点,宗教,120.537132,36.10842
落药河油桃行政中心,山东,青岛,平度市,0532,,平度市,白沙河街道办事处西山前村落药河油桃,景点,更多景点/周边游,120.113262,36.70668
西海岸生态观光园,山东,青岛,青岛,0532,55585190,黄岛区,西海岸新区胶州湾东路3666号,景点,动植物园,120.068136,35.917933
爬行动物生态园,山东,青岛,青岛,0532,,石老人海水浴场商圈,香港东路与崂山路交叉口西北240米,景点,动植物园,120.509954,36.097074
平度植物园,山东,青岛,平度市,0532,,利群/尚街,人民路12号,景点,植物园,119.977922,36.79063
冰石涧,山东,青岛,平度市,0532,,平度市,旧店镇方家村,景点,自然风光,120.182571,36.931161
蒋丙然故居,山东,青岛,青岛,0532,,火车站/团岛,观象二路10号,景点,名人故居,120.328461,36.069331
南辛安河公园,山东,青岛,青岛,0532,,开发区,辛安街道前湾港路323号,景点,公园/广场,120.137184,36.003503
佳华海景国际旅行社,山东,青岛,青岛,0532,176****2068,浮山所/中联广场,闽江路2号国华大厦A座1901室,景点,旅行社,120.378512,36.069178
奥帆博物馆,山东,青岛,青岛,0532,66562015,奥帆中心,奥帆路3号,景点,纪念馆,120.394339,36.053233
劈柴院,山东,青岛,青岛,0532,82828291;150****7658,火车站/团岛,河北路33号,景点,步行街,120.317867,36.071291
六街口街心花园,山东,青岛,青岛,0532,,云霄路,（江西路地铁站C口步行470米）,景点,公园/广场,120.391114,36.072712
沙子口渔港,山东,青岛,青岛,0532,,崂山风景区,崂山路96号,景点,更多景点/周边游,120.550376,36.118715
竹岔岛,山东,青岛,青岛,0532,136****5376,黄岛区,莘县路65号小港平安快船码头,景点,自然风光,120.315215,35.942905
英国麦加利银行,山东,青岛,青岛,0532,,火车站/团岛,馆陶路2号,景点,历史建筑,120.319481,36.075911
丹麦驻青领事馆旧址,山东,青岛,青岛,0532,,火车站/团岛,馆陶路28号,景点,古代遗迹,120.321789,36.080337
丽海广场,山东,青岛,青岛,0532,88602888,石老人海水浴场商圈,松岭路38号,景点,公园/广场,120.479713,36.099338
台东夜市,山东,青岛,青岛,0532,,台东步行街,台东三路,景点,夜市,120.358339,36.081761
实业银行旧址,山东,青岛,青岛,0532,,火车站/团岛,河南路13号,景点,古代遗迹,120.317681,36.066851
小港湾文史展览馆,山东,青岛,青岛,0532,,火车站/团岛,小港一路19号,景点,展览馆,120.317732,36.075638
蝴蝶楼,山东,青岛,青岛,0532,,湛山/太平角,八大关街道山海关路21号,景点,历史建筑,120.345971,36.04991
浮山湾,山东,青岛,青岛,0532,,市南区,澳门路与惠东路交叉口南约140米,景点,自然风光,120.380727,36.057792
澜湾艺术公园,山东,青岛,青岛,0532,68012162;68012163,金茂览秀城,华中路与河东路交叉口东南150米,景点,公园/广场,120.29538,36.270588
奥帆中心游轮俱乐部,山东,青岛,青岛,0532,,奥帆中心,金湾路9号,景点,城市观光,120.394006,36.052287
青岛地铁展示馆,山东,青岛,青岛,0532,55770555,湛山/太平角,香港街18号太平角公园地铁A出口,景点,博物馆,120.359925,36.053795
老青岛博物馆,山东,青岛,青岛,0532,,火车站/团岛,太平路8号,景点,博物馆,120.32874,36.05819
黄岛金沙滩潜水俱乐部,山东,青岛,青岛,0532,131****3751,金沙滩风景区,金沙滩景区金沙滩路701号黄金海岸会所内,景点,潜水,120.245731,35.957591
青岛旅行社有限责任公司,山东,青岛,青岛,0532,58730081;186****3332,麦凯乐,东海西路37号金都花园C座2103室,景点,旅行社,120.388068,36.063968
风帆广场,山东,青岛,青岛,0532,,金沙滩风景区,金沙滩景区8号冲脚摊位,景点,广场,120.243895,35.95594
义聚合钱庄旧址,山东,青岛,青岛,0532,,火车站/团岛,中山路82号,景点,古代遗迹,120.318299,36.06867
青岛国际邮轮母港,山东,青岛,青岛,0532,,市北区,路青岛邮轮母港客运中心2楼办公室,景点,游艇,120.318822,36.084243
凯撒旅游,山东,青岛,青岛,0532,134****7695,麦凯乐,香港中路69号麦凯乐(香港中路店)F1层,景点,旅行社,120.402328,36.066383
纺织谷,山东,青岛,青岛,0532,80825588,海琴广场,四流南路80号,景点,创意园区,120.37761,36.145804
麦乐国际旅行社有限公司,山东,青岛,青岛,0532,86070010;139****7899,市南区,福州南路99号甲307室,景点,旅行社,120.399646,36.076236
鹏欢游艇私人订制,山东,青岛,青岛,0532,186****5557,银海大世界,东海中路30号银海大世界游艇码头,景点,游艇,120.423933,36.056936
华东百利酒庄风景区,山东,青岛,青岛,0532,19953209152,崂山风景区,沙子口街道九水东路612号,景点,更多景点/周边游,120.519605,36.163619
碧海汤泉,山东,青岛,青岛,0532,68886699,海泊桥,延安三路182号,景点,温泉,120.365343,36.074022
泓源国际旅行社有限公司,山东,青岛,青岛,0532,139****1361;133****3667,火车站/团岛,广州路39号（青岛站地铁站A口步行490米）,景点,旅行社,120.311123,36.064703
海立广场,山东,青岛,青岛,0532,55657000,即墨宝龙城市广场,蓝鳌路672号,景点,公园/广场,120.455147,36.393269
崂山平顶山,山东,青岛,青岛,0532,,崂山风景区,王哥庄街道,景点,自然风光,120.643501,36.295771
流清河沙滩,山东,青岛,青岛,0532,,崂山风景区,崂山景区旅游专用路东100米,景点,海滨沙滩,120.614518,36.125228
荷花村风景区,山东,青岛,青岛,0532,,崂山风景区,王哥庄镇滨河路22号,景点,自然风光,120.62721,36.264421
山东省中国旅行社,山东,青岛,青岛,0532,66886382;66886386,闽江路,福州南路41号,景点,旅行社,120.397361,36.070724
奥帆中心夜游浮山湾,山东,青岛,青岛,0532,58617777,百丽广场,东部新区浮山湾畔青岛奥帆中心,景点,城市观光,120.392941,36.059218
两髻山,山东,青岛,青岛,0532,,城阳区,东阁街道办事处李家莹村北,景点,自然风光,120.454819,36.281829
齐长城百果园,山东,青岛,青岛,0532,87120001,黄岛区,铁山街道办事处大下庄村,景点,动植物园,119.877769,35.92738
海宫殿,山东,青岛,青岛,0532,,即墨区,文化路与嵩山二路交叉口南,景点,人文古迹,120.43085,36.38274
太平湾,山东,青岛,青岛,0532,,湛山/太平角,八大关街道太平湾景区,景点,自然风光,120.354178,36.050418
汇泉湾,山东,青岛,青岛,0532,,湛山/太平角,八大关街道南海路15号,景点,自然风光,120.338718,36.049658
宝龙美术馆,山东,青岛,胶州市,0532,87293666,胶州市,少海北路10号,景点,美术馆,120.1106,36.2758
世贸滨海公园,山东,青岛,青岛,0532,,胶南黄海学院,滨海大道与金孔雀路交叉路口往东南约50米（万达东方影都南侧约100米）,景点,公园/广场,120.113846,35.910869
小港滨海商业街,山东,青岛,青岛,0532,,火车站/团岛,小港一路晓港名城六期领海,景点,步行街,120.315387,36.077727
圣爱尔美术馆,山东,青岛,青岛,0532,139****8920,火车站/团岛,中山路67号悦喜客来广场F1层,景点,美术馆,120.319481,36.067711
青岛国际旅行社,山东,青岛,莱西市,0532,66897678,青岛路,琴岛路沙岭二层楼474号,景点,旅行社,120.513399,36.870362
陈干故居,山东,青岛,青岛,0532,,火车站/团岛,观象一路5号,景点,名人故居,120.328982,36.069123
丁惟汾故居,山东,青岛,青岛,0532,,汇泉湾商圈,齐河路4号,景点,名人故居,120.342571,36.064722
青岛国际会展中心,山东,青岛,青岛,0532,88898777;88894301,丽达购物中心,苗岭路9号,景点,展览馆,120.473154,36.10463
李沧宝龙乐园,山东,青岛,青岛,0532,,李沧宝龙,九水路277号宝龙城市广场西,景点,主题公园,120.425371,36.154471
北岭山公园广场,山东,青岛,青岛,0532,,海琴广场,南昌路23号7号楼,景点,公园/广场,120.375773,36.116085
华秀国际会展中心,山东,青岛,青岛,0532,,水清沟,四流南路80号华·秀1902中心纺织谷,景点,展览馆,120.377091,36.146192
金翅鸟国际体验展览中心,山东,青岛,青岛,0532,87697588,沧口/李沧,M6创意园46号,景点,展览馆,120.381799,36.167816
中国·青岛澜湾艺术公园-艺术水岸,山东,青岛,青岛,0532,,金茂览秀城,华中路与河东路交叉口东南150米,景点,城市公园,120.29341,36.275913
韩城旅行社,山东,青岛,青岛,0532,,即墨区,一期硕丰苑14号楼,景点,旅行社,120.356976,36.327216
驴妈妈旅游网,山东,青岛,青岛,0532,159****2258,即墨宝龙城市广场,蓝鳌路620-2号,景点,旅行社,120.459931,36.393121
水三王林清,山东,青岛,莱西市,0532,152****2853,粮贸,华安街福顺园西侧约110米,景点,宗教,120.521104,36.857484
青铁国旅,山东,青岛,莱西市,0532,,青岛路,青岛路吉奥新苑北100米,景点,旅行社,120.509706,36.881566
康辉旅行社,山东,青岛,平度市,0532,139****8188;139****1167,南村镇,平平网吧旁,景点,旅行社,120.136171,36.529441
峄阳文化艺术馆,山东,青岛,青岛,0532,,世纪公园,峄阳路b8-8号,景点,美术馆,120.410248,36.2701
乐达旅游,山东,青岛,青岛,0532,66887776,香港中路沿线,香港中路街道福州南路8甲中天恒大厦9楼907室,景点,旅行社,120.395231,36.066991
山东旅行社,山东,青岛,胶州市,0532,159****7917,火车站/杭州路,杭州路264号,景点,旅行社,120.001014,36.283594
刘武美术馆,山东,青岛,青岛,0532,,汇泉湾商圈,福山路2号,景点,美术馆,120.341491,36.064684
邱零艺术馆,山东,青岛,青岛,0532,,沧口/李沧,四流中路5号-10,景点,美术馆,120.387179,36.168349
汉文堂艺术馆,山东,青岛,青岛,0532,158****9289,宝龙城市广场,春城路235号,景点,美术馆,120.408375,36.296205
沧口大庙,山东,青岛,青岛,0532,,沧口/李沧,振华路141号（永平路地铁站A口旁）,景点,宗教,120.392622,36.172846
欧洲花园,山东,青岛,青岛,0532,,湛山/太平角,文登路28号青岛中山公园内,景点,公园/广场,120.351376,36.062014
晟枫运动公园,山东,青岛,青岛,0532,137****7800,九水东路,汉川路金玉花苑南侧,景点,公园/广场,120.469958,36.164277
月季盆景园,山东,青岛,青岛,0532,,崂山区,文张路与松岭路交叉口西20米,景点,植物园,120.486193,36.143703
中宸国旅,山东,青岛,青岛,0532,,海泊桥,台柳路153-14号,景点,旅行社,120.38621,36.10751
中国院子,山东,青岛,青岛,0532,80988717;80989889,开发区,银沙滩路银沙滩植物园内,景点,园林,120.20145,35.928368
利群旅游,山东,青岛,青岛,0532,,台东步行街,台东三路77号利群商厦F1层,景点,旅行社,120.355995,36.082066
青航假期,山东,青岛,青岛,0532,,东方城,黑龙江路2111号青岛东方城购物中心5层,景点,旅行社,120.427477,36.237447
吉米斯达旅行社有限公司,山东,青岛,青岛,0532,,紫金山路,井冈山路恒德大厦,景点,旅行社,120.186587,35.960407
即墨古城,山东,青岛,青岛,0532,4000676688,古城,东顺城街92号,景点,古村古镇,120.468051,36.388271
多伦多公园,山东,青岛,青岛,0532,,凯德广场,蚌埠路青岛万科城,景点,公园/广场,120.397052,36.118171
庞大汽车文化广场,山东,青岛,青岛,0532,,李沧区,重庆中路788号（南岭地铁站D口步行460米）,景点,公园/广场,120.397514,36.19852
航空假期国际旅行社有限公司,山东,青岛,青岛,0532,,香港中路沿线,香港中路50号国际新闻中心1楼,景点,旅行社,120.391776,36.065165
城阳区夏庄街道夏庄基督教会,山东,青岛,青岛,0532,87871028,城阳区,天风南路夏庄新苑小区,景点,宗教,120.453962,36.256822
立青书画沽河画廊,山东,青岛,青岛,0532,187****6096,即墨开发区,天井山二路信特花园-D区东侧,景点,美术馆,120.4869,36.396317
青龙山公园,山东,青岛,莱西市,0532,,烟台路/珠江路,李村滨河路,景点,公园/广场,120.530759,36.852266
中国国旅,山东,青岛,青岛,0532,131****0631,麦凯乐,香港中路21号家乐福一层(N多寿司旁),景点,旅行社,120.389351,36.066448
天岳连胜,山东,青岛,胶州市,0532,,火车站/杭州路,杭州路福龙园小区,景点,更多景点/周边游,120.001921,36.275844
嘉洋船配,山东,青岛,青岛,0532,152****7678,火车站/团岛,河南路122号,景点,游乐场,120.315549,36.071219
敬修佛堂,山东,青岛,平度市,0532,135****6290,平度市,天津路山水龙苑大门西157-41室,景点,宗教,119.970895,36.798645
旅游百事通,山东,青岛,胶州市,0532,,新城区,扬州支路（胶州宝龙城市广场）,景点,旅行社,120.028541,36.273751
珍珠展览中心,山东,青岛,青岛,0532,,湛山/太平角,武昌路9号,景点,博物馆,120.350319,36.059023
翔宇假期国际旅行社,山东,青岛,胶州市,0532,87202666;87251111,火车站/杭州路,杭州路17-36号,景点,旅行社,120.000071,36.295526
田横岛旅游度假村,山东,青岛,青岛,0532,85551588,即墨区,东部崂山湾北侧,景点,更多景点/周边游,120.93105,36.416477
二月二农场,山东,青岛,青岛,0532,186****1212;88978808,崂山风景区,王哥庄街道214省道何家桥南行500米路西,景点,更多景点/周边游,120.627711,36.289274
大泽山水库,山东,青岛,平度市,0532,,平度市,大泽山镇,景点,自然景观,119.949077,36.991085
兔子岛,山东,青岛,青岛,0532,,崂山区,王哥庄街道,景点,自然风光,120.719621,36.274291
团岛,山东,青岛,青岛,0532,,火车站/团岛,八大峡街道市区西南角,景点,自然风光,120.300419,36.059163
名人海广场,山东,青岛,青岛,0532,82684941,长江路沿线,长江东路395号（薛家岛地铁站A口步行210米),景点,公园/广场,120.219826,35.962372
铜牛,山东,青岛,平度市,0532,,平度市,海尔路1号,景点,更多景点/周边游,119.984998,36.779882
将军台青岛国防教育基地,山东,青岛,青岛,0532,139****2766,黄岛区,334省道琅琊台旅游度假区车琅路,景点,展览馆,119.922751,35.708964
红岛黄澜赶海园,山东,青岛,青岛,0532,,城阳区,耕海路海旺角水产公司修船厂西200米,景点,自然景观,120.229536,36.192781
青岛市龙山路基督教堂,山东,青岛,青岛,0532,82798014,儿童公园/青岛港,龙山路4号,景点,宗教,120.330341,36.068281
田横岛,山东,青岛,青岛,0532,,即墨区,田横镇田横岛村,景点,自然风光,120.966,36.41898
水清沟东山公园,山东,青岛,青岛,0532,,水清沟,长沙路,景点,公园/广场,120.382317,36.134771
墨河南岸商业街,山东,青岛,青岛,0532,,即墨区,墨河南岸商街825号,景点,步行街,120.453029,36.387369
日本第一寻常小学旧址,山东,青岛,青岛,0532,,儿童公园/青岛港,武定路29号,景点,古代遗迹,120.326585,36.080285
英琳轩画院,山东,青岛,青岛,0532,,老黄岛,崇明岛西路126号航启写字楼,景点,美术馆,120.212769,36.03783
青岛疗养院会议中心,山东,青岛,青岛,0532,,香港中路沿线,台湾路四号,景点,景点/周边游,120.409,36.0627
青岛旅游集团,山东,青岛,青岛,0532,66776720,奥帆中心,澳门路121号甲,景点,旅行社,120.397758,36.058508
国旅,山东,青岛,青岛,0532,66951370,远洋广场,燕儿岛路22号环海公寓1202室,景点,旅行社,120.402438,36.068735
欧米卡创意园,山东,青岛,青岛,0532,,东方城,仙山东路22号南院综合楼,景点,创意园区,120.431795,36.243445
魔法城堡,山东,青岛,青岛,0532,,城阳区,红岛街道岙东南路方特梦幻王国内,景点,更多景点/周边游,120.280612,36.211932
旅游百事通,山东,青岛,青岛,0532,,中央商务区,佳木斯一路38号,景点,旅行社,120.390819,36.102339
卧牛山烈士陵园,山东,青岛,青岛,0532,,即墨区,金口镇卧牛山烈士陵园,景点,烈士陵园,120.701201,36.585731
黄埠怀念堂,山东,青岛,青岛,0532,,城阳区,流亭街道夏塔路机场收费站北500米,景点,历史建筑,120.431763,36.257342
东门小吃街,山东,青岛,青岛,0532,,胶南人民路,人民路新阳光广场,景点,休闲街区,119.998306,35.8759
宝缇克艺术空间,山东,青岛,青岛,0532,185****7899,崂山风景区,九水东路650号,景点,美术馆,120.527699,36.128369
企鹅欢乐岛,山东,青岛,青岛,0532,186****6630,极地海洋世界,东海东路60号青岛海昌极地海洋世界内,景点,更多景点/周边游,120.443901,36.069504
黄酒工业旅游区,山东,青岛,青岛,0532,88563309,即墨区,烟青路166号,景点,景点/周边游,120.448782,36.358602
青岛贝林自然博物馆,山东,青岛,青岛,0532,85733357,儿童公园/青岛港,辽宁路280号少年宫对面,景点,博物馆,120.333688,36.079459
大沽河,山东,青岛,胶州市,0532,,李哥庄镇,胶州湾入口处,景点,自然风光,120.126641,36.34656
儿童游乐区,山东,青岛,青岛,0532,,新利群商场,鹤山路939号宜居商业广场B1层B1-28室,景点,游乐场,120.426559,36.39777
企鹅,山东,青岛,青岛,0532,,汇泉湾商圈,莱阳路2号青岛海底世界海兽馆内,景点,海洋馆,120.33515,36.056001
西海岸国际画廊,山东,青岛,青岛,0532,,胶南隐珠,云海路18号,景点,美术馆,120.03744,35.89472
青岛非物质文化遗产博览园,山东,青岛,青岛,0532,88560666,即墨开发区,即墨经济开发区烟青一级公路路(204国道)211号,景点,博物馆,120.499282,36.396107
正顺艺术馆,山东,青岛,青岛,0532,82718877,台东步行街,文化街中段天福玉石馆3楼4楼,景点,美术馆,120.345985,36.084209
玉林轩时尚生活艺术馆,山东,青岛,平度市,0532,,平度市,张戈庄小学西文化路,景点,美术馆,120.071407,36.685987
孙晓林艺术馆,山东,青岛,胶州市,0532,,兰州西路,兰州西路禧徕乐国际家居博览城,景点,美术馆,119.973985,36.284305
鲜多多农场,山东,青岛,莱西市,0532,,莱西市,"莱西301路区间,莱西302路",景点,更多景点/周边游,120.352507,36.717662
婚庆一条街,山东,青岛,莱西市,0532,,南利群,华安街与蓬莱路交叉口东南20米,景点,步行街,120.521091,36.858331
胡峄阳文化产业园,山东,青岛,青岛,0532,,世纪公园,峄阳路北侧,景点,更多景点/周边游,120.411827,36.27095
龙泉湖公园,山东,青岛,青岛,0532,,即墨区,龙山街道鹤山路附近,景点,公园/广场,120.539505,36.40168
盟旺山公园,山东,青岛,青岛,0532,,即墨区,即墨经济开发区鹤山东路,景点,公园/广场,120.518768,36.404228
阳光旅游,山东,青岛,青岛,0532,86036098,即墨区,嵩山二路398号园丁小区网点,景点,旅行社,120.428347,36.380287
明月·海藻世界,山东,青岛,青岛,0532,88171213;86612597,黄岛区,"咉山红路895号（六合社区北侧,区委党校南侧）",景点,科技馆,120.002127,35.812137
青岛崂山太清宫,山东,青岛,青岛,0532,87948080,崂山风景区,崂山景区旅游专用路崂山太清景区内,景点,宗教,120.67611,36.13978
驴妈妈旅游网,山东,青岛,青岛,0532,66981800,海琴广场,金沙路32号2号楼105室,景点,旅行社,120.361108,36.133288
启航海钓钓鱼俱乐部,山东,青岛,青岛,0532,130****6382,火车站/团岛,路31号小港码头,景点,出海,120.315125,36.073229
李村河公园,山东,青岛,青岛,0532,,崂山风景区,毛杨路西100米,景点,公园/广场,120.486314,36.175126
九九山观光园,山东,青岛,青岛,0532,82877656;82880728,黄岛区,刘家大村山前,景点,景点/周边游,119.919763,35.934583
海军公园,山东,青岛,青岛,0532,,黄岛区,海崖路与海军路交叉口,景点,公园/广场,120.030976,35.819416
青岛旅行社有限责任公司,山东,青岛,胶州市,0532,,常州路,常州路313号,景点,旅行社,120.017766,36.275118
青岛农村公园,山东,青岛,胶州市,0532,152****7691;139****1801,胶州市,洋河镇艾山景区内,景点,公园/广场,119.963831,36.107921
1907光影俱乐部电影博物馆,山东,青岛,青岛,0532,82851907,火车站/团岛,湖北路17号1907光影俱乐部3楼,景点,博物馆,120.31925,36.066096
栈桥回澜阁快艇码头,山东,青岛,青岛,0532,130****9959,火车站/团岛,太平路14号,景点,城市观光,120.320444,36.058475
驴妈妈旅游,山东,青岛,青岛,0532,185****7519,湛山/太平角,尖山路6号,景点,旅行社,120.349759,36.075759
大沽河博物馆,山东,青岛,胶州市,0532,87293880;82211192,胶州市,少海北路,景点,博物馆,120.110917,36.271672
青岛旅行社,山东,青岛,青岛,0532,185****0769;131****9370,海泊桥,山东路130号1号楼1单元2504室,景点,旅行社,120.373325,36.092877
西洋文化艺术博物馆,山东,青岛,青岛,0532,4000282797,丽达购物广场,霄岭路与银岭路交叉口西南约140米,景点,博物馆,120.455109,36.116329
分界线潜水会,山东,青岛,青岛,0532,132****8559,火车站/团岛,瞿塘峡路43号1号楼101户,景点,潜水,120.301615,36.054835
李村滨河公园,山东,青岛,青岛,0532,,李沧宝龙,君峰路与滨河路交叉口东南50米,景点,公园/广场,120.416738,36.148898
溪林谷山庄,山东,青岛,青岛,0532,156****8077,黄岛区,张家楼镇大山张村北山,景点,更多景点/周边游,119.806985,35.829815
回音天坛,山东,青岛,青岛,0532,,火车站/团岛,西陵峡路中苑旅游码头,景点,景点/周边游,120.304259,36.052119
熊希龄故居,山东,青岛,青岛,0532,,汇泉湾商圈,福山支路12号,景点,名人故居,120.338185,36.060335
英华门,山东,青岛,青岛,0532,,青特上豪/家佳源,泰城路万科桃花源,景点,更多景点/周边游,120.418207,36.291167
奥帆之星广场,山东,青岛,青岛,0532,,奥帆中心,澳门路98号,景点,广场,120.396691,36.056241
青岛出版艺术馆,山东,青岛,青岛,0532,157****4003,国信体育中心,海尔路182号出版大厦一楼,景点,展览馆,120.454049,36.10838
万里江茶博物馆,山东,青岛,青岛,0532,55739789,崂山风景区,松岭路397号,景点,博物馆,120.512894,36.189494
极致潜水中心,山东,青岛,青岛,0532,83091919;4008532008,奥帆中心,增城路1号金海广场13号楼3单元101室,景点,潜水,120.39972,36.053293
驴妈妈旅游网,山东,青岛,青岛,0532,157****3333,宝龙城市广场,文阳路309号1005室正东方向10米,景点,旅行社,120.394279,36.295449
途牛旅游,山东,青岛,青岛,0532,86678931,云霄路,南京路45号甲,景点,旅行社,120.389336,36.071316
青岛美来国际旅行社,山东,青岛,青岛,0532,,正阳路,正阳中路192号国贸大厦514室,景点,旅行社,120.401327,36.305179
第二海水浴场,山东,青岛,青岛,0532,66577309,湛山/太平角,山海关路6号（近花石楼）,景点,自然风光,120.350655,36.050427
甜豌豆艺术馆,山东,青岛,青岛,0532,86880366;153****2632,官厅,富春江路231号,景点,美术馆,120.177812,35.956414
西班牙风情馆,山东,青岛,青岛,0532,,湛山/太平角,八大关街道居庸关路11号,景点,陈列馆,120.349638,36.052205
春鸿九艺术馆,山东,青岛,青岛,0532,185****1050,湛山/太平角,八大关街道东海一路28号,景点,美术馆,120.365475,36.063465
海右博物馆,山东,青岛,青岛,0532,,海泊桥,中央CBD商圈连云港路26号,景点,博物馆,120.380839,36.092989
太平湾雕塑园,山东,青岛,青岛,0532,,湛山/太平角,湛山三路2号,景点,纪念馆,120.362813,36.049974
山东国际旅行社,山东,青岛,青岛,0532,,湛山/太平角,裕源大厦,景点,旅行社,120.371983,36.059733
山东国际旅行社,山东,青岛,青岛,0532,178****2461,麦凯乐,香港中路67号书城2楼,景点,旅行社,120.401641,36.065571
青岛宝湖奔马园,山东,青岛,青岛,0532,58556369,即墨区,豹虎山,景点,现代小镇,120.930519,36.49942
蓝树谷青少年世博园,山东,青岛,平度市,0532,4000369360,平度市,云山镇蓝树谷路8号,景点,游乐场,120.099074,36.799235
盈科美辰国际旅行社,山东,青岛,青岛,0532,68061805,国信体育中心,辽阳东路12号鹏丽南华商业广场1号楼6层02户,景点,旅行社,120.435066,36.109646
小寨子夜市,山东,青岛,青岛,0532,,平阳路,平阳路华城路2小区,景点,夜市,120.388912,36.301032
雅拓国际潜水中心,山东,青岛,青岛,0532,186****2827;130****1399,国信体育中心,银川东路3号国信体育中心游泳馆组委会3号口,景点,潜水,120.449406,36.103026
华光国瓷艺术馆,山东,青岛,青岛,0532,,极地海洋世界,东海东路海信天悦5号21号网点,景点,美术馆,120.439604,36.069784
如是美术馆,山东,青岛,青岛,0532,,国信体育中心,银川东路3号国信体育馆如是书店下方,景点,美术馆,120.446545,36.10344
丰和广场,山东,青岛,青岛,0532,87927777,华城路,成平路与正阳东路交叉口西100米,景点,公园/广场,120.449938,36.303413
汽车城公园,山东,青岛,青岛,0532,,即墨区,龙泉河七路,景点,公园/广场,120.5049,36.447859
孝悌龙潭,山东,青岛,青岛,0532,,湛山/太平角,龙潭路龙潭山庄,景点,自然景观,120.360858,36.071378
东城名郡动步公园,山东,青岛,青岛,0532,,即墨区,埠惜路,景点,公园/广场,120.505285,36.382311
西院,山东,青岛,青岛,0532,,汇泉湾商圈,太平路天后宫（人民会堂地铁站A1口步行270米）,景点,更多景点/周边游,120.327082,36.061442
植物园市花园,山东,青岛,青岛,0532,,湛山/太平角,郧阳路47号,景点,植物园,120.359879,36.058669
中央公园,山东,青岛,胶州市,0532,138****6823,胶州市,福州南路华仁烟酒向西40米,景点,公园/广场,120.022147,36.2825
青岛邮政跨境电商产业园仓储展示中心,山东,青岛,青岛,0532,84676680,沧口/李沧,升平路38号,景点,展览馆,120.388586,36.174546
枯桃花艺生态园,山东,青岛,青岛,0532,,崂山风景区,松岭路188号（枯桃地铁站B口步行270米）,景点,动植物园,120.492254,36.150262
青岛画院,山东,青岛,青岛,0532,,湛山/太平角,晓望路7号101户,景点,美术馆,120.364952,36.06773
宇翔旅行社,山东,青岛,胶州市,0532,87275199,火车站/杭州路,三里河街道澳门路777号107网点,景点,旅行社,120.004334,36.254024
多肉植物园,山东,青岛,青岛,0532,,城阳区,正阳西路438号,景点,植物园,120.27503,36.28864
荣品堂美术馆,山东,青岛,青岛,0532,159****2282,丽达购物广场,同安路908同安锦街F1层,景点,美术馆,120.461708,36.116417
天柱山摩崖石刻,山东,青岛,平度市,0532,85378881,平度市,天柱山,景点,人文古迹,119.941073,36.962563
德国领事馆旧址,山东,青岛,青岛,0532,82889888,火车站/团岛,青岛路1号（人民会堂地铁站A1口步行490米）,景点,古代遗迹,120.324944,36.063084
青岛东方影都融创乐园,山东,青岛,青岛,0532,4008959888,长江路沿线,隐珠街道滨海大道2777号融创茂1层园中庭西侧,景点,主题乐园,120.101166,35.904797
青山渔村,山东,青岛,青岛,0532,,崂山风景区,大河东崂山风景区太清游览区内,景点,更多景点/周边游,120.683694,36.145879
环海旅行社,山东,青岛,胶州市,0532,87232008;87211212,常州路,常州路13号,景点,旅行社,120.015545,36.282575
东海假期旅行社,山东,青岛,胶州市,0532,87215586,常州路,常州路137号,景点,旅行社,120.016779,36.279039
青岛牵手旅行社,山东,青岛,胶州市,0532,87280123,常州路,常州路18号,景点,旅行社,120.015098,36.285118
安娜国际芭蕾艺术馆,山东,青岛,胶州市,0532,136****1611,大润发/新源,郑州东路61号甲新向阳商业广场F1层,景点,美术馆,120.015839,36.289539
崂山茶园,山东,青岛,青岛,0532,87962695,崂山风景区,雕龙嘴村,景点,自然风光,120.680696,36.220816
星光里,山东,青岛,青岛,0532,55719159,丽达购物中心,苗岭路与赤岭路交叉口东约80米,景点,步行街,120.46885,36.100293
龙泉天工青瓷博物馆,山东,青岛,青岛,0532,80996917,石老人海水浴场商圈,崂山路1号石老人观光园西门如家酒店旁边,景点,博物馆,120.505581,36.094901
青岛东方影都融创电影世界,山东,青岛,青岛,0532,4000802828,长江路沿线,隐珠街道滨海大道2777号融创茂1层,景点,影视基地,120.102814,35.905327
傅家埠山水果品观光园,山东,青岛,青岛,0532,,崂山风景区,傅家埠社区傅家埠,景点,更多景点/周边游,120.490947,36.291447
中国摄影之岛,山东,青岛,青岛,0532,,黄岛区,九龙山路甘水湾村,景点,更多景点/周边游,120.309638,36.007077
天融信,山东,青岛,青岛,0532,,石老人海水浴场商圈,苗岭路9号青岛国际会展中心F1层T-007室,景点,景点/周边游,120.473541,36.105331
同友飞骥,山东,青岛,青岛,0532,,石老人海水浴场商圈,苗岭路9号青岛国际会展中心F1层T-015室,景点,景点/周边游,120.473557,36.104881
智华天成,山东,青岛,青岛,0532,,石老人海水浴场商圈,苗岭路9号青岛国际会展中心F1层T-010室,景点,景点/周边游,120.473644,36.105094
升辉,山东,青岛,青岛,0532,,石老人海水浴场商圈,苗岭路9号青岛国际会展中心F2层2-115室,景点,景点/周边游,120.473651,36.104525
普蓝陵,山东,青岛,青岛,0532,,石老人海水浴场商圈,苗岭路9号青岛国际会展中心F2层2-105室,景点,景点/周边游,120.473618,36.104608
鼎华,山东,青岛,青岛,0532,,石老人海水浴场商圈,苗岭路9号青岛国际会展中心F2层2-031室,景点,展览馆,120.473375,36.105305
中德联环,山东,青岛,青岛,0532,,石老人海水浴场商圈,苗岭路9号青岛国际会展中心F1层1-021-022室,景点,展览馆,120.473419,36.105278
是德,山东,青岛,青岛,0532,,石老人海水浴场商圈,苗岭路9号青岛国际会展中心F1层1-060室,景点,景点/周边游,120.473651,36.104541
洋浦伟业,山东,青岛,青岛,0532,,石老人海水浴场商圈,苗岭路9号青岛国际会展中心F1层1-048室,景点,展览馆,120.473443,36.105018
技佳瑞康,山东,青岛,青岛,0532,,石老人海水浴场商圈,苗岭路9号青岛国际会展中心F1层1-023号,景点,景点/周边游,120.473467,36.105297
三马,山东,青岛,青岛,0532,,石老人海水浴场商圈,苗岭路9号青岛国际会展中心F2层2-162室,景点,展览馆,120.474314,36.104811
智慧海派,山东,青岛,青岛,0532,,石老人海水浴场商圈,苗岭路9号青岛国际会展中心F2层2-072室,景点,景点/周边游,120.473627,36.104989
黎阳天翔,山东,青岛,青岛,0532,,石老人海水浴场商圈,苗岭路9号青岛国际会展中心F2层2-049号,景点,景点/周边游,120.473362,36.105182
希努尔男装专卖店,山东,青岛,青岛,0532,66013113,中央商务区,山东路171号万科中心2号楼2-1-1室,景点,美术馆,120.374079,36.098999
泽业书画院太极书画艺术馆,山东,青岛,胶州市,0532,134****2888,火车站/杭州路,杭州路茶叶U街B区55号,景点,美术馆,120.001343,36.273769
胶邦·里仁青岛啤酒广场,山东,青岛,胶州市,0532,,广州南路,胶州湾财富中心寺门首路市中小区旁,景点,公园/广场,120.005531,36.281572
康成广场,山东,青岛,青岛,0532,,琴岛学院,铁骑山路79号,景点,公园/广场,120.507831,36.306161
CHINA公社-会议厅,山东,青岛,青岛,0532,85768776,闽江路,闽江三路8号,景点,景点/周边游,120.395294,36.072662
青岛花园大酒店-会议厅,山东,青岛,青岛,0532,83990888;85882400,香港中路沿线,彰化路6号,景点,景点/周边游,120.41606,36.064318
长颈鹿馆,山东,青岛,青岛,0532,,黄岛区,经济开发区小珠山国家森林公园风景区青岛森林野生动物世界内,景点,动物园,120.055974,35.981404
擎天,山东,青岛,青岛,0532,,石老人海水浴场商圈,苗岭路9号青岛国际会展中心F2层2T-020室,景点,景点/周边游,120.473818,36.104765
康乐园,山东,青岛,青岛,0532,,中央商务区,敦化路街道伊春路18号,景点,游乐场,120.384313,36.100743
青岛耕余会馆-会议厅,山东,青岛,青岛,0532,85655077,湛山/太平角,武胜关路1号乙,景点,景点/周边游,120.349892,36.055756
自然之城KAKAZOO,山东,青岛,青岛,0532,55738866,香港中路沿线,香港中路26号未来广场5层,景点,动物园,120.387224,36.065534
东海大酒店-会议室,山东,青岛,青岛,0532,83874528,湛山/太平角,汇泉路17号东海国际大厦,景点,景点/周边游,120.345169,36.048111
旅游百事通,山东,青岛,青岛,0532,83800899,大拇指广场,翠岭路6号银盛泰新空间,景点,旅行社,120.449765,36.112204
锦绣山河奇石街,山东,青岛,青岛,0532,,黄岛区,204国道北50米,景点,步行街,119.955203,35.806203
青岛牵手国际旅行社,山东,青岛,青岛,0532,58661668,维客广场,夏庄路1号一层D1017号,景点,旅行社,120.426201,36.160652
金水河公园,山东,青岛,青岛,0532,,九水东路,宾川路和达和城附近,景点,公园/广场,120.47437,36.175092
绿城休闲广场,山东,青岛,青岛,0532,,李沧区,宜川路37号,景点,公园/广场,120.444292,36.174482
若水园,山东,青岛,青岛,0532,,科技大学,前湾港路579号,景点,更多景点/周边游,120.129787,36.004097
青岛海中旅国际旅行社,山东,青岛,青岛,0532,186****3536,海泊桥,镇江北路47号,景点,旅行社,120.367729,36.091331
中国旅行社总社,山东,青岛,青岛,0532,66721160;66721180,平阳路,和阳路339号,景点,旅行社,120.394114,36.303084
青岛奥林匹克帆船中心-电瓶车站灯塔站点,山东,青岛,青岛,0532,,奥帆中心,燕儿岛路1号奥帆中心1号门码头青岛奥林匹克帆船中心内,景点,公园/广场,120.38827,36.052864
山东省中国旅行社,山东,青岛,胶州市,0532,136****0966,新城区,绿城紫薇广场丽园1-105室,景点,旅行社,120.039306,36.266046
携程旅游水清沟营业部,山东,青岛,青岛,0532,186****0702,海琴广场,四流南路107号,景点,旅行社,120.373573,36.134437
吉祥,山东,青岛,青岛,0532,,开发区,小珠山路2号珠山国家森林公园灵珠山菩提寺内,景点,更多景点/周边游,120.084062,35.986162
中探潜水中心,山东,青岛,青岛,0532,,麦岛大学区,金家岭街道东海东路16号银海学校东侧30米,景点,潜水,120.431816,36.063327
妮优福,山东,青岛,青岛,0532,,新利群商场,店子山一路132号,景点,旅行社,120.436132,36.391772
银沙滩景区游客中心,山东,青岛,青岛,0532,,开发区,环岛路,景点,公园/广场,120.203274,35.920034
圆梦画廊艺术空间,山东,青岛,青岛,0532,82818680,儿童公园/青岛港,辽宁路80号天幕城6号,景点,美术馆,120.343507,36.080117
青岛油画院展览中心,山东,青岛,青岛,0532,,浮山所/中联广场,金湖路浮山花园北侧约50米,景点,美术馆,120.383091,36.077101
机器人国际展览中心,山东,青岛,青岛,0532,,城阳区,聚贤桥路与智力岛路交叉口,景点,科技馆,120.268758,36.265008
青岛农机展览馆,山东,青岛,青岛,0532,,即墨区,姜家庄村盛发农机专业合作社内,景点,陈列馆,120.358398,36.555508
佛仙聚,山东,青岛,胶州市,0532,,胶州市,烟沪线与沽河绿道右岸交叉路口西北侧,景点,自然景观,120.144268,36.331385
铁橛悬泉,山东,青岛,青岛,0532,,双珠路/珠海路,东楼路87-8号,景点,更多景点/周边游,119.984346,35.871566
玉兰园及大草坪,山东,青岛,青岛,0532,,湛山/太平角,文登路28号青岛中山公园内（北侧）,景点,植物园,120.349841,36.066661
市花园,山东,青岛,青岛,0532,,湛山/太平角,文登路28号青岛中山公园内,景点,植物园,120.348954,36.064807
兰亭轩美术馆,山东,青岛,青岛,0532,130****0733,动车小镇商圈,岙东北路378号,景点,美术馆,120.265688,36.329738
碧桂园滨海城城市展厅,山东,青岛,青岛,0532,80869777,云霄路,南京路45号（江西路地铁站A口步行200米）,景点,展览馆,120.389284,36.071354
贝乐儿,山东,青岛,胶州市,0532,,新城区,福州南路97号宝龙城市广场胶州宝龙广场ALLLF3层,景点,游乐场,120.027397,36.27121
晓枫斋香山美术创作室,山东,青岛,青岛,0532,,中央商务区,佳木斯二路12号,景点,美术馆,120.395215,36.102795
博文广场,山东,青岛,青岛,0532,87030666,农业大学/春阳路,209省道与长城路交叉口东140米,景点,公园/广场,120.401961,36.327883
崂山风景区-讲解服务点,山东,青岛,青岛,0532,,崂山风景区,大河东崂山风景区客服中心服务大厅内,景点,公园/广场,120.586891,36.132135
华润万象润街,山东,青岛,青岛,0532,66563333,万象城,山东路10号万象城B1层,景点,观光街区,120.376264,36.068414
韩国优秀中小企业商品展示馆,山东,青岛,青岛,0532,66851675,华城路,正阳中路鑫源世纪中心1层,景点,展览馆,120.434563,36.305878
青岛华青国际旅行社有限公司城阳营业部,山东,青岛,青岛,0532,,正阳路,正阳路192号国贸大厦2层216号,景点,旅行社,120.401489,36.304943
张宝湾社区-活动广场,山东,青岛,青岛,0532,,官厅,长江路街道北江路34号,景点,广场,120.17929,35.964874
新立村,山东,青岛,青岛,0532,,即墨区,蓝村街道,景点,古村古镇,120.188594,36.402044
博鼎红文化艺术馆,山东,青岛,青岛,0532,,九水东路,徐水路青岛融海耀洲酒店西侧约210米,景点,美术馆,120.462196,36.171833
崂山北九水游览区游客服务中心大厅-自助导游机服务处,山东,青岛,青岛,0532,,崂山风景区,大河东崂山风景区崂山九水游览区游客服务中心,景点,更多景点/周边游,120.574718,36.240973
张家下庄村111号,山东,青岛,青岛,0532,,崂山区,科苑纬一路南150米,景点,景点/周边游,120.456527,36.128837
武胜关度假酒店-会议中心,山东,青岛,青岛,0532,83888111,湛山/太平角,武昌路3号,景点,景点/周边游,120.348258,36.056448
青岛蓝海大饭店(崂山)会议室,山东,青岛,青岛,0532,,丽达购物中心,秦岭路18号,景点,景点/周边游,120.469833,36.102905
蔡家村,山东,青岛,青岛,0532,,新利群商场,通济街道,景点,古村古镇,120.439135,36.383365
集粹阁美术馆,山东,青岛,平度市,0532,139****5777,维客/百货商圈,常州路196号,景点,美术馆,119.955911,36.796051
碧桃园,山东,青岛,青岛,0532,,湛山/太平角,文登路28号青岛中山公园内,景点,植物园,120.354258,36.063888
花卉研发展馆,山东,青岛,青岛,0532,,崂山风景区,松岭路188号,景点,陈列馆,120.493298,36.148186
中国水墨书画院,山东,青岛,青岛,0532,,湛山/太平角,韶关路49号（中山公园地铁站C口步行210米）,景点,美术馆,120.351273,36.056934
文史馆,山东,青岛,青岛,0532,,海琴广场,常宁路9号戊美美家纺地铁大厦斜对面,景点,展览馆,120.413907,36.133029
张家下庄村151号,山东,青岛,青岛,0532,,崂山区,青银高速与科苑纬一路交叉路口往东南约270米,景点,景点/周边游,120.455057,36.128397
万达国旅,山东,青岛,青岛,0532,159****7668,文化路,文化路617号,景点,旅行社,120.420303,36.38377
九水游览区-游客服务中心,山东,青岛,青岛,0532,,崂山风景区,崂山北九水游览区,景点,公园/广场,120.573712,36.240376
高新区防潮坝,山东,青岛,青岛,0532,,金茂览秀城,火炬路,景点,景点/周边游,120.304592,36.254998
枯桃花艺生态园-沁心楼,山东,青岛,青岛,0532,,崂山风景区,中韩街道松岭路188号枯桃生态园,景点,植物园,120.495479,36.148716
锦茂宾馆-会议中心,山东,青岛,青岛,0532,89062000,即墨开发区,鹤山路168号,景点,景点/周边游,120.476517,36.399616
山东大新华运通国际旅行社有限公司,山东,青岛,青岛,0532,66720818,城阳区,夏塔路111-16号,景点,旅行社,120.453961,36.261101
万年红红木艺术馆,山东,青岛,莱西市,0532,88488828,莱西市,吉林路尚城家园东北侧约30米,景点,美术馆,120.524381,36.906731
汇泉王朝大饭店-多功能会议中心,山东,青岛,青岛,0532,82999888,湛山/太平角,南海路9号,景点,景点/周边游,120.344604,36.056061
青岛国际农业博览园,山东,青岛,莱西市,0532,,莱西市,店埠镇狮子口官东路鲜多多农场,景点,展览馆,120.348219,36.715249
西海岸新区展示中心,山东,青岛,青岛,0532,,黄岛区,滨海大道2567号,景点,展览馆,120.086561,35.896398
艺尚文化艺术馆,山东,青岛,平度市,0532,,平度市,同康西路同和东小区西北侧约50米,景点,美术馆,119.932482,36.742192
站前金街,山东,青岛,胶州市,0532,87255799,火车站/杭州路,青州西路与杭州路交叉口东60米,景点,步行街,120.000143,36.296813
青岛国际旅游集散中心,山东,青岛,青岛,0532,82865097,长江路沿线,长江西路2号附近（黄岛汽车总站售票厅西侧）,景点,旅行社,120.180321,35.950121
永平府,山东,青岛,青岛,0532,84620666,沧口/李沧,永平路金凌王府商务宾馆,景点,自然景观,120.393004,36.171294
国家地理标志产品展示中心,山东,青岛,平度市,0532,150****9882,利群/尚街,瑞峰街与苏州路交叉口西北20米,景点,展览馆,119.961896,36.788506
爱在古毯博物馆,山东,青岛,青岛,0532,85883377,崂山风景区,西九水1550号,景点,博物馆,120.533575,36.162227
张家下庄村150号,山东,青岛,青岛,0532,,崂山区,青银高速与科苑纬一路交叉路口往东南约290米,景点,景点/周边游,120.455199,36.128278
象耳山公园,山东,青岛,青岛,0532,,东李鞋城,天茶山路与深圳路交叉口东北50米,景点,公园/广场,120.444331,36.144661
海中旅国际旅行社,山东,青岛,青岛,0532,,小村庄,重庆南路4号,景点,旅行社,120.361361,36.101361
青岛铁路国际旅行社,山东,青岛,青岛,0532,,海琴广场,重庆南路224号,景点,旅行社,120.364486,36.106106
莱西市博物馆,山东,青岛,莱西市,0532,86405268,莱西市,上海西路17号,景点,博物馆,120.485697,36.875445
青岛电影博物馆,山东,青岛,青岛,0532,55585069,胶南黄海学院,隐珠街道滨海大道2777号（融创茂步行街北侧）,景点,博物馆,120.095204,35.905831
杨明斋故居,山东,青岛,平度市,0532,,平度市,马戈庄村昌平路附近,景点,名人故居,119.611871,36.806101
洙河公园,山东,青岛,莱西市,0532,88485388,月湖圈,文化路10号,景点,公园/广场,120.529846,36.853923
姚庆祥烈士纪念馆,山东,青岛,青岛,0532,,即墨区,问海路（即墨鳌山卫华龙小学东北侧约250米）,景点,纪念馆,120.644433,36.347667
孔祥熙故居,山东,青岛,青岛,0532,,湛山/太平角,陨阳路郧阳路33号,景点,名人故居,120.357152,36.056642
达尼画家村,山东,青岛,青岛,0532,,黄岛区,画院北路青岛达尼文化产业园,景点,特色乡村,119.913086,35.82597
马山公园,山东,青岛,青岛,0532,86657899,即墨区,通济街道蓝鳌路北,景点,公园/广场,120.379252,36.402878
西海岸美术馆,山东,青岛,青岛,0532,67799507,开发区,武夷山路7号万利国际上流汇购物广场B1,景点,美术馆,120.197395,35.948048
即发发饰博物馆,山东,青岛,青岛,0532,,即墨区,柳泉路,景点,博物馆,120.532761,36.454582
宋春舫故居,山东,青岛,青岛,0532,,汇泉湾商圈,福山支路6号,景点,名人故居,120.33897,36.05974
青铜鼎,山东,青岛,青岛,0532,,黄岛区,琅琊台琅琊文化陈列馆内,景点,更多景点/周边游,119.902986,35.646796
晶城样板展示区,山东,青岛,青岛,0532,,开发区,城发·晶城,景点,展览馆,120.171808,35.974334
蓝色硅谷楼盘展示中心,山东,青岛,青岛,0532,83653000,即墨区,212省道鳌山卫镇政府南200米路东,景点,展览馆,120.667746,36.360696
墨非墨画廊,山东,青岛,青岛,0532,183****1825,金狮广场,香港东路195号上实中心7号楼204室,景点,美术馆,120.462168,36.09895
青岛万达未来世界科技乐园,山东,青岛,青岛,0532,,融创茂,"滨海大道2777号融创茂（万达茂内,碰碰车楼上）",景点,主题公园,120.101391,35.905321
青岛红树林度假世界会议会展中心,山东,青岛,青岛,0532,,黄岛区,滨海大道1366号,景点,景点/周边游,120.062969,35.882727
法海寺,山东,青岛,青岛,0532,87797639,崂山风景区,源头社区3300号,景点,宗教,120.447256,36.234493
蒙恩堂,山东,青岛,青岛,0532,,平阳路,和阳路388号（正阳中路地铁站D口步行450米）,景点,宗教,120.391437,36.302207
青岛花岭农创园,山东,青岛,莱西市,0532,131****5836,莱西市,209省道干线,景点,更多景点/周边游,120.430929,36.753631
宝湖山庄,山东,青岛,青岛,0532,,即墨区,豹虎山附近,景点,更多景点/周边游,120.930847,36.500778
驴妈妈旅游报名处,山东,青岛,青岛,0532,159****2258,即墨区,皇坤路蓝村中心小学西南侧约120米,景点,旅行社,120.183249,36.401919
吉祥里,山东,青岛,青岛,0532,,火车站/团岛,泗水路与肥城路交叉路口往西南约100米,景点,景点/周边游,120.32203,36.069087
山东金桥国际旅行社青岛分公司,山东,青岛,青岛,0532,,湛山/太平角,标山路53号甲,景点,旅行社,120.356364,36.076128
驴妈妈旅游网,山东,青岛,青岛,0532,,宁夏路大润发,宁夏路162号大润发,景点,旅行社,120.392792,36.081252
中国旅行社,山东,青岛,青岛,0532,185****0769,火车站/团岛,肥城路如家天桥商务宾馆东南侧约50米,景点,旅行社,120.315338,36.067898
哆哆村儿童早教游乐场,山东,青岛,青岛,0532,,沧口/李沧,永平路80号维客超市1楼,景点,游乐场,120.387007,36.190477
绿岛温泉,山东,青岛,青岛,0532,86170062,胶南海王路,烟台东路108号,景点,温泉,120.009551,35.866509
陇南旅游特产展示体验区,山东,青岛,青岛,0532,,小村庄,山东路182-2号,景点,科技馆,120.372669,36.104479
鱼鸣嘴村,山东,青岛,青岛,0532,,银沙滩风景区,薛家岛街道504省道,景点,特色乡村,120.176709,35.894404
青岛海底隧道博物馆,山东,青岛,青岛,0532,86990865,金沙滩风景区,九龙江路63号,景点,博物馆,120.289787,36.002377
东莱美术馆,山东,青岛,青岛,0532,155****6387;83805676,火车站/团岛,中山路街道湖南路39号,景点,美术馆,120.317966,36.065125
中国国旅,山东,青岛,青岛,0532,139****8866,维客广场,书院路天泰书院壹号,景点,旅行社,120.419579,36.152754
文王山,山东,青岛,平度市,0532,132****9151,平度市,李园街道,景点,更多景点/周边游,119.888564,36.795734
青岛城阳世纪公园-游客服务中心,山东,青岛,青岛,0532,,世纪公园,兴阳路312东门,景点,更多景点/周边游,120.39947,36.28552
旋转木马,山东,青岛,青岛,0532,,服装市场,鹤山北路即墨商城物流中心（御园西南）,景点,更多景点/周边游,120.406071,36.402011
观景台,山东,青岛,胶州市,0532,,新城区,绿城·紫薇广场春晓苑1-101,景点,公园/广场,120.035514,36.269264
铁路旅行社,山东,青岛,青岛,0532,133****6966,老黄岛,斋堂岛街29号4-1室,景点,旅行社,120.220294,36.040494
澳洲风情小镇,山东,青岛,青岛,0532,,新都心,福州北路169号鼎城国际8号网点,景点,现代小镇,120.395619,36.106804
校史陈列馆,山东,青岛,青岛,0532,,科技大学,碧波路山东科技大学（青岛校区）,景点,陈列馆,120.127319,36.000899
嘉和艺术馆,山东,青岛,青岛,0532,134****6888,浮山后,福州北路5号,景点,美术馆,120.402204,36.082484
奥帆中心,山东,青岛,青岛,0532,66562015;82828998,奥帆中心,清远路1号,景点,现代建筑,120.391076,36.057437
荟萃广场,山东,青岛,青岛,0532,,石油大学,长江西路66号中国石油大学华东中国石油大学校内,景点,广场,120.1725,35.94184
大成阁,山东,青岛,青岛,0532,,李村公园,顺河路利客来李村公园望海楼,景点,人文古迹,120.419838,36.168038
青岛阳光168国际旅行社,山东,青岛,青岛,0532,185****8236,中央商务区,海伦路45号3号楼102户,景点,旅行社,120.375649,36.104219
嘉华国旅,山东,青岛,平度市,0532,186****9983,利群/尚街,人民路61号,景点,旅行社,119.974242,36.791358
青岛翠林云庄乡村乐园,山东,青岛,青岛,0532,87706677;68011577,城阳区,毛家庄社区,景点,特色乡村,120.247773,36.379019
青岛奥帆基地白鲨航海中心,山东,青岛,青岛,0532,133****1858,奥帆中心,新会路12号奥帆中心2号门,景点,更多景点/周边游,120.396675,36.057295
鸽舍,山东,青岛,青岛,0532,,黄岛区,小珠山路,景点,动物园,120.059043,35.98235
海中旅国际旅行社,山东,青岛,青岛,0532,133****5727,台东步行街,北仲路23甲,景点,旅行社,120.362483,36.082345
世文轩文博会馆,山东,青岛,青岛,0532,,火车站/团岛,安徽路15号,景点,博物馆,120.322335,36.066515
开发区清真寺活动点,山东,青岛,青岛,0532,,马濠公园,黄浦江路13号西泉写字楼,景点,景点/周边游,120.189351,35.962886
Diamor儿童创意园,山东,青岛,青岛,0532,185****5045,万达广场,东山四路36-78号附近,景点,创意园区,120.430943,36.163423
双山公园,山东,青岛,青岛,0532,,凯德广场,宁乡路与怀远路交叉口南250米路西,景点,公园/广场,120.391353,36.115434
驴妈妈旅游网,山东,青岛,青岛,0532,,奥帆中心,珠海路7-11号（燕儿岛路地铁站A口步行470米）,景点,旅行社,120.400349,36.062339
携程旅游,山东,青岛,青岛,0532,186****7715,长江路沿线,富春江路178号,景点,旅行社,120.183506,35.957626
回澜阁雨林谷,山东,青岛,青岛,0532,,市南区,栈桥公园,景点,城市观光,120.319854,36.060374
沙子口广场,山东,青岛,青岛,0532,,崂山风景区,崂山路109号,景点,广场,120.543733,36.113119
沽河沙场,山东,青岛,青岛,0532,151****9266,新利群商场,店子山三路八里庄小学南侧约110米,景点,更多景点/周边游,120.420079,36.392099
御璟庭院景观,山东,青岛,青岛,0532,85991234,灵山路,水灵山路392-1号附近,景点,景点/周边游,120.010556,35.885816
孔子六艺文化园,山东,青岛,胶州市,0532,136****9527;185****0532,胶州市,少海南路2号,景点,文化公园,120.081641,36.246541
青岛东方影都大剧院,山东,青岛,青岛,0532,4000802828,黄岛区,星海湾路368号,景点,现代建筑,120.107784,35.898362
海尔世界家电博物馆,山东,青岛,青岛,0532,80999066,极地海洋世界,东海东路52号,景点,博物馆,120.438886,36.068137
千水千月广场,山东,青岛,青岛,0532,,极地海洋世界,东海东路与海江路交叉路口往东约230米,景点,公园/广场,120.446529,36.071594
御海明珠海参工厂展览馆,山东,青岛,青岛,0532,159****1001,浮山后,福州北路135-3号鼎都大厦1号商务楼,景点,展览馆,120.399567,36.100414
珊瑚贝桥,山东,青岛,青岛,0532,,胶南黄海学院,连岛一号桥,景点,现代建筑,120.102728,35.899415
